[{"business_status": "OPERATIONAL", "geometry": {"location": {"lat": -37.84634330000001, "lng": 144.9784634}, "viewport": {"northeast": {"lat": -37.8448950197085, "lng": 144.9797159302915}, "southwest": {"lat": -37.8475929802915, "lng": 144.9770179697085}}}, "icon": "https://maps.gstatic.com/mapfiles/place_api/icons/v1/png_71/lodging-71.png", "icon_background_color": "#909CE1", "icon_mask_base_uri": "https://maps.gstatic.com/mapfiles/place_api/icons/v2/hotel_pinlet", "name": "View Melbourne", "photos": [{"height": 1333, "html_attributions": ["<a href=\"https://maps.google.com/maps/contrib/105361950229148315412\">View Melbourne</a>"], "photo_reference": "AcYSjRhjSZPhFvE4gZp5J4BnpV4fTuXFo-izDYpSFj5ngcaPDJZDHjJeenMT2S0WtHg6JdQQZDPc_My0yAS7TCzYh2nVjUH34od7serdBr1UiMtXYwDH2BSCSdLVc-bk-MbCtPYbjnUW4_wb-t6p93yaqYmi2OXsqfUEjWXMfSmxTuGT_WKY", "width": 2000}], "place_id": "ChIJPYClWhdo1moRFlfbP6Emzik", "plus_code": {"compound_code": "5X3H+F9 Melbourne VIC, Australia", "global_code": "4RJ65X3H+F9"}, "rating": 4.2, "reference": "ChIJPYClWhdo1moRFlfbP6Emzik", "scope": "GOOGLE", "types": ["cafe", "bar", "lodging", "restaurant", "food", "point_of_interest", "establishment"], "user_ratings_total": 932, "vicinity": "562 Saint Kilda Road, Melbourne", "primary_type": "Bar/Nightlife", "types str": "cafe, bar, lodging, restaurant, food, point_of_interest, establishment", "popup": "<h4><b>View Melbourne</b></h4>562 Saint Kilda Road, Melbourne<br><i>cafe, bar, lodging, restaurant, food, point of interest, establishment</i><br><br><font color=\"gray\"><b>4.2\u2605</b> (932)</font>", "long": 144.9784634, "lat": -37.84634330000001}, {"business_status": "OPERATIONAL", "geometry": {"location": {"lat": -37.8462826, "lng": 144.9787933}, "viewport": {"northeast": {"lat": -37.8448629697085, "lng": 144.9798882302915}, "southwest": {"lat": -37.8475609302915, "lng": 144.9771902697085}}}, "icon": "https://maps.gstatic.com/mapfiles/place_api/icons/v1/png_71/cafe-71.png", "icon_background_color": "#FF9E67", "icon_mask_base_uri": "https://maps.gstatic.com/mapfiles/place_api/icons/v2/cafe_pinlet", "name": "Woods", "opening_hours": {"open_now": true}, "photos": [{"height": 3036, "html_attributions": ["<a href=\"https://maps.google.com/maps/contrib/108124604485518615755\">Chris Cumpian</a>"], "photo_reference": "AcYSjRh_xOLj0vMFSBOofm5Ap_Y4qgT4oWioSpGaflR0uPHJTB6avKj6rQjsdro2PA6CCf41KjbtNOBPWLFdS57XtpwyHngkZXENRJaz7d5m1E7CBpAIOAmOZLNqeOEUvKSClqhBKAtD_WhCQUboyxuxlbj3wYpndOUauEUQx-EnSKvKuh8y", "width": 4048}], "place_id": "ChIJPYClWhdo1moRkdwtV3a2jYY", "plus_code": {"compound_code": "5X3H+FG Melbourne VIC, Australia", "global_code": "4RJ65X3H+FG"}, "price_level": 1, "rating": 2.9, "reference": "ChIJPYClWhdo1moRkdwtV3a2jYY", "scope": "GOOGLE", "types": ["cafe", "bar", "store", "restaurant", "food", "point_of_interest", "establishment"], "user_ratings_total": 37, "vicinity": "562 Saint Kilda Road, Melbourne", "primary_type": "Bar/Nightlife", "types str": "cafe, bar, store, restaurant, food, point_of_interest, establishment", "popup": "<h4><b>Woods</b></h4>562 Saint Kilda Road, Melbourne<br><i>cafe, bar, store, restaurant, food, point of interest, establishment</i><br><br><font color=\"gray\"><b>2.9\u2605</b> (37)</font><font color=\"green\"><span style=\"float:right\">$</font></span>", "long": 144.9787933, "lat": -37.8462826}, {"business_status": "OPERATIONAL", "geometry": {"location": {"lat": -37.8452371, "lng": 144.9794981}, "viewport": {"northeast": {"lat": -37.8438026697085, "lng": 144.9807593302915}, "southwest": {"lat": -37.8465006302915, "lng": 144.9780613697085}}}, "icon": "https://maps.gstatic.com/mapfiles/place_api/icons/v1/png_71/restaurant-71.png", "icon_background_color": "#FF9E67", "icon_mask_base_uri": "https://maps.gstatic.com/mapfiles/place_api/icons/v2/restaurant_pinlet", "name": "Tapenade", "opening_hours": {"open_now": true}, "photos": [{"height": 1400, "html_attributions": ["<a href=\"https://maps.google.com/maps/contrib/110658133709426064503\">Tapenade</a>"], "photo_reference": "AcYSjRgtLV-ZAC-JxhHDMwhrhcy0i6kz5MPGRWOz0JvrmNKZmfHKpI_Y1B2WgsvG83U7KIeXnPiBhyN8F_pzNWK-pz8J67ogaoTvZgkLEiyotXpkt-LYx111WDZ--FPY3qntwBL128Q_NGwjlWLmfmZgEJG6iM6v7V0n8VCyI16N3QFT2sl5", "width": 1000}], "place_id": "ChIJSzqPUsdp1moRQRryflQ-nfA", "plus_code": {"compound_code": "5X3H+WQ Melbourne VIC, Australia", "global_code": "4RJ65X3H+WQ"}, "rating": 4.9, "reference": "ChIJSzqPUsdp1moRQRryflQ-nfA", "scope": "GOOGLE", "types": ["cafe", "bar", "restaurant", "food", "point_of_interest", "establishment"], "user_ratings_total": 89, "vicinity": "1A/3 Commercial Road, Melbourne", "primary_type": "Bar/Nightlife", "types str": "cafe, bar, restaurant, food, point_of_interest, establishment", "popup": "<h4><b>Tapenade</b></h4>1A/3 Commercial Road, Melbourne<br><i>cafe, bar, restaurant, food, point of interest, establishment</i><br><br><font color=\"gray\"><b>4.9\u2605</b> (89)</font>", "long": 144.9794981, "lat": -37.8452371}, {"business_status": "OPERATIONAL", "geometry": {"location": {"lat": -37.84634330000001, "lng": 144.9784634}, "viewport": {"northeast": {"lat": -37.8448950197085, "lng": 144.9797159302915}, "southwest": {"lat": -37.8475929802915, "lng": 144.9770179697085}}}, "icon": "https://maps.gstatic.com/mapfiles/place_api/icons/v1/png_71/lodging-71.png", "icon_background_color": "#909CE1", "icon_mask_base_uri": "https://maps.gstatic.com/mapfiles/place_api/icons/v2/hotel_pinlet", "name": "View Melbourne", "photos": [{"height": 1333, "html_attributions": ["<a href=\"https://maps.google.com/maps/contrib/105361950229148315412\">View Melbourne</a>"], "photo_reference": "AcYSjRgpnlg5Lxqu-NOHTocuiuBHrZx91v7Ij9abjI9HpkPpPmHnA7zzrX7gDYDw46VF6UjTmyFfAKlXde43B7yXUnm6q4o29b6Q9Mo549kkVKe5nnt4d4oOGtwklWp7xa5ucwOLc3AOivBtul_kM7gVESkIvWreST4oOVIGVOz_V9Ytsw4I", "width": 2000}], "place_id": "ChIJPYClWhdo1moRFlfbP6Emzik", "plus_code": {"compound_code": "5X3H+F9 Melbourne VIC, Australia", "global_code": "4RJ65X3H+F9"}, "rating": 4.2, "reference": "ChIJPYClWhdo1moRFlfbP6Emzik", "scope": "GOOGLE", "types": ["cafe", "lodging", "bar", "restaurant", "food", "point_of_interest", "establishment"], "user_ratings_total": 932, "vicinity": "562 Saint Kilda Road, Melbourne", "primary_type": "Bar/Nightlife", "types str": "cafe, lodging, bar, restaurant, food, point_of_interest, establishment", "popup": "<h4><b>View Melbourne</b></h4>562 Saint Kilda Road, Melbourne<br><i>cafe, lodging, bar, restaurant, food, point of interest, establishment</i><br><br><font color=\"gray\"><b>4.2\u2605</b> (932)</font>", "long": 144.9784634, "lat": -37.84634330000001}, {"business_status": "OPERATIONAL", "geometry": {"location": {"lat": -37.8462826, "lng": 144.9787933}, "viewport": {"northeast": {"lat": -37.8448629697085, "lng": 144.9798882302915}, "southwest": {"lat": -37.8475609302915, "lng": 144.9771902697085}}}, "icon": "https://maps.gstatic.com/mapfiles/place_api/icons/v1/png_71/cafe-71.png", "icon_background_color": "#FF9E67", "icon_mask_base_uri": "https://maps.gstatic.com/mapfiles/place_api/icons/v2/cafe_pinlet", "name": "Woods", "opening_hours": {"open_now": true}, "photos": [{"height": 3036, "html_attributions": ["<a href=\"https://maps.google.com/maps/contrib/108124604485518615755\">Chris Cumpian</a>"], "photo_reference": "AcYSjRhyzRWph3tivfxtQxbBwetvSBT5fSEC1UFajpiyDFiJ1ku8kQjpZo3-7zFMtey7BGY70DEgr_gfxcD2AKS9Mf0zLvHq9P5F_1lmWLMrDV5zLjn9Ff-m18h4PmjqkVrbGcjfDOaaEBkavoldoMzH-wPE3kskTvjfX5dwfNzyWmgli7Sx", "width": 4048}], "place_id": "ChIJPYClWhdo1moRkdwtV3a2jYY", "plus_code": {"compound_code": "5X3H+FG Melbourne VIC, Australia", "global_code": "4RJ65X3H+FG"}, "price_level": 1, "rating": 2.9, "reference": "ChIJPYClWhdo1moRkdwtV3a2jYY", "scope": "GOOGLE", "types": ["cafe", "bar", "store", "restaurant", "food", "point_of_interest", "establishment"], "user_ratings_total": 37, "vicinity": "562 Saint Kilda Road, Melbourne", "primary_type": "Bar/Nightlife", "types str": "cafe, bar, store, restaurant, food, point_of_interest, establishment", "popup": "<h4><b>Woods</b></h4>562 Saint Kilda Road, Melbourne<br><i>cafe, bar, store, restaurant, food, point of interest, establishment</i><br><br><font color=\"gray\"><b>2.9\u2605</b> (37)</font><font color=\"green\"><span style=\"float:right\">$</font></span>", "long": 144.9787933, "lat": -37.8462826}, {"business_status": "OPERATIONAL", "geometry": {"location": {"lat": -37.8452371, "lng": 144.9794981}, "viewport": {"northeast": {"lat": -37.8438026697085, "lng": 144.9807593302915}, "southwest": {"lat": -37.8465006302915, "lng": 144.9780613697085}}}, "icon": "https://maps.gstatic.com/mapfiles/place_api/icons/v1/png_71/restaurant-71.png", "icon_background_color": "#FF9E67", "icon_mask_base_uri": "https://maps.gstatic.com/mapfiles/place_api/icons/v2/restaurant_pinlet", "name": "Tapenade", "opening_hours": {"open_now": true}, "photos": [{"height": 1400, "html_attributions": ["<a href=\"https://maps.google.com/maps/contrib/110658133709426064503\">Tapenade</a>"], "photo_reference": "AcYSjRgY3i6tPBr5jIZrybgf7rAejESR6LYhTc56WNv9m28tdGYg8oVWMNxtSaV5tNUdqfU_Ln_pk_2J9TzEbP6RJaL65kdu7JB15IQxQSSmLP_tVjW2EildnZQBmonCs8mqzYsGN8YixLUgn6a21OYFBAsIC_J-7V4hRoauXrlx6q6OyPR_", "width": 1000}], "place_id": "ChIJSzqPUsdp1moRQRryflQ-nfA", "plus_code": {"compound_code": "5X3H+WQ Melbourne VIC, Australia", "global_code": "4RJ65X3H+WQ"}, "rating": 4.9, "reference": "ChIJSzqPUsdp1moRQRryflQ-nfA", "scope": "GOOGLE", "types": ["cafe", "bar", "restaurant", "food", "point_of_interest", "establishment"], "user_ratings_total": 89, "vicinity": "1A/3 Commercial Road, Melbourne", "primary_type": "Bar/Nightlife", "types str": "cafe, bar, restaurant, food, point_of_interest, establishment", "popup": "<h4><b>Tapenade</b></h4>1A/3 Commercial Road, Melbourne<br><i>cafe, bar, restaurant, food, point of interest, establishment</i><br><br><font color=\"gray\"><b>4.9\u2605</b> (89)</font>", "long": 144.9794981, "lat": -37.8452371}, {"business_status": "OPERATIONAL", "geometry": {"location": {"lat": -37.836079, "lng": 144.967781}, "viewport": {"northeast": {"lat": -37.83467526970851, "lng": 144.9691940802915}, "southwest": {"lat": -37.8373732302915, "lng": 144.9664961197085}}}, "icon": "https://maps.gstatic.com/mapfiles/place_api/icons/v1/png_71/cafe-71.png", "icon_background_color": "#FF9E67", "icon_mask_base_uri": "https://maps.gstatic.com/mapfiles/place_api/icons/v2/cafe_pinlet", "name": "Roastie Toastie Bros, Cafe & Pizza Bar", "opening_hours": {"open_now": true}, "photos": [{"height": 3000, "html_attributions": ["<a href=\"https://maps.google.com/maps/contrib/112668508520804930546\">Roastie Toastie Bros, Cafe &amp; Pizza Bar</a>"], "photo_reference": "AcYSjRhMhnx5JzpAyRqAW-lEX0IDK8MJtPSVU-tCvifZmG9Xm5Pxue6MM_1FO6DbBMyySs_Q3IJTorJdVJdbbfTYdY4cibt7BzmaDWH94-_Wre8R6iegr4AaEQB4b4r8bWTjQVHzWIjTphYntPgk9hNi671WLOPcwv-ZUI7PVmTwBcpV4Bg", "width": 4000}], "place_id": "ChIJdf9Zo7xp1moRWymhh_RJJQg", "plus_code": {"compound_code": "5X79+H4 South Melbourne VIC, Australia", "global_code": "4RJ65X79+H4"}, "rating": 4.5, "reference": "ChIJdf9Zo7xp1moRWymhh_RJJQg", "scope": "GOOGLE", "types": ["cafe", "liquor_store", "bar", "store", "restaurant", "food", "point_of_interest", "establishment"], "user_ratings_total": 64, "vicinity": "G/87-91 Palmerston Crescent, South Melbourne", "primary_type": "Bar/Nightlife", "types str": "cafe, liquor_store, bar, store, restaurant, food, point_of_interest, establishment", "popup": "<h4><b>Roastie Toastie Bros, Cafe & Pizza Bar</b></h4>G/87-91 Palmerston Crescent, South Melbourne<br><i>cafe, liquor store, bar, store, restaurant, food, point of interest, establishment</i><br><br><font color=\"gray\"><b>4.5\u2605</b> (64)</font>", "long": 144.967781, "lat": -37.836079}, {"business_status": "OPERATIONAL", "geometry": {"location": {"lat": -37.8284736, "lng": 144.9679377}, "viewport": {"northeast": {"lat": -37.82717986970849, "lng": 144.9693114302915}, "southwest": {"lat": -37.82987783029149, "lng": 144.9666134697085}}}, "icon": "https://maps.gstatic.com/mapfiles/place_api/icons/v1/png_71/cafe-71.png", "icon_background_color": "#FF9E67", "icon_mask_base_uri": "https://maps.gstatic.com/mapfiles/place_api/icons/v2/cafe_pinlet", "name": "8 Miles Cafe", "opening_hours": {"open_now": true}, "photos": [{"height": 768, "html_attributions": ["<a href=\"https://maps.google.com/maps/contrib/109535911038427117372\">8 Miles Cafe</a>"], "photo_reference": "AcYSjRg3-pBsDD5ZwufxPhRyWFX4VBAHVTyIlBSY321BkoOffdyAX_yqee6VkbMC10Z1SqkG4sjpsVQ64r1wo4G336Aot6SOVbF6nAE39b2rrxoYfujVu1YNWlDITjAbUEM0haIRYeV0_9iojwsLw2luvTxnpvN3ENxhFdeKV8h97ri2M02f", "width": 1024}], "place_id": "ChIJlxIRSalC1moR1JpDqIy6jjg", "plus_code": {"compound_code": "5XC9+J5 Southbank VIC, Australia", "global_code": "4RJ65XC9+J5"}, "price_level": 1, "rating": 4.5, "reference": "ChIJlxIRSalC1moR1JpDqIy6jjg", "scope": "GOOGLE", "types": ["cafe", "bar", "store", "restaurant", "food", "point_of_interest", "establishment"], "user_ratings_total": 145, "vicinity": "8 Miles Street, Southbank", "primary_type": "Bar/Nightlife", "types str": "cafe, bar, store, restaurant, food, point_of_interest, establishment", "popup": "<h4><b>8 Miles Cafe</b></h4>8 Miles Street, Southbank<br><i>cafe, bar, store, restaurant, food, point of interest, establishment</i><br><br><font color=\"gray\"><b>4.5\u2605</b> (145)</font><font color=\"green\"><span style=\"float:right\">$</font></span>", "long": 144.9679377, "lat": -37.8284736}, {"business_status": "OPERATIONAL", "geometry": {"location": {"lat": -37.81626500000001, "lng": 144.9683427}, "viewport": {"northeast": {"lat": -37.81483781970851, "lng": 144.9696460302915}, "southwest": {"lat": -37.8175357802915, "lng": 144.9669480697085}}}, "icon": "https://maps.gstatic.com/mapfiles/place_api/icons/v1/png_71/lodging-71.png", "icon_background_color": "#909CE1", "icon_mask_base_uri": "https://maps.gstatic.com/mapfiles/place_api/icons/v2/hotel_pinlet", "name": "Adelphi Hotel", "opening_hours": {"open_now": true}, "photos": [{"height": 4452, "html_attributions": ["<a href=\"https://maps.google.com/maps/contrib/109747671883562086540\">Adelphi Hotel</a>"], "photo_reference": "AcYSjRh747Z275BkStRg0rR96fj6os1DSL_OGXhg_wyY2izNEUekYRkvJcMcUIBvDhI2x15rO5NQXYhwwNWQiTIogyw25PoQm3Yw6GbzqxZ_fRXXPJgUZsQgcTN4Si0TPnnCIDWl3BAcGQMcnZIVnVVIY2c3s7-_J60Smfk_SeT3A1I4Bjw6", "width": 6430}], "place_id": "ChIJt6dyXLZC1moRiFZMgwIP6fc", "plus_code": {"compound_code": "5XM9+F8 Melbourne VIC, Australia", "global_code": "4RJ65XM9+F8"}, "rating": 4.4, "reference": "ChIJt6dyXLZC1moRiFZMgwIP6fc", "scope": "GOOGLE", "types": ["cafe", "bar", "restaurant", "food", "lodging", "point_of_interest", "establishment"], "user_ratings_total": 428, "vicinity": "187 Flinders Lane, Melbourne", "primary_type": "Bar/Nightlife", "types str": "cafe, bar, restaurant, food, lodging, point_of_interest, establishment", "popup": "<h4><b>Adelphi Hotel</b></h4>187 Flinders Lane, Melbourne<br><i>cafe, bar, restaurant, food, lodging, point of interest, establishment</i><br><br><font color=\"gray\"><b>4.4\u2605</b> (428)</font>", "long": 144.9683427, "lat": -37.81626500000001}, {"business_status": "OPERATIONAL", "geometry": {"location": {"lat": -37.8173408, "lng": 144.9671631}, "viewport": {"northeast": {"lat": -37.81607731970851, "lng": 144.9684923302915}, "southwest": {"lat": -37.81877528029151, "lng": 144.9657943697085}}}, "icon": "https://maps.gstatic.com/mapfiles/place_api/icons/v1/png_71/bar-71.png", "icon_background_color": "#FF9E67", "icon_mask_base_uri": "https://maps.gstatic.com/mapfiles/place_api/icons/v2/bar_pinlet", "name": "Young and Jacksons", "opening_hours": {"open_now": false}, "photos": [{"height": 3024, "html_attributions": ["<a href=\"https://maps.google.com/maps/contrib/112004520561690399735\">Pranav Malaviya</a>"], "photo_reference": "AcYSjRgil36cENYwuhwz4Cx4yst2rk8lcKegunvb6-yWmvt_lY5YUc8gbTRtDHggjuqjfDVBd-JArZo5-gt6tuqJw_biaX9RGBREE7sQ98U8EvUx8nG2WOvxeECKx_EUE37Ajz_0lK--Sb5UYBic2c_FRnQ3M4E3mrjvYVcQ7pJ_qB3S-03R", "width": 4032}], "place_id": "ChIJ3VlKn7ZC1moRnOHqo_15M_I", "plus_code": {"compound_code": "5XM8+3V Melbourne VIC, Australia", "global_code": "4RJ65XM8+3V"}, "price_level": 2, "rating": 4.2, "reference": "ChIJ3VlKn7ZC1moRnOHqo_15M_I", "scope": "GOOGLE", "types": ["cafe", "bar", "restaurant", "food", "point_of_interest", "establishment"], "user_ratings_total": 3234, "vicinity": "1 Swanston Street, Melbourne", "primary_type": "Bar/Nightlife", "types str": "cafe, bar, restaurant, food, point_of_interest, establishment", "popup": "<h4><b>Young and Jacksons</b></h4>1 Swanston Street, Melbourne<br><i>cafe, bar, restaurant, food, point of interest, establishment</i><br><br><font color=\"gray\"><b>4.2\u2605</b> (3234)</font><font color=\"green\"><span style=\"float:right\">$$</font></span>", "long": 144.9671631, "lat": -37.8173408}, {"business_status": "OPERATIONAL", "geometry": {"location": {"lat": -37.81626500000001, "lng": 144.9683427}, "viewport": {"northeast": {"lat": -37.81483781970851, "lng": 144.9696460302915}, "southwest": {"lat": -37.8175357802915, "lng": 144.9669480697085}}}, "icon": "https://maps.gstatic.com/mapfiles/place_api/icons/v1/png_71/lodging-71.png", "icon_background_color": "#909CE1", "icon_mask_base_uri": "https://maps.gstatic.com/mapfiles/place_api/icons/v2/hotel_pinlet", "name": "Adelphi Hotel", "opening_hours": {"open_now": true}, "photos": [{"height": 4452, "html_attributions": ["<a href=\"https://maps.google.com/maps/contrib/109747671883562086540\">Adelphi Hotel</a>"], "photo_reference": "AcYSjRiegTSegvgkCXkvOlGPVPv-if4OTk0Rsnp_8kS92y1teeBPcw5KgYy2pJ5nNViooGuTjoUQ4lsxVPzLYEiac0fde5u356QTlN5fYjyb1Xo-i0-l0qpOo_sX2reovXxGylaka6oi0SWamfCS5UxCRTMHega70Cr2lHSbA06YgejUIor7", "width": 6430}], "place_id": "ChIJt6dyXLZC1moRiFZMgwIP6fc", "plus_code": {"compound_code": "5XM9+F8 Melbourne VIC, Australia", "global_code": "4RJ65XM9+F8"}, "rating": 4.4, "reference": "ChIJt6dyXLZC1moRiFZMgwIP6fc", "scope": "GOOGLE", "types": ["cafe", "bar", "restaurant", "food", "lodging", "point_of_interest", "establishment"], "user_ratings_total": 428, "vicinity": "187 Flinders Lane, Melbourne", "primary_type": "Bar/Nightlife", "types str": "cafe, bar, restaurant, food, lodging, point_of_interest, establishment", "popup": "<h4><b>Adelphi Hotel</b></h4>187 Flinders Lane, Melbourne<br><i>cafe, bar, restaurant, food, lodging, point of interest, establishment</i><br><br><font color=\"gray\"><b>4.4\u2605</b> (428)</font>", "long": 144.9683427, "lat": -37.81626500000001}, {"business_status": "OPERATIONAL", "geometry": {"location": {"lat": -37.8173408, "lng": 144.9671631}, "viewport": {"northeast": {"lat": -37.81607731970851, "lng": 144.9684923302915}, "southwest": {"lat": -37.81877528029151, "lng": 144.9657943697085}}}, "icon": "https://maps.gstatic.com/mapfiles/place_api/icons/v1/png_71/bar-71.png", "icon_background_color": "#FF9E67", "icon_mask_base_uri": "https://maps.gstatic.com/mapfiles/place_api/icons/v2/bar_pinlet", "name": "Young and Jacksons", "opening_hours": {"open_now": false}, "photos": [{"height": 3024, "html_attributions": ["<a href=\"https://maps.google.com/maps/contrib/112004520561690399735\">Pranav Malaviya</a>"], "photo_reference": "AcYSjRgTh3touoQ1dnZjrUDYwzEXdz8DCNZyrfpeQz0fj8vJS6rk0zIqEmbOsTPr-ZSnH0Si5FdFziPBkm9L0FztHKaoNpA8p0SN-I95y50ltl5fayhe-eJsveyH7xdnQXRL-HUPN2M2Zb2rtKsNdQxe2Rx5OHxOSxntRJlDA74Z7Sfp817O", "width": 4032}], "place_id": "ChIJ3VlKn7ZC1moRnOHqo_15M_I", "plus_code": {"compound_code": "5XM8+3V Melbourne VIC, Australia", "global_code": "4RJ65XM8+3V"}, "price_level": 2, "rating": 4.2, "reference": "ChIJ3VlKn7ZC1moRnOHqo_15M_I", "scope": "GOOGLE", "types": ["cafe", "bar", "restaurant", "food", "point_of_interest", "establishment"], "user_ratings_total": 3234, "vicinity": "1 Swanston Street, Melbourne", "primary_type": "Bar/Nightlife", "types str": "cafe, bar, restaurant, food, point_of_interest, establishment", "popup": "<h4><b>Young and Jacksons</b></h4>1 Swanston Street, Melbourne<br><i>cafe, bar, restaurant, food, point of interest, establishment</i><br><br><font color=\"gray\"><b>4.2\u2605</b> (3234)</font><font color=\"green\"><span style=\"float:right\">$$</font></span>", "long": 144.9671631, "lat": -37.8173408}, {"business_status": "OPERATIONAL", "geometry": {"location": {"lat": -37.8197517, "lng": 144.956651}, "viewport": {"northeast": {"lat": -37.81846641970851, "lng": 144.9578763302915}, "southwest": {"lat": -37.82116438029151, "lng": 144.9551783697085}}}, "icon": "https://maps.gstatic.com/mapfiles/place_api/icons/v1/png_71/cafe-71.png", "icon_background_color": "#FF9E67", "icon_mask_base_uri": "https://maps.gstatic.com/mapfiles/place_api/icons/v2/cafe_pinlet", "name": "Grain Store", "opening_hours": {"open_now": true}, "photos": [{"height": 1280, "html_attributions": ["<a href=\"https://maps.google.com/maps/contrib/109541729505778246776\">Grain Store</a>"], "photo_reference": "AcYSjRiiUPtFrQAyLYU2JotUjNr0DMYEQ33kSVJvViV9fduWj1BSNNJ-QMN2XQxOSn2J-Q75zkbG2JDqxlf6_QzrIWPFS89_CFZdv8L25Z9xEx4QpVUzbotEr7jtDFnG8v-Z6r4O1uUvXTukoa_0Na1cO-c0G72B_b_OM5BGLfj3w_078eFs", "width": 1920}], "place_id": "ChIJEcl3801d1moRgOGlD-vbemk", "plus_code": {"compound_code": "5XJ4+3M Melbourne VIC, Australia", "global_code": "4RJ65XJ4+3M"}, "price_level": 2, "rating": 4.3, "reference": "ChIJEcl3801d1moRgOGlD-vbemk", "scope": "GOOGLE", "types": ["cafe", "meal_delivery", "meal_takeaway", "store", "bar", "restaurant", "food", "point_of_interest", "establishment"], "user_ratings_total": 2034, "vicinity": "517 Flinders Lane, Melbourne", "primary_type": "Bar/Nightlife", "types str": "cafe, meal_delivery, meal_takeaway, store, bar, restaurant, food, point_of_interest, establishment", "popup": "<h4><b>Grain Store</b></h4>517 Flinders Lane, Melbourne<br><i>cafe, meal delivery, meal takeaway, store, bar, restaurant, food, point of interest, establishment</i><br><br><font color=\"gray\"><b>4.3\u2605</b> (2034)</font><font color=\"green\"><span style=\"float:right\">$$</font></span>", "long": 144.956651, "lat": -37.8197517}, {"business_status": "OPERATIONAL", "geometry": {"location": {"lat": -37.81626500000001, "lng": 144.9683427}, "viewport": {"northeast": {"lat": -37.81483781970851, "lng": 144.9696460302915}, "southwest": {"lat": -37.8175357802915, "lng": 144.9669480697085}}}, "icon": "https://maps.gstatic.com/mapfiles/place_api/icons/v1/png_71/lodging-71.png", "icon_background_color": "#909CE1", "icon_mask_base_uri": "https://maps.gstatic.com/mapfiles/place_api/icons/v2/hotel_pinlet", "name": "Adelphi Hotel", "opening_hours": {"open_now": true}, "photos": [{"height": 4452, "html_attributions": ["<a href=\"https://maps.google.com/maps/contrib/109747671883562086540\">Adelphi Hotel</a>"], "photo_reference": "AcYSjRipoQqQCY7u8PtGNcRdusZUK5f2plons6aey8p394C8M0swbkZsThDsxPghZICffTLs8QRU9XGjC2gPzI8wTJybamoFUODWIPQ9ryQ5-NvRTz20-94NLUNF4IN0yjJ7myMiTFrLqRtE8UQuYiMGjSdoIxYDjrnYNevLMRVoHhxWbkm5", "width": 6430}], "place_id": "ChIJt6dyXLZC1moRiFZMgwIP6fc", "plus_code": {"compound_code": "5XM9+F8 Melbourne VIC, Australia", "global_code": "4RJ65XM9+F8"}, "rating": 4.4, "reference": "ChIJt6dyXLZC1moRiFZMgwIP6fc", "scope": "GOOGLE", "types": ["cafe", "bar", "lodging", "restaurant", "point_of_interest", "food", "establishment"], "user_ratings_total": 428, "vicinity": "187 Flinders Lane, Melbourne", "primary_type": "Bar/Nightlife", "types str": "cafe, bar, lodging, restaurant, point_of_interest, food, establishment", "popup": "<h4><b>Adelphi Hotel</b></h4>187 Flinders Lane, Melbourne<br><i>cafe, bar, lodging, restaurant, point of interest, food, establishment</i><br><br><font color=\"gray\"><b>4.4\u2605</b> (428)</font>", "long": 144.9683427, "lat": -37.81626500000001}, {"business_status": "OPERATIONAL", "geometry": {"location": {"lat": -37.8197517, "lng": 144.956651}, "viewport": {"northeast": {"lat": -37.81846641970851, "lng": 144.9578763302915}, "southwest": {"lat": -37.82116438029151, "lng": 144.9551783697085}}}, "icon": "https://maps.gstatic.com/mapfiles/place_api/icons/v1/png_71/cafe-71.png", "icon_background_color": "#FF9E67", "icon_mask_base_uri": "https://maps.gstatic.com/mapfiles/place_api/icons/v2/cafe_pinlet", "name": "Grain Store", "opening_hours": {"open_now": true}, "photos": [{"height": 1280, "html_attributions": ["<a href=\"https://maps.google.com/maps/contrib/109541729505778246776\">Grain Store</a>"], "photo_reference": "AcYSjRjovXBcjOBiixiA2L_cq8zOvNt5Ty-fG4KF8opVCiXsGs37wyW4EWMSkMBvohD66MGK5tPzNLf2uszCwpr9lN5h3p488Lilhs8LzWz9XbDFZEd765tQOrix9YYN65pdsN9QGGQGSfpuqzgg1x5H6dXZ8uDG4YVgo6UgXjofMFROyrBj", "width": 1920}], "place_id": "ChIJEcl3801d1moRgOGlD-vbemk", "plus_code": {"compound_code": "5XJ4+3M Melbourne VIC, Australia", "global_code": "4RJ65XJ4+3M"}, "price_level": 2, "rating": 4.3, "reference": "ChIJEcl3801d1moRgOGlD-vbemk", "scope": "GOOGLE", "types": ["cafe", "meal_takeaway", "meal_delivery", "bar", "store", "restaurant", "point_of_interest", "food", "establishment"], "user_ratings_total": 2034, "vicinity": "517 Flinders Lane, Melbourne", "primary_type": "Bar/Nightlife", "types str": "cafe, meal_takeaway, meal_delivery, bar, store, restaurant, point_of_interest, food, establishment", "popup": "<h4><b>Grain Store</b></h4>517 Flinders Lane, Melbourne<br><i>cafe, meal takeaway, meal delivery, bar, store, restaurant, point of interest, food, establishment</i><br><br><font color=\"gray\"><b>4.3\u2605</b> (2034)</font><font color=\"green\"><span style=\"float:right\">$$</font></span>", "long": 144.956651, "lat": -37.8197517}, {"business_status": "OPERATIONAL", "geometry": {"location": {"lat": -37.81626500000001, "lng": 144.9683427}, "viewport": {"northeast": {"lat": -37.81483781970851, "lng": 144.9696460302915}, "southwest": {"lat": -37.8175357802915, "lng": 144.9669480697085}}}, "icon": "https://maps.gstatic.com/mapfiles/place_api/icons/v1/png_71/lodging-71.png", "icon_background_color": "#909CE1", "icon_mask_base_uri": "https://maps.gstatic.com/mapfiles/place_api/icons/v2/hotel_pinlet", "name": "Adelphi Hotel", "opening_hours": {"open_now": true}, "photos": [{"height": 4452, "html_attributions": ["<a href=\"https://maps.google.com/maps/contrib/109747671883562086540\">Adelphi Hotel</a>"], "photo_reference": "AcYSjRigcTQzMgtTrp7cbYRcdqabKJMBYAFdwr5z54rvr7VEsZaexCeMkTYRtA49rC0xAjs8TuUZpq9wGqlI-7bzDfDxzOz4nCm2BOKV8Rc6ifv4iEDlzkMue5BHY9d-PHL38AXocIbdiKfvghAbbNdzKC400PX1ibQ8cnva8Mo61dScEpDD", "width": 6430}], "place_id": "ChIJt6dyXLZC1moRiFZMgwIP6fc", "plus_code": {"compound_code": "5XM9+F8 Melbourne VIC, Australia", "global_code": "4RJ65XM9+F8"}, "rating": 4.4, "reference": "ChIJt6dyXLZC1moRiFZMgwIP6fc", "scope": "GOOGLE", "types": ["cafe", "lodging", "bar", "restaurant", "point_of_interest", "food", "establishment"], "user_ratings_total": 428, "vicinity": "187 Flinders Lane, Melbourne", "primary_type": "Bar/Nightlife", "types str": "cafe, lodging, bar, restaurant, point_of_interest, food, establishment", "popup": "<h4><b>Adelphi Hotel</b></h4>187 Flinders Lane, Melbourne<br><i>cafe, lodging, bar, restaurant, point of interest, food, establishment</i><br><br><font color=\"gray\"><b>4.4\u2605</b> (428)</font>", "long": 144.9683427, "lat": -37.81626500000001}, {"business_status": "OPERATIONAL", "geometry": {"location": {"lat": -37.81626500000001, "lng": 144.9683427}, "viewport": {"northeast": {"lat": -37.81483781970851, "lng": 144.9696460302915}, "southwest": {"lat": -37.8175357802915, "lng": 144.9669480697085}}}, "icon": "https://maps.gstatic.com/mapfiles/place_api/icons/v1/png_71/lodging-71.png", "icon_background_color": "#909CE1", "icon_mask_base_uri": "https://maps.gstatic.com/mapfiles/place_api/icons/v2/hotel_pinlet", "name": "Adelphi Hotel", "opening_hours": {"open_now": true}, "photos": [{"height": 4452, "html_attributions": ["<a href=\"https://maps.google.com/maps/contrib/109747671883562086540\">Adelphi Hotel</a>"], "photo_reference": "AcYSjRiDozGWsHyjKGVkvVw3SfowldSJb_OD1KKwjV9eyy94GDBzemfLCL0ybynQB8s36C_pwk6xvM3pEFtSku8_0JtqhDs7jIreynyAPO2ZknwaljKW3mPj-9G02v3R3d37Qvf8wANv3byVcm3_-q6N2J5eeGV2BDypgD9M5Cntt4yEGhXD", "width": 6430}], "place_id": "ChIJt6dyXLZC1moRiFZMgwIP6fc", "plus_code": {"compound_code": "5XM9+F8 Melbourne VIC, Australia", "global_code": "4RJ65XM9+F8"}, "rating": 4.4, "reference": "ChIJt6dyXLZC1moRiFZMgwIP6fc", "scope": "GOOGLE", "types": ["cafe", "bar", "lodging", "restaurant", "point_of_interest", "food", "establishment"], "user_ratings_total": 428, "vicinity": "187 Flinders Lane, Melbourne", "primary_type": "Bar/Nightlife", "types str": "cafe, bar, lodging, restaurant, point_of_interest, food, establishment", "popup": "<h4><b>Adelphi Hotel</b></h4>187 Flinders Lane, Melbourne<br><i>cafe, bar, lodging, restaurant, point of interest, food, establishment</i><br><br><font color=\"gray\"><b>4.4\u2605</b> (428)</font>", "long": 144.9683427, "lat": -37.81626500000001}, {"business_status": "OPERATIONAL", "geometry": {"location": {"lat": -37.8091191, "lng": 144.9617621}, "viewport": {"northeast": {"lat": -37.8077169197085, "lng": 144.9630558302915}, "southwest": {"lat": -37.8104148802915, "lng": 144.9603578697085}}}, "icon": "https://maps.gstatic.com/mapfiles/place_api/icons/v1/png_71/generic_business-71.png", "icon_background_color": "#7B9EB0", "icon_mask_base_uri": "https://maps.gstatic.com/mapfiles/place_api/icons/v2/generic_pinlet", "name": "Marche Board Game Cafe", "opening_hours": {"open_now": false}, "photos": [{"height": 3993, "html_attributions": ["<a href=\"https://maps.google.com/maps/contrib/115638169482032086884\">Marche Board Game Cafe</a>"], "photo_reference": "AcYSjRg6ETkNjufJ7EoVarZI1_Jb_B_0wseiS2xqOT15_mwdrRT0htziL5ysx4frU4jBdY7YLL74UFbuCRJhGckPHkLAoJ8uhrey0xJ3n8Sp4XpT9oYHcNh2XNzFMqpsfYKwUT2CoyrH6buJSWpkHj0R8-S1JdJIt-PsdOKlOKM_8Fb-k8Kk", "width": 3993}], "place_id": "ChIJqQJaGTVd1moRzZ9ypK5V5z4", "plus_code": {"compound_code": "5XR6+9P Melbourne VIC, Australia", "global_code": "4RJ65XR6+9P"}, "price_level": 2, "rating": 4.5, "reference": "ChIJqQJaGTVd1moRzZ9ypK5V5z4", "scope": "GOOGLE", "types": ["cafe", "night_club", "bar", "store", "restaurant", "point_of_interest", "food", "establishment"], "user_ratings_total": 741, "vicinity": "63 A'Beckett Street, Melbourne", "primary_type": "Bar/Nightlife", "types str": "cafe, night_club, bar, store, restaurant, point_of_interest, food, establishment", "popup": "<h4><b>Marche Board Game Cafe</b></h4>63 A'Beckett Street, Melbourne<br><i>cafe, night club, bar, store, restaurant, point of interest, food, establishment</i><br><br><font color=\"gray\"><b>4.5\u2605</b> (741)</font><font color=\"green\"><span style=\"float:right\">$$</font></span>", "long": 144.9617621, "lat": -37.8091191}, {"business_status": "OPERATIONAL", "geometry": {"location": {"lat": -37.79804170000001, "lng": 144.9678255}, "viewport": {"northeast": {"lat": -37.79674471970851, "lng": 144.9689824302915}, "southwest": {"lat": -37.79944268029151, "lng": 144.9662844697085}}}, "icon": "https://maps.gstatic.com/mapfiles/place_api/icons/v1/png_71/restaurant-71.png", "icon_background_color": "#FF9E67", "icon_mask_base_uri": "https://maps.gstatic.com/mapfiles/place_api/icons/v2/restaurant_pinlet", "name": "Brunetti Classico Carlton", "opening_hours": {"open_now": true}, "photos": [{"height": 800, "html_attributions": ["<a href=\"https://maps.google.com/maps/contrib/112065136987764286273\">Brunetti Classico Carlton</a>"], "photo_reference": "AcYSjRhkGemNTfu9Wh4muA6lTYYzJK08mZ2ClQfLOXaMisBsnHjWw8fhLXUxhcWliDeMEPvOJdVlPKLQ-5N1D0WI0toBwkn9q8kbfB_JZGbZaJx_V4Kt-duyHrO57mDCiqBORoXRl9dKiPevqOlfNmDKRGyPzetnQeN-vVrdyXCXTmQQ9YIh", "width": 1200}], "place_id": "ChIJSQrgjtZC1moR-5GNiUfB1N0", "plus_code": {"compound_code": "6X29+Q4 Carlton VIC, Australia", "global_code": "4RJ66X29+Q4"}, "price_level": 2, "rating": 4.3, "reference": "ChIJSQrgjtZC1moR-5GNiUfB1N0", "scope": "GOOGLE", "types": ["cafe", "bar", "restaurant", "bakery", "food", "point_of_interest", "store", "establishment"], "user_ratings_total": 3501, "vicinity": "380 Lygon Street, Carlton", "primary_type": "Bar/Nightlife", "types str": "cafe, bar, restaurant, bakery, food, point_of_interest, store, establishment", "popup": "<h4><b>Brunetti Classico Carlton</b></h4>380 Lygon Street, Carlton<br><i>cafe, bar, restaurant, bakery, food, point of interest, store, establishment</i><br><br><font color=\"gray\"><b>4.3\u2605</b> (3501)</font><font color=\"green\"><span style=\"float:right\">$$</font></span>", "long": 144.9678255, "lat": -37.79804170000001}, {"business_status": "OPERATIONAL", "geometry": {"location": {"lat": -37.8091191, "lng": 144.9617621}, "viewport": {"northeast": {"lat": -37.8077169197085, "lng": 144.9630558302915}, "southwest": {"lat": -37.8104148802915, "lng": 144.9603578697085}}}, "icon": "https://maps.gstatic.com/mapfiles/place_api/icons/v1/png_71/generic_business-71.png", "icon_background_color": "#7B9EB0", "icon_mask_base_uri": "https://maps.gstatic.com/mapfiles/place_api/icons/v2/generic_pinlet", "name": "Marche Board Game Cafe", "opening_hours": {"open_now": false}, "photos": [{"height": 3993, "html_attributions": ["<a href=\"https://maps.google.com/maps/contrib/115638169482032086884\">Marche Board Game Cafe</a>"], "photo_reference": "AcYSjRjgC-1MWh2bKSMT06j1qqpYp0r7IJqwMJtPdiOObDKyrx7mr-zyZ0m02KgKA0w-JANkTbVuUydWjN8tA1RscMCd6itYsjuHbY-3ElrlioL4A6q1Sitfztax-wxS8YsjS444UztJFPxVDQQGQLBHEETWBvF9wKQ_t67W3ivESOojwL68", "width": 3993}], "place_id": "ChIJqQJaGTVd1moRzZ9ypK5V5z4", "plus_code": {"compound_code": "5XR6+9P Melbourne VIC, Australia", "global_code": "4RJ65XR6+9P"}, "price_level": 2, "rating": 4.5, "reference": "ChIJqQJaGTVd1moRzZ9ypK5V5z4", "scope": "GOOGLE", "types": ["cafe", "night_club", "bar", "restaurant", "point_of_interest", "food", "store", "establishment"], "user_ratings_total": 741, "vicinity": "63 A'Beckett Street, Melbourne", "primary_type": "Bar/Nightlife", "types str": "cafe, night_club, bar, restaurant, point_of_interest, food, store, establishment", "popup": "<h4><b>Marche Board Game Cafe</b></h4>63 A'Beckett Street, Melbourne<br><i>cafe, night club, bar, restaurant, point of interest, food, store, establishment</i><br><br><font color=\"gray\"><b>4.5\u2605</b> (741)</font><font color=\"green\"><span style=\"float:right\">$$</font></span>", "long": 144.9617621, "lat": -37.8091191}, {"business_status": "OPERATIONAL", "geometry": {"location": {"lat": -37.79849120000001, "lng": 144.9671751}, "viewport": {"northeast": {"lat": -37.7971287697085, "lng": 144.9685683302915}, "southwest": {"lat": -37.7998267302915, "lng": 144.9658703697085}}}, "icon": "https://maps.gstatic.com/mapfiles/place_api/icons/v1/png_71/shopping-71.png", "icon_background_color": "#4B96F3", "icon_mask_base_uri": "https://maps.gstatic.com/mapfiles/place_api/icons/v2/shoppingcart_pinlet", "name": "King & Godfree", "opening_hours": {"open_now": true}, "photos": [{"height": 4032, "html_attributions": ["<a href=\"https://maps.google.com/maps/contrib/108295050169709112418\">Bill Mrozek</a>"], "photo_reference": "AcYSjRiwvzU0iHULAix-XdEE2NBU3HihtnOegn2I07MF2k_4a9xAn-SGNezuUD5zS41A5vUwoF4cqQf18mtC4CkvEqofj04PbD8itCFgUkz-TdnX-XhF5mH0VnrIjrf-tRhBMt-Vmm51DYIGYpdsOaAzr_Z9xAzICvg10gW-sf7-azTd19qv", "width": 3024}], "place_id": "ChIJpUDpm9ZC1moRqaK1Uqt5dU0", "plus_code": {"compound_code": "6X28+JV Carlton VIC, Australia", "global_code": "4RJ66X28+JV"}, "rating": 3.7, "reference": "ChIJpUDpm9ZC1moRqaK1Uqt5dU0", "scope": "GOOGLE", "types": ["cafe", "grocery_or_supermarket", "bar", "point_of_interest", "food", "store", "establishment"], "user_ratings_total": 622, "vicinity": "293/297 Lygon Street, Carlton", "primary_type": "Bar/Nightlife", "types str": "cafe, grocery_or_supermarket, bar, point_of_interest, food, store, establishment", "popup": "<h4><b>King & Godfree</b></h4>293/297 Lygon Street, Carlton<br><i>cafe, grocery or supermarket, bar, point of interest, food, store, establishment</i><br><br><font color=\"gray\"><b>3.7\u2605</b> (622)</font>", "long": 144.9671751, "lat": -37.79849120000001}, {"business_status": "OPERATIONAL", "geometry": {"location": {"lat": -37.8033282, "lng": 144.9606306}, "viewport": {"northeast": {"lat": -37.8019016697085, "lng": 144.9619620302915}, "southwest": {"lat": -37.80459963029149, "lng": 144.9592640697085}}}, "icon": "https://maps.gstatic.com/mapfiles/place_api/icons/v1/png_71/cafe-71.png", "icon_background_color": "#FF9E67", "icon_mask_base_uri": "https://maps.gstatic.com/mapfiles/place_api/icons/v2/cafe_pinlet", "name": "Stovetop", "opening_hours": {"open_now": true}, "photos": [{"height": 2252, "html_attributions": ["<a href=\"https://maps.google.com/maps/contrib/115365304390639285762\">Tsukamoto Ken K</a>"], "photo_reference": "AcYSjRheiei0r2-Y-itF-ylhMUu247KTuIliJ-WnN3IDRau0QQ7nSNBzdRk0p0psE4OeNV0_nB0QldE60uR83KmseczS69CsY9atXLxwhTUUoomkZ2ZgvGv6Q9gnEN0EMj60Q4pElMbOUoRZXkOszPmbi1ACORVXSFpu7soVgKMnayQl72F6", "width": 4000}], "place_id": "ChIJBbEeyjJd1moRuOa_qaod2PQ", "plus_code": {"compound_code": "5XW6+M7 Carlton VIC, Australia", "global_code": "4RJ65XW6+M7"}, "price_level": 2, "rating": 4.2, "reference": "ChIJBbEeyjJd1moRuOa_qaod2PQ", "scope": "GOOGLE", "types": ["cafe", "bar", "restaurant", "food", "store", "point_of_interest", "establishment"], "user_ratings_total": 354, "vicinity": "108 Leicester Street, Carlton", "primary_type": "Bar/Nightlife", "types str": "cafe, bar, restaurant, food, store, point_of_interest, establishment", "popup": "<h4><b>Stovetop</b></h4>108 Leicester Street, Carlton<br><i>cafe, bar, restaurant, food, store, point of interest, establishment</i><br><br><font color=\"gray\"><b>4.2\u2605</b> (354)</font><font color=\"green\"><span style=\"float:right\">$$</font></span>", "long": 144.9606306, "lat": -37.8033282}, {"business_status": "OPERATIONAL", "geometry": {"location": {"lat": -37.7994919, "lng": 144.9669952}, "viewport": {"northeast": {"lat": -37.7981478197085, "lng": 144.9683881302915}, "southwest": {"lat": -37.8008457802915, "lng": 144.9656901697085}}}, "icon": "https://maps.gstatic.com/mapfiles/place_api/icons/v1/png_71/cafe-71.png", "icon_background_color": "#FF9E67", "icon_mask_base_uri": "https://maps.gstatic.com/mapfiles/place_api/icons/v2/cafe_pinlet", "name": "University Cafe", "opening_hours": {"open_now": false}, "photos": [{"height": 4032, "html_attributions": ["<a href=\"https://maps.google.com/maps/contrib/117395531707355096537\">Kevin Chen</a>"], "photo_reference": "AcYSjRjY_8VlGXLPrEUn9VfXhQ3HgVGjjwJ1XLVtirHgB_wchUKYbZpz3TiPPXxgo-ahx26q_kSgKEqRpXzMCHdaXlUv1ZuhNZRQETMudb4itjaUGZ1Bvxpz-PuTa9yn6I0icD5-95tEVcz_tjZmfnNZuzUlbiz4D3wteYvW9-FFBL0XSVPn", "width": 3024}], "place_id": "ChIJ2aGmqdZC1moRaHzWQoJg8U4", "plus_code": {"compound_code": "6X28+6Q Carlton VIC, Australia", "global_code": "4RJ66X28+6Q"}, "price_level": 2, "rating": 4.3, "reference": "ChIJ2aGmqdZC1moRaHzWQoJg8U4", "scope": "GOOGLE", "types": ["cafe", "bar", "restaurant", "food", "store", "point_of_interest", "establishment"], "user_ratings_total": 630, "vicinity": "257 Lygon Street, Carlton", "primary_type": "Bar/Nightlife", "types str": "cafe, bar, restaurant, food, store, point_of_interest, establishment", "popup": "<h4><b>University Cafe</b></h4>257 Lygon Street, Carlton<br><i>cafe, bar, restaurant, food, store, point of interest, establishment</i><br><br><font color=\"gray\"><b>4.3\u2605</b> (630)</font><font color=\"green\"><span style=\"float:right\">$$</font></span>", "long": 144.9669952, "lat": -37.7994919}, {"business_status": "OPERATIONAL", "geometry": {"location": {"lat": -37.7996844, "lng": 144.9544652}, "viewport": {"northeast": {"lat": -37.7982650197085, "lng": 144.9559046302915}, "southwest": {"lat": -37.8009629802915, "lng": 144.9532066697085}}}, "icon": "https://maps.gstatic.com/mapfiles/place_api/icons/v1/png_71/cafe-71.png", "icon_background_color": "#FF9E67", "icon_mask_base_uri": "https://maps.gstatic.com/mapfiles/place_api/icons/v2/cafe_pinlet", "name": "Joe's Eatery", "opening_hours": {"open_now": true}, "photos": [{"height": 768, "html_attributions": ["<a href=\"https://maps.google.com/maps/contrib/118086229305332759997\">Joe&#39;s Eatery</a>"], "photo_reference": "AcYSjRhS8elWkTns01Y3I-AaiNNf9-y4-P7fD8pxLX03sqnAaQ23Omoh36056Yw9_AUgpxMOp00gJN-Z59jFwb7vt5-d3C7ozCOF_xo6U8jWpdBUfpva1AS8fPZpSaqDaFr275bgiGjbLFviFvZbF31WkC2dprwpumR9zVAms0nqjTavlWG_", "width": 1024}], "place_id": "ChIJr6dgFV5d1moRvfofAZW-rsk", "plus_code": {"compound_code": "6X23+4Q North Melbourne VIC, Australia", "global_code": "4RJ66X23+4Q"}, "rating": 4.5, "reference": "ChIJr6dgFV5d1moRvfofAZW-rsk", "scope": "GOOGLE", "types": ["cafe", "bar", "restaurant", "food", "point_of_interest", "establishment"], "user_ratings_total": 32, "vicinity": "3/55 Flemington Road, North Melbourne", "primary_type": "Bar/Nightlife", "types str": "cafe, bar, restaurant, food, point_of_interest, establishment", "popup": "<h4><b>Joe's Eatery</b></h4>3/55 Flemington Road, North Melbourne<br><i>cafe, bar, restaurant, food, point of interest, establishment</i><br><br><font color=\"gray\"><b>4.5\u2605</b> (32)</font>", "long": 144.9544652, "lat": -37.7996844}, {"business_status": "OPERATIONAL", "geometry": {"location": {"lat": -37.8091191, "lng": 144.9617621}, "viewport": {"northeast": {"lat": -37.8077169197085, "lng": 144.9630558302915}, "southwest": {"lat": -37.8104148802915, "lng": 144.9603578697085}}}, "icon": "https://maps.gstatic.com/mapfiles/place_api/icons/v1/png_71/generic_business-71.png", "icon_background_color": "#7B9EB0", "icon_mask_base_uri": "https://maps.gstatic.com/mapfiles/place_api/icons/v2/generic_pinlet", "name": "Marche Board Game Cafe", "opening_hours": {"open_now": false}, "photos": [{"height": 3993, "html_attributions": ["<a href=\"https://maps.google.com/maps/contrib/115638169482032086884\">Marche Board Game Cafe</a>"], "photo_reference": "AcYSjRgE7Db2iKYGzAH-0_hdNuNQ0pe1HzsaG_qr6G-iop7aENfjAVSpvHJZ-RUUotoyg2WirMWEd9014jRokxc27vVKPXUEgaso57j_dQ2JGMOLvrpxzPb1dPo_mtNapz6mf3zPz93M0dn9e-v05YAJpYEMLp8WmD7bZS5vUy80CrDzCzeb", "width": 3993}], "place_id": "ChIJqQJaGTVd1moRzZ9ypK5V5z4", "plus_code": {"compound_code": "5XR6+9P Melbourne VIC, Australia", "global_code": "4RJ65XR6+9P"}, "price_level": 2, "rating": 4.5, "reference": "ChIJqQJaGTVd1moRzZ9ypK5V5z4", "scope": "GOOGLE", "types": ["cafe", "bar", "night_club", "restaurant", "food", "store", "point_of_interest", "establishment"], "user_ratings_total": 741, "vicinity": "63 A'Beckett Street, Melbourne", "primary_type": "Bar/Nightlife", "types str": "cafe, bar, night_club, restaurant, food, store, point_of_interest, establishment", "popup": "<h4><b>Marche Board Game Cafe</b></h4>63 A'Beckett Street, Melbourne<br><i>cafe, bar, night club, restaurant, food, store, point of interest, establishment</i><br><br><font color=\"gray\"><b>4.5\u2605</b> (741)</font><font color=\"green\"><span style=\"float:right\">$$</font></span>", "long": 144.9617621, "lat": -37.8091191}, {"business_status": "OPERATIONAL", "geometry": {"location": {"lat": -37.8091191, "lng": 144.9617621}, "viewport": {"northeast": {"lat": -37.8077169197085, "lng": 144.9630558302915}, "southwest": {"lat": -37.8104148802915, "lng": 144.9603578697085}}}, "icon": "https://maps.gstatic.com/mapfiles/place_api/icons/v1/png_71/generic_business-71.png", "icon_background_color": "#7B9EB0", "icon_mask_base_uri": "https://maps.gstatic.com/mapfiles/place_api/icons/v2/generic_pinlet", "name": "Marche Board Game Cafe", "opening_hours": {"open_now": false}, "photos": [{"height": 3993, "html_attributions": ["<a href=\"https://maps.google.com/maps/contrib/115638169482032086884\">Marche Board Game Cafe</a>"], "photo_reference": "AcYSjRg_S-2F4n0ukLB9S17DMdBRAj8r5-DZkJp2BjvDYSDNCr59yu1YB5ePaQxw4fMQ2arJzW5YLNXy-R9PnZuie_V6vM-AA2ZiQSu4qBzzDdK6kBkZIC2n_CPkqyJ8mWaZC430YwywFq8gHL7mKgHtuNRt-FWPwl3kU4mhbk-xOr8ojeyV", "width": 3993}], "place_id": "ChIJqQJaGTVd1moRzZ9ypK5V5z4", "plus_code": {"compound_code": "5XR6+9P Melbourne VIC, Australia", "global_code": "4RJ65XR6+9P"}, "price_level": 2, "rating": 4.5, "reference": "ChIJqQJaGTVd1moRzZ9ypK5V5z4", "scope": "GOOGLE", "types": ["cafe", "night_club", "bar", "store", "restaurant", "point_of_interest", "food", "establishment"], "user_ratings_total": 741, "vicinity": "63 A'Beckett Street, Melbourne", "primary_type": "Bar/Nightlife", "types str": "cafe, night_club, bar, store, restaurant, point_of_interest, food, establishment", "popup": "<h4><b>Marche Board Game Cafe</b></h4>63 A'Beckett Street, Melbourne<br><i>cafe, night club, bar, store, restaurant, point of interest, food, establishment</i><br><br><font color=\"gray\"><b>4.5\u2605</b> (741)</font><font color=\"green\"><span style=\"float:right\">$$</font></span>", "long": 144.9617621, "lat": -37.8091191}, {"business_status": "OPERATIONAL", "geometry": {"location": {"lat": -37.8091191, "lng": 144.9617621}, "viewport": {"northeast": {"lat": -37.8077169197085, "lng": 144.9630558302915}, "southwest": {"lat": -37.8104148802915, "lng": 144.9603578697085}}}, "icon": "https://maps.gstatic.com/mapfiles/place_api/icons/v1/png_71/generic_business-71.png", "icon_background_color": "#7B9EB0", "icon_mask_base_uri": "https://maps.gstatic.com/mapfiles/place_api/icons/v2/generic_pinlet", "name": "Marche Board Game Cafe", "opening_hours": {"open_now": false}, "photos": [{"height": 3993, "html_attributions": ["<a href=\"https://maps.google.com/maps/contrib/115638169482032086884\">Marche Board Game Cafe</a>"], "photo_reference": "AcYSjRjjmlqDRZxu9lcY1GNJ83x8CzyAmxBIykLkWIJQUxOSn-OTrFDtkyIfAZROB_6R9FNijSGHvV-o9dtV4ynZTmmfi7AFrGSsOzkRL2_JrM204jzydoINeGXQV2Vpriahx88wO7TY2vvQ2NeDJokQZcZ2hjOv7HuFyK0N3dnLnGCCg7bz", "width": 3993}], "place_id": "ChIJqQJaGTVd1moRzZ9ypK5V5z4", "plus_code": {"compound_code": "5XR6+9P Melbourne VIC, Australia", "global_code": "4RJ65XR6+9P"}, "price_level": 2, "rating": 4.5, "reference": "ChIJqQJaGTVd1moRzZ9ypK5V5z4", "scope": "GOOGLE", "types": ["cafe", "night_club", "restaurant", "food", "bar", "point_of_interest", "store", "establishment"], "user_ratings_total": 741, "vicinity": "63 A'Beckett Street, Melbourne", "primary_type": "Bar/Nightlife", "types str": "cafe, night_club, restaurant, food, bar, point_of_interest, store, establishment", "popup": "<h4><b>Marche Board Game Cafe</b></h4>63 A'Beckett Street, Melbourne<br><i>cafe, night club, restaurant, food, bar, point of interest, store, establishment</i><br><br><font color=\"gray\"><b>4.5\u2605</b> (741)</font><font color=\"green\"><span style=\"float:right\">$$</font></span>", "long": 144.9617621, "lat": -37.8091191}, {"business_status": "OPERATIONAL", "geometry": {"location": {"lat": -37.8091191, "lng": 144.9617621}, "viewport": {"northeast": {"lat": -37.8077169197085, "lng": 144.9630558302915}, "southwest": {"lat": -37.8104148802915, "lng": 144.9603578697085}}}, "icon": "https://maps.gstatic.com/mapfiles/place_api/icons/v1/png_71/generic_business-71.png", "icon_background_color": "#7B9EB0", "icon_mask_base_uri": "https://maps.gstatic.com/mapfiles/place_api/icons/v2/generic_pinlet", "name": "Marche Board Game Cafe", "opening_hours": {"open_now": false}, "photos": [{"height": 3993, "html_attributions": ["<a href=\"https://maps.google.com/maps/contrib/115638169482032086884\">Marche Board Game Cafe</a>"], "photo_reference": "AcYSjRiyuw8c9GjKdRsuYZcdx9uvu1TNAd8UTy2w2WTQfjHFlyPrgMQd1DGzYGc2UYS1GKj6IGToKmXf-PaCbpQJfBWJObO142f55vZzS0qYrSPrCFusnaIT7nZhFA_K1b-hzUFqC2N4790BqfqJLhh01PoQKdCRm-Ws6SzIN8wiGDbMLm7-", "width": 3993}], "place_id": "ChIJqQJaGTVd1moRzZ9ypK5V5z4", "plus_code": {"compound_code": "5XR6+9P Melbourne VIC, Australia", "global_code": "4RJ65XR6+9P"}, "price_level": 2, "rating": 4.5, "reference": "ChIJqQJaGTVd1moRzZ9ypK5V5z4", "scope": "GOOGLE", "types": ["cafe", "night_club", "bar", "restaurant", "food", "store", "point_of_interest", "establishment"], "user_ratings_total": 741, "vicinity": "63 A'Beckett Street, Melbourne", "primary_type": "Bar/Nightlife", "types str": "cafe, night_club, bar, restaurant, food, store, point_of_interest, establishment", "popup": "<h4><b>Marche Board Game Cafe</b></h4>63 A'Beckett Street, Melbourne<br><i>cafe, night club, bar, restaurant, food, store, point of interest, establishment</i><br><br><font color=\"gray\"><b>4.5\u2605</b> (741)</font><font color=\"green\"><span style=\"float:right\">$$</font></span>", "long": 144.9617621, "lat": -37.8091191}, {"business_status": "OPERATIONAL", "geometry": {"location": {"lat": -37.8091191, "lng": 144.9617621}, "viewport": {"northeast": {"lat": -37.8077169197085, "lng": 144.9630558302915}, "southwest": {"lat": -37.8104148802915, "lng": 144.9603578697085}}}, "icon": "https://maps.gstatic.com/mapfiles/place_api/icons/v1/png_71/generic_business-71.png", "icon_background_color": "#7B9EB0", "icon_mask_base_uri": "https://maps.gstatic.com/mapfiles/place_api/icons/v2/generic_pinlet", "name": "Marche Board Game Cafe", "opening_hours": {"open_now": false}, "photos": [{"height": 3993, "html_attributions": ["<a href=\"https://maps.google.com/maps/contrib/115638169482032086884\">Marche Board Game Cafe</a>"], "photo_reference": "AcYSjRgcn0wB_rP1WMewxi-6HfRoY7S9LWoE4GZ1tRv4ESk9Ol6eX8tg1BQ0Nhad5T2nRWg-9W5MMtLQwQ6fGUTa1PEJIPDguhMXJyKDuBFmMMrharbxA7v1o0Ny6BDAVe-MVFtybNRkn2ySN_5GUWcp7gbfDVLk5V-j0PRSP0-60Qwj4Mve", "width": 3993}], "place_id": "ChIJqQJaGTVd1moRzZ9ypK5V5z4", "plus_code": {"compound_code": "5XR6+9P Melbourne VIC, Australia", "global_code": "4RJ65XR6+9P"}, "price_level": 2, "rating": 4.5, "reference": "ChIJqQJaGTVd1moRzZ9ypK5V5z4", "scope": "GOOGLE", "types": ["cafe", "night_club", "bar", "store", "restaurant", "point_of_interest", "food", "establishment"], "user_ratings_total": 741, "vicinity": "63 A'Beckett Street, Melbourne", "primary_type": "Bar/Nightlife", "types str": "cafe, night_club, bar, store, restaurant, point_of_interest, food, establishment", "popup": "<h4><b>Marche Board Game Cafe</b></h4>63 A'Beckett Street, Melbourne<br><i>cafe, night club, bar, store, restaurant, point of interest, food, establishment</i><br><br><font color=\"gray\"><b>4.5\u2605</b> (741)</font><font color=\"green\"><span style=\"float:right\">$$</font></span>", "long": 144.9617621, "lat": -37.8091191}, {"business_status": "OPERATIONAL", "geometry": {"location": {"lat": -37.84634330000001, "lng": 144.9784634}, "viewport": {"northeast": {"lat": -37.8448950197085, "lng": 144.9797159302915}, "southwest": {"lat": -37.8475929802915, "lng": 144.9770179697085}}}, "icon": "https://maps.gstatic.com/mapfiles/place_api/icons/v1/png_71/lodging-71.png", "icon_background_color": "#909CE1", "icon_mask_base_uri": "https://maps.gstatic.com/mapfiles/place_api/icons/v2/hotel_pinlet", "name": "View Melbourne", "photos": [{"height": 1333, "html_attributions": ["<a href=\"https://maps.google.com/maps/contrib/105361950229148315412\">View Melbourne</a>"], "photo_reference": "AcYSjRhaUu2wt_hsKJ8xbSBrhXVRDFvTX3WtFAlgXRbXHa9xnTq2vTMcHQUjRL1owAN1CQIrDPtH1X6vnG5nMsvN2yNNHMPMsXt_KaS--wtup6JWxQtqDEvVUGaZZECUWT4T700tROFJ27jCl13dr3XeMB4QobA29jNJueEY54u3m0OP1rkC", "width": 2000}], "place_id": "ChIJPYClWhdo1moRFlfbP6Emzik", "plus_code": {"compound_code": "5X3H+F9 Melbourne VIC, Australia", "global_code": "4RJ65X3H+F9"}, "rating": 4.2, "reference": "ChIJPYClWhdo1moRFlfbP6Emzik", "scope": "GOOGLE", "types": ["cafe", "lodging", "bar", "restaurant", "food", "point_of_interest", "establishment"], "user_ratings_total": 932, "vicinity": "562 Saint Kilda Road, Melbourne", "primary_type": "Cafe/bakery", "types str": "cafe, lodging, bar, restaurant, food, point_of_interest, establishment", "popup": "<h4><b>View Melbourne</b></h4>562 Saint Kilda Road, Melbourne<br><i>cafe, lodging, bar, restaurant, food, point of interest, establishment</i><br><br><font color=\"gray\"><b>4.2\u2605</b> (932)</font>", "long": 144.9784634, "lat": -37.84634330000001}, {"business_status": "OPERATIONAL", "geometry": {"location": {"lat": -37.8394552, "lng": 144.9773673}, "viewport": {"northeast": {"lat": -37.8381437697085, "lng": 144.9785165802915}, "southwest": {"lat": -37.84084173029149, "lng": 144.9758186197085}}}, "icon": "https://maps.gstatic.com/mapfiles/place_api/icons/v1/png_71/cafe-71.png", "icon_background_color": "#FF9E67", "icon_mask_base_uri": "https://maps.gstatic.com/mapfiles/place_api/icons/v2/cafe_pinlet", "name": "Commodity Cafe", "opening_hours": {"open_now": true}, "photos": [{"height": 1124, "html_attributions": ["<a href=\"https://maps.google.com/maps/contrib/106113710954324974720\">Commodity Cafe</a>"], "photo_reference": "AcYSjRh-F_kcmINHi93kFrh1L1_pHTbUPAkXzsoaPv2b5cToPmmA09Swc8bSO72EDMoQamMoGb-rnQUgfKBz1vzBiOnXe9336qthpQHYJ-STOfR0twxVTYhKgv0Y3qjSOTHw-qGWOGKq-oT1dEugnrZPiwQL5pXXXUDGcOnFoeflPSYn94ev", "width": 1272}], "place_id": "ChIJRQqLFxxo1moRHmwKhOoadbQ", "plus_code": {"compound_code": "5X6G+6W Melbourne VIC, Australia", "global_code": "4RJ65X6G+6W"}, "rating": 4.1, "reference": "ChIJRQqLFxxo1moRHmwKhOoadbQ", "scope": "GOOGLE", "types": ["cafe", "food", "point_of_interest", "establishment"], "user_ratings_total": 38, "vicinity": "441 Saint Kilda Road, Melbourne", "primary_type": "Cafe/bakery", "types str": "cafe, food, point_of_interest, establishment", "popup": "<h4><b>Commodity Cafe</b></h4>441 Saint Kilda Road, Melbourne<br><i>cafe, food, point of interest, establishment</i><br><br><font color=\"gray\"><b>4.1\u2605</b> (38)</font>", "long": 144.9773673, "lat": -37.8394552}, {"business_status": "OPERATIONAL", "geometry": {"location": {"lat": -37.8342608, "lng": 144.9820346}, "viewport": {"northeast": {"lat": -37.8328191697085, "lng": 144.9834084302915}, "southwest": {"lat": -37.83551713029149, "lng": 144.9807104697085}}}, "icon": "https://maps.gstatic.com/mapfiles/place_api/icons/v1/png_71/cafe-71.png", "icon_background_color": "#FF9E67", "icon_mask_base_uri": "https://maps.gstatic.com/mapfiles/place_api/icons/v2/cafe_pinlet", "name": "domain brasserie", "opening_hours": {"open_now": true}, "photos": [{"height": 2448, "html_attributions": ["<a href=\"https://maps.google.com/maps/contrib/112851282074889483623\">domain brasserie</a>"], "photo_reference": "AcYSjRhkumnRubruCIWQqAAhnlUXWeKEPwBDtSyjbrcx7XMPADtfqJUmY0mjE8C_vC_EUbLTwWnVEDGjeDZR5oclv-b0M3zHO3anlav1M_rpxvuLlgBvc6yNt5iQdIEIAEy2ymKHOi4ZiTbaGs180mB6mgezhxEIHzVaDpe6ILYpapF6QIeV", "width": 3264}], "place_id": "ChIJbWRx6qFC1moRL5KchYFHkY0", "plus_code": {"compound_code": "5X8J+7R South Yarra VIC, Australia", "global_code": "4RJ65X8J+7R"}, "price_level": 2, "rating": 3.7, "reference": "ChIJbWRx6qFC1moRL5KchYFHkY0", "scope": "GOOGLE", "types": ["cafe", "food", "point_of_interest", "establishment"], "user_ratings_total": 195, "vicinity": "181 Domain Road, South Yarra", "primary_type": "Cafe/bakery", "types str": "cafe, food, point_of_interest, establishment", "popup": "<h4><b>domain brasserie</b></h4>181 Domain Road, South Yarra<br><i>cafe, food, point of interest, establishment</i><br><br><font color=\"gray\"><b>3.7\u2605</b> (195)</font><font color=\"green\"><span style=\"float:right\">$$</font></span>", "long": 144.9820346, "lat": -37.8342608}, {"business_status": "OPERATIONAL", "geometry": {"location": {"lat": -37.8388263, "lng": 144.9770234}, "viewport": {"northeast": {"lat": -37.8375066697085, "lng": 144.9783760302915}, "southwest": {"lat": -37.8402046302915, "lng": 144.9756780697085}}}, "icon": "https://maps.gstatic.com/mapfiles/place_api/icons/v1/png_71/cafe-71.png", "icon_background_color": "#FF9E67", "icon_mask_base_uri": "https://maps.gstatic.com/mapfiles/place_api/icons/v2/cafe_pinlet", "name": "SLATER ST BENCH", "opening_hours": {"open_now": true}, "photos": [{"height": 1335, "html_attributions": ["<a href=\"https://maps.google.com/maps/contrib/113902469156649212338\">SLATER ST BENCH</a>"], "photo_reference": "AcYSjRijE08zY2ID2e3vfdktWwcG_cIvfFrJhSsoqMJnQ_CqtIXIyZGwQHkQ0aGSh63Zgs_xU_P3khDuf1bWKj3ALEZ-syxEiH00_qI5crSK8ebBnZ1BuKIyrmLwiufMlHPln3vfowICNDwR5HrCO-6pxTHL7LCsk5qmdBykMwF2pPipHIT9", "width": 2000}], "place_id": "ChIJsUu0YeFn1moRLFHtqpQh5zo", "plus_code": {"compound_code": "5X6G+FR Melbourne VIC, Australia", "global_code": "4RJ65X6G+FR"}, "price_level": 2, "rating": 4.6, "reference": "ChIJsUu0YeFn1moRLFHtqpQh5zo", "scope": "GOOGLE", "types": ["cafe", "store", "food", "point_of_interest", "establishment"], "user_ratings_total": 298, "vicinity": "8/431 Saint Kilda Road, Melbourne", "primary_type": "Cafe/bakery", "types str": "cafe, store, food, point_of_interest, establishment", "popup": "<h4><b>SLATER ST BENCH</b></h4>8/431 Saint Kilda Road, Melbourne<br><i>cafe, store, food, point of interest, establishment</i><br><br><font color=\"gray\"><b>4.6\u2605</b> (298)</font><font color=\"green\"><span style=\"float:right\">$$</font></span>", "long": 144.9770234, "lat": -37.8388263}, {"business_status": "OPERATIONAL", "geometry": {"location": {"lat": -37.8374408, "lng": 144.9739277}, "viewport": {"northeast": {"lat": -37.8361070697085, "lng": 144.9751051802915}, "southwest": {"lat": -37.8388050302915, "lng": 144.9724072197085}}}, "icon": "https://maps.gstatic.com/mapfiles/place_api/icons/v1/png_71/cafe-71.png", "icon_background_color": "#FF9E67", "icon_mask_base_uri": "https://maps.gstatic.com/mapfiles/place_api/icons/v2/cafe_pinlet", "name": "Niche Cafe", "opening_hours": {"open_now": true}, "place_id": "ChIJkcfW5xxo1moRzcCNg3Hk-Ic", "plus_code": {"compound_code": "5X7F+2H Melbourne VIC, Australia", "global_code": "4RJ65X7F+2H"}, "rating": 4, "reference": "ChIJkcfW5xxo1moRzcCNg3Hk-Ic", "scope": "GOOGLE", "types": ["cafe", "store", "restaurant", "food", "point_of_interest", "establishment"], "user_ratings_total": 2, "vicinity": "6 Queens Road, Melbourne", "primary_type": "Cafe/bakery", "types str": "cafe, store, restaurant, food, point_of_interest, establishment", "popup": "<h4><b>Niche Cafe</b></h4>6 Queens Road, Melbourne<br><i>cafe, store, restaurant, food, point of interest, establishment</i><br><br><font color=\"gray\"><b>4\u2605</b> (2)</font>", "long": 144.9739277, "lat": -37.8374408}, {"business_status": "OPERATIONAL", "geometry": {"location": {"lat": -37.8426206, "lng": 144.9773306}, "viewport": {"northeast": {"lat": -37.84137191970851, "lng": 144.9788616802915}, "southwest": {"lat": -37.84406988029151, "lng": 144.9761637197085}}}, "icon": "https://maps.gstatic.com/mapfiles/place_api/icons/v1/png_71/cafe-71.png", "icon_background_color": "#FF9E67", "icon_mask_base_uri": "https://maps.gstatic.com/mapfiles/place_api/icons/v2/cafe_pinlet", "name": "Grain of Salt Cafe", "opening_hours": {"open_now": true}, "photos": [{"height": 1333, "html_attributions": ["<a href=\"https://maps.google.com/maps/contrib/104109824863329254848\">Grain of Salt Cafe</a>"], "photo_reference": "AcYSjRhp7V-eiWrT_tNb84MqOObSTol-Xkp5jS2JMP1gPUPhTS03GWXJhembT6KKjV-X33HzW5Mp0tf4VrD4MBOkOEGSHhmc92iY6L6N-Bs8Scn7K4IH3nw5dO6Bv49j7Lt6-_ZhMO_T-vig3Lc9_Jp36vrWHBpyfrdH9uvayCosuO7w3yU9", "width": 2000}], "place_id": "ChIJ-wrC1hto1moRqms_C1hQkgk", "plus_code": {"compound_code": "5X4G+XW Melbourne VIC, Australia", "global_code": "4RJ65X4G+XW"}, "price_level": 2, "rating": 4.2, "reference": "ChIJ-wrC1hto1moRqms_C1hQkgk", "scope": "GOOGLE", "types": ["cafe", "meal_takeaway", "restaurant", "food", "point_of_interest", "establishment"], "user_ratings_total": 128, "vicinity": "480 Saint Kilda Road, Melbourne", "primary_type": "Cafe/bakery", "types str": "cafe, meal_takeaway, restaurant, food, point_of_interest, establishment", "popup": "<h4><b>Grain of Salt Cafe</b></h4>480 Saint Kilda Road, Melbourne<br><i>cafe, meal takeaway, restaurant, food, point of interest, establishment</i><br><br><font color=\"gray\"><b>4.2\u2605</b> (128)</font><font color=\"green\"><span style=\"float:right\">$$</font></span>", "long": 144.9773306, "lat": -37.8426206}, {"business_status": "OPERATIONAL", "geometry": {"location": {"lat": -37.837867, "lng": 144.9768455}, "viewport": {"northeast": {"lat": -37.8365467197085, "lng": 144.9779718802915}, "southwest": {"lat": -37.8392446802915, "lng": 144.9752739197085}}}, "icon": "https://maps.gstatic.com/mapfiles/place_api/icons/v1/png_71/restaurant-71.png", "icon_background_color": "#FF9E67", "icon_mask_base_uri": "https://maps.gstatic.com/mapfiles/place_api/icons/v2/restaurant_pinlet", "name": "The Cupcake Queens", "opening_hours": {"open_now": true}, "photos": [{"height": 2432, "html_attributions": ["<a href=\"https://maps.google.com/maps/contrib/116636693829606900998\">The Cupcake Queens</a>"], "photo_reference": "AcYSjRinF277j5H16i_657cuKR7CjQ7N44dJ7-HrtU3OFIMCz9s1KQs_UzC5Faq4z3AwB2Pt1ApH7pa2mTXmJVXkyYPfQR8ezGmiadOvZ5z0CKyaDpd7cK0nvC7fbAukKGMu1-GlMiJTdLxrsNtWeoyoXw0otVTTiBx-mltm2RmSMPIzoKHb", "width": 3648}], "place_id": "ChIJ17EGyR1o1moRLhZfPJ9s1w8", "plus_code": {"compound_code": "5X6G+VP Melbourne VIC, Australia", "global_code": "4RJ65X6G+VP"}, "price_level": 2, "rating": 4.7, "reference": "ChIJ17EGyR1o1moRLhZfPJ9s1w8", "scope": "GOOGLE", "types": ["cafe", "bakery", "store", "food", "point_of_interest", "establishment"], "user_ratings_total": 17, "vicinity": "417 Saint Kilda Road, Melbourne", "primary_type": "Cafe/bakery", "types str": "cafe, bakery, store, food, point_of_interest, establishment", "popup": "<h4><b>The Cupcake Queens</b></h4>417 Saint Kilda Road, Melbourne<br><i>cafe, bakery, store, food, point of interest, establishment</i><br><br><font color=\"gray\"><b>4.7\u2605</b> (17)</font><font color=\"green\"><span style=\"float:right\">$$</font></span>", "long": 144.9768455, "lat": -37.837867}, {"business_status": "OPERATIONAL", "geometry": {"location": {"lat": -37.8368814, "lng": 144.975186}, "viewport": {"northeast": {"lat": -37.8354895697085, "lng": 144.9767058802915}, "southwest": {"lat": -37.8381875302915, "lng": 144.9740079197085}}}, "icon": "https://maps.gstatic.com/mapfiles/place_api/icons/v1/png_71/cafe-71.png", "icon_background_color": "#FF9E67", "icon_mask_base_uri": "https://maps.gstatic.com/mapfiles/place_api/icons/v2/cafe_pinlet", "name": "Espresso To Go!", "place_id": "ChIJq6qqqroonqoR9Ehrngro2po", "plus_code": {"compound_code": "5X7G+63 Melbourne VIC, Australia", "global_code": "4RJ65X7G+63"}, "reference": "ChIJq6qqqroonqoR9Ehrngro2po", "scope": "GOOGLE", "types": ["cafe", "store", "food", "point_of_interest", "establishment"], "vicinity": "Unit 33, 1 St Kilda Rd, Melbourne", "primary_type": "Cafe/bakery", "types str": "cafe, store, food, point_of_interest, establishment", "popup": "<h4><b>Espresso To Go!</b></h4>Unit 33, 1 St Kilda Rd, Melbourne<br><i>cafe, store, food, point of interest, establishment</i><br><br>", "long": 144.975186, "lat": -37.8368814}, {"business_status": "OPERATIONAL", "geometry": {"location": {"lat": -37.84683109999999, "lng": 144.978863}, "viewport": {"northeast": {"lat": -37.8454591197085, "lng": 144.9803572302915}, "southwest": {"lat": -37.8481570802915, "lng": 144.9776592697085}}}, "icon": "https://maps.gstatic.com/mapfiles/place_api/icons/v1/png_71/cafe-71.png", "icon_background_color": "#FF9E67", "icon_mask_base_uri": "https://maps.gstatic.com/mapfiles/place_api/icons/v2/cafe_pinlet", "name": "Times Cafe", "opening_hours": {"open_now": true}, "photos": [{"height": 2448, "html_attributions": ["<a href=\"https://maps.google.com/maps/contrib/115161916543124945682\">Adam G</a>"], "photo_reference": "AcYSjRi-NAVIIUDrlgMcHDVqdQH6lTjk0dkOS3TR4G9xUml9WHbOYLKn5LfRAV_YSNd7xih-taFtdumboa9oP2UdjxyopAsG6fxdWIdmO3tImidWaQ4ENZDqiGLukQBW2urrXqkf4QTAzaDZYoq7ShOesu3dyOmWGAJXLVQQxGLKWg4S1DIO", "width": 3264}], "place_id": "ChIJBQnjRhdo1moRxNIe6skAZrI", "plus_code": {"compound_code": "5X3H+7G Melbourne VIC, Australia", "global_code": "4RJ65X3H+7G"}, "rating": 4, "reference": "ChIJBQnjRhdo1moRxNIe6skAZrI", "scope": "GOOGLE", "types": ["cafe", "store", "restaurant", "food", "point_of_interest", "establishment"], "user_ratings_total": 74, "vicinity": "566 Saint Kilda Road, Melbourne", "primary_type": "Cafe/bakery", "types str": "cafe, store, restaurant, food, point_of_interest, establishment", "popup": "<h4><b>Times Cafe</b></h4>566 Saint Kilda Road, Melbourne<br><i>cafe, store, restaurant, food, point of interest, establishment</i><br><br><font color=\"gray\"><b>4\u2605</b> (74)</font>", "long": 144.978863, "lat": -37.84683109999999}, {"business_status": "OPERATIONAL", "geometry": {"location": {"lat": -37.841055, "lng": 144.976494}, "viewport": {"northeast": {"lat": -37.8396502197085, "lng": 144.9781218302915}, "southwest": {"lat": -37.84234818029149, "lng": 144.9754238697085}}}, "icon": "https://maps.gstatic.com/mapfiles/place_api/icons/v1/png_71/cafe-71.png", "icon_background_color": "#FF9E67", "icon_mask_base_uri": "https://maps.gstatic.com/mapfiles/place_api/icons/v2/cafe_pinlet", "name": "Movo Kitchen", "opening_hours": {"open_now": true}, "photos": [{"height": 1365, "html_attributions": ["<a href=\"https://maps.google.com/maps/contrib/103506887998514033444\">Movo Kitchen</a>"], "photo_reference": "AcYSjRi7s212Syaw7fN12T5FyMYcMQdTfPuP2dMdsD666-4Zja9sKS36Mx88GFL3aCJVOERJPWzmRK4ovOmov13WQdPorOGyXlkPTXMlg8uguyeqW7azCZHRt27yL7x7KpxjOsw-hkW6oZQvVtz1SKgOmsr4mhxgOZfQXdBPPJWizdlmjKE9", "width": 2048}], "place_id": "ChIJT86A8hto1moR7wpJiz7EcJc", "plus_code": {"compound_code": "5X5G+HH Melbourne VIC, Australia", "global_code": "4RJ65X5G+HH"}, "price_level": 2, "rating": 4.1, "reference": "ChIJT86A8hto1moR7wpJiz7EcJc", "scope": "GOOGLE", "types": ["cafe", "food", "point_of_interest", "establishment"], "user_ratings_total": 78, "vicinity": "468 Saint Kilda Road, Melbourne", "primary_type": "Cafe/bakery", "types str": "cafe, food, point_of_interest, establishment", "popup": "<h4><b>Movo Kitchen</b></h4>468 Saint Kilda Road, Melbourne<br><i>cafe, food, point of interest, establishment</i><br><br><font color=\"gray\"><b>4.1\u2605</b> (78)</font><font color=\"green\"><span style=\"float:right\">$$</font></span>", "long": 144.976494, "lat": -37.841055}, {"business_status": "OPERATIONAL", "geometry": {"location": {"lat": -37.8462826, "lng": 144.9787933}, "viewport": {"northeast": {"lat": -37.8448629697085, "lng": 144.9798882302915}, "southwest": {"lat": -37.8475609302915, "lng": 144.9771902697085}}}, "icon": "https://maps.gstatic.com/mapfiles/place_api/icons/v1/png_71/cafe-71.png", "icon_background_color": "#FF9E67", "icon_mask_base_uri": "https://maps.gstatic.com/mapfiles/place_api/icons/v2/cafe_pinlet", "name": "Woods", "opening_hours": {"open_now": true}, "photos": [{"height": 3036, "html_attributions": ["<a href=\"https://maps.google.com/maps/contrib/108124604485518615755\">Chris Cumpian</a>"], "photo_reference": "AcYSjRjn3PoR_qIsfVnD6qwIJ1oRUoLs_MKurWlxWNFbAcCbTOJ21MSgPwaGIeJGZD-aq31yciceTwGWjMsFioyHQ9wrXI10PAmNzjA4c90voQ612C9vC5ZMPeHtPHK4zwO4-loBRvtTLOD0xNR-84sphx-ve9XCbkk6pptzIhhXLuZOSfZI", "width": 4048}], "place_id": "ChIJPYClWhdo1moRkdwtV3a2jYY", "plus_code": {"compound_code": "5X3H+FG Melbourne VIC, Australia", "global_code": "4RJ65X3H+FG"}, "price_level": 1, "rating": 2.9, "reference": "ChIJPYClWhdo1moRkdwtV3a2jYY", "scope": "GOOGLE", "types": ["cafe", "bar", "store", "restaurant", "food", "point_of_interest", "establishment"], "user_ratings_total": 37, "vicinity": "562 Saint Kilda Road, Melbourne", "primary_type": "Cafe/bakery", "types str": "cafe, bar, store, restaurant, food, point_of_interest, establishment", "popup": "<h4><b>Woods</b></h4>562 Saint Kilda Road, Melbourne<br><i>cafe, bar, store, restaurant, food, point of interest, establishment</i><br><br><font color=\"gray\"><b>2.9\u2605</b> (37)</font><font color=\"green\"><span style=\"float:right\">$</font></span>", "long": 144.9787933, "lat": -37.8462826}, {"business_status": "OPERATIONAL", "geometry": {"location": {"lat": -37.8462523, "lng": 144.988137}, "viewport": {"northeast": {"lat": -37.8448250697085, "lng": 144.9895095802915}, "southwest": {"lat": -37.8475230302915, "lng": 144.9868116197085}}}, "icon": "https://maps.gstatic.com/mapfiles/place_api/icons/v1/png_71/cafe-71.png", "icon_background_color": "#FF9E67", "icon_mask_base_uri": "https://maps.gstatic.com/mapfiles/place_api/icons/v2/cafe_pinlet", "name": "Tall Timber Cafe", "opening_hours": {"open_now": true}, "photos": [{"height": 4160, "html_attributions": ["<a href=\"https://maps.google.com/maps/contrib/101175627728576299078\">Alisdair Horgbury</a>"], "photo_reference": "AcYSjRghS2dSsoOJeerJwC_wDLDi4woUBWPejwvZw7k3-IGAOn-D7cZwtheB_j6Qtq_TRvOoY4WG4uEMgX6Q7r6hfUStKUlHhHum3W0tg09f7Et7palNfTcSRb_bdvaVV1nzQcTLGCD2p4LrpB3qKbzDnuXyKnOVTJ5D3b8qMYb7V9P4iOqj", "width": 3120}], "place_id": "ChIJLY1rhSNo1moRzqm_0sNkZno", "plus_code": {"compound_code": "5X3Q+F7 Prahran VIC, Australia", "global_code": "4RJ65X3Q+F7"}, "price_level": 2, "rating": 4.1, "reference": "ChIJLY1rhSNo1moRzqm_0sNkZno", "scope": "GOOGLE", "types": ["cafe", "store", "restaurant", "food", "point_of_interest", "establishment"], "user_ratings_total": 771, "vicinity": "60 Commercial Road, Prahran", "primary_type": "Cafe/bakery", "types str": "cafe, store, restaurant, food, point_of_interest, establishment", "popup": "<h4><b>Tall Timber Cafe</b></h4>60 Commercial Road, Prahran<br><i>cafe, store, restaurant, food, point of interest, establishment</i><br><br><font color=\"gray\"><b>4.1\u2605</b> (771)</font><font color=\"green\"><span style=\"float:right\">$$</font></span>", "long": 144.988137, "lat": -37.8462523}, {"business_status": "OPERATIONAL", "geometry": {"location": {"lat": -37.838753, "lng": 144.9908511}, "viewport": {"northeast": {"lat": -37.8374710697085, "lng": 144.9921859802915}, "southwest": {"lat": -37.84016903029149, "lng": 144.9894880197085}}}, "icon": "https://maps.gstatic.com/mapfiles/place_api/icons/v1/png_71/shopping-71.png", "icon_background_color": "#4B96F3", "icon_mask_base_uri": "https://maps.gstatic.com/mapfiles/place_api/icons/v2/shopping_pinlet", "name": "TEAMOO Classic Tea", "opening_hours": {"open_now": false}, "photos": [{"height": 3096, "html_attributions": ["<a href=\"https://maps.google.com/maps/contrib/113940268604736457214\">Tom Iera</a>"], "photo_reference": "AcYSjRgizy3cTQQuda9khoj74BpoehQk4TO7fp_miZUT_BF73MBdG2FpfZ9_kVwu3HpAm85XWEKFN7NGJoSPMUkQVNB5b_2_HEL9bk9pz_Updo201eiZcmEZ0uWqcbwccOpSTg5c38NkWMhBXKzvImh43UI6hdiqwoZsLr6g5658aiHtPT_0", "width": 4128}], "place_id": "ChIJlzcl4JxC1moRScMiTmemTVs", "plus_code": {"compound_code": "5X6R+F8 South Yarra VIC, Australia", "global_code": "4RJ65X6R+F8"}, "price_level": 2, "rating": 4.9, "reference": "ChIJlzcl4JxC1moRScMiTmemTVs", "scope": "GOOGLE", "types": ["cafe", "store", "restaurant", "food", "point_of_interest", "establishment"], "user_ratings_total": 49, "vicinity": "141 Toorak Road, South Yarra", "primary_type": "Cafe/bakery", "types str": "cafe, store, restaurant, food, point_of_interest, establishment", "popup": "<h4><b>TEAMOO Classic Tea</b></h4>141 Toorak Road, South Yarra<br><i>cafe, store, restaurant, food, point of interest, establishment</i><br><br><font color=\"gray\"><b>4.9\u2605</b> (49)</font><font color=\"green\"><span style=\"float:right\">$$</font></span>", "long": 144.9908511, "lat": -37.838753}, {"business_status": "OPERATIONAL", "geometry": {"location": {"lat": -37.8361381, "lng": 144.9761293}, "viewport": {"northeast": {"lat": -37.8348228697085, "lng": 144.9772823802915}, "southwest": {"lat": -37.8375208302915, "lng": 144.9745844197085}}}, "icon": "https://maps.gstatic.com/mapfiles/place_api/icons/v1/png_71/restaurant-71.png", "icon_background_color": "#FF9E67", "icon_mask_base_uri": "https://maps.gstatic.com/mapfiles/place_api/icons/v2/restaurant_pinlet", "name": "McDonald's", "opening_hours": {"open_now": true}, "photos": [{"height": 3968, "html_attributions": ["<a href=\"https://maps.google.com/maps/contrib/104081465885296940772\">Amirhamed Khandan (Amir)</a>"], "photo_reference": "AcYSjRhFTLXoPWz8kD2-Xfrn0DwkqMivHMKBHhWJAnFD31WlEJSeMypAhT_yLVK2LPjJupT6YNO6j9cieO7aM-eLeEP_bv4A4WIq5D3kiT06f-TnkYC3Dk-STtaombuNUeQa0LXwjcgvk2n63GrLKBow5iyxULSVtNfIb2r5y0MCq-2lDuC0", "width": 6352}], "place_id": "ChIJi2b9jB1o1moRv-GkwgAKu0M", "plus_code": {"compound_code": "5X7G+GF Melbourne VIC, Australia", "global_code": "4RJ65X7G+GF"}, "price_level": 1, "rating": 3.6, "reference": "ChIJi2b9jB1o1moRv-GkwgAKu0M", "scope": "GOOGLE", "types": ["cafe", "meal_takeaway", "store", "restaurant", "food", "point_of_interest", "establishment"], "user_ratings_total": 1126, "vicinity": "407 Saint Kilda Road, Melbourne", "primary_type": "Cafe/bakery", "types str": "cafe, meal_takeaway, store, restaurant, food, point_of_interest, establishment", "popup": "<h4><b>McDonald's</b></h4>407 Saint Kilda Road, Melbourne<br><i>cafe, meal takeaway, store, restaurant, food, point of interest, establishment</i><br><br><font color=\"gray\"><b>3.6\u2605</b> (1126)</font><font color=\"green\"><span style=\"float:right\">$</font></span>", "long": 144.9761293, "lat": -37.8361381}, {"business_status": "OPERATIONAL", "geometry": {"location": {"lat": -37.8489083, "lng": 144.9793492}, "viewport": {"northeast": {"lat": -37.8474934697085, "lng": 144.9809787302915}, "southwest": {"lat": -37.8501914302915, "lng": 144.9782807697085}}}, "icon": "https://maps.gstatic.com/mapfiles/place_api/icons/v1/png_71/cafe-71.png", "icon_background_color": "#FF9E67", "icon_mask_base_uri": "https://maps.gstatic.com/mapfiles/place_api/icons/v2/cafe_pinlet", "name": "580 BENCH", "opening_hours": {"open_now": true}, "photos": [{"height": 2000, "html_attributions": ["<a href=\"https://maps.google.com/maps/contrib/102613074273043014874\">580 BENCH</a>"], "photo_reference": "AcYSjRgKLieHcgmXqRnoACanEfHJccgHorTn3JKuMMdhTcRBZfWKU2vNfilY73c27ZYUDrulme8qKijbQvtX48MtA_tA1oPSBUxd4OkVJnA_KDpni2JU6rdG1jLz97jng4PeGFi2579fmpqWOFruRx2nk2ATldVJ96k_q6HPCOrlkAd4f9nX", "width": 1335}], "place_id": "ChIJaZhh5hZo1moRWO1H5Zy4qD4", "plus_code": {"compound_code": "5X2H+CP Melbourne VIC, Australia", "global_code": "4RJ65X2H+CP"}, "rating": 4.6, "reference": "ChIJaZhh5hZo1moRWO1H5Zy4qD4", "scope": "GOOGLE", "types": ["cafe", "store", "food", "point_of_interest", "establishment"], "user_ratings_total": 121, "vicinity": "580 Saint Kilda Road, Melbourne", "primary_type": "Cafe/bakery", "types str": "cafe, store, food, point_of_interest, establishment", "popup": "<h4><b>580 BENCH</b></h4>580 Saint Kilda Road, Melbourne<br><i>cafe, store, food, point of interest, establishment</i><br><br><font color=\"gray\"><b>4.6\u2605</b> (121)</font>", "long": 144.9793492, "lat": -37.8489083}, {"business_status": "OPERATIONAL", "geometry": {"location": {"lat": -37.838518, "lng": 144.990105}, "viewport": {"northeast": {"lat": -37.83717701970851, "lng": 144.9915184802915}, "southwest": {"lat": -37.8398749802915, "lng": 144.9888205197085}}}, "icon": "https://maps.gstatic.com/mapfiles/place_api/icons/v1/png_71/cafe-71.png", "icon_background_color": "#FF9E67", "icon_mask_base_uri": "https://maps.gstatic.com/mapfiles/place_api/icons/v2/cafe_pinlet", "name": "Commonfolk South Yarra", "opening_hours": {"open_now": true}, "photos": [{"height": 2359, "html_attributions": ["<a href=\"https://maps.google.com/maps/contrib/103235261404784130404\">Commonfolk South Yarra</a>"], "photo_reference": "AcYSjRidgB8L4_r6yiXONIRZrEHqFpXXfSHcuSLCQndcbo_FTCQHoLPtyDmum5U_rnoE7-PlnWumLCbXrW_nqK6l7_2uceJ6JDvngLnQfvET695qG0m6PTeFh_A84rgzu4jr_Uh812Z2BGVbQxa8ATtJVNvIQ1h5w43fegGoEwNpR232nIye", "width": 4192}], "place_id": "ChIJnZUptp1C1moRMOdeTMfQOs8", "plus_code": {"compound_code": "5X6R+H2 South Yarra VIC, Australia", "global_code": "4RJ65X6R+H2"}, "price_level": 1, "rating": 4.3, "reference": "ChIJnZUptp1C1moRMOdeTMfQOs8", "scope": "GOOGLE", "types": ["cafe", "store", "restaurant", "food", "point_of_interest", "establishment"], "user_ratings_total": 143, "vicinity": "1C Murphy Street, South Yarra", "primary_type": "Cafe/bakery", "types str": "cafe, store, restaurant, food, point_of_interest, establishment", "popup": "<h4><b>Commonfolk South Yarra</b></h4>1C Murphy Street, South Yarra<br><i>cafe, store, restaurant, food, point of interest, establishment</i><br><br><font color=\"gray\"><b>4.3\u2605</b> (143)</font><font color=\"green\"><span style=\"float:right\">$</font></span>", "long": 144.990105, "lat": -37.838518}, {"business_status": "OPERATIONAL", "geometry": {"location": {"lat": -37.83819769999999, "lng": 144.9870787}, "viewport": {"northeast": {"lat": -37.8369375197085, "lng": 144.9883990302915}, "southwest": {"lat": -37.8396354802915, "lng": 144.9857010697085}}}, "icon": "https://maps.gstatic.com/mapfiles/place_api/icons/v1/png_71/cafe-71.png", "icon_background_color": "#FF9E67", "icon_mask_base_uri": "https://maps.gstatic.com/mapfiles/place_api/icons/v2/cafe_pinlet", "name": "La Parisienne P\u00e2t\u00e9s", "opening_hours": {"open_now": true}, "photos": [{"height": 4032, "html_attributions": ["<a href=\"https://maps.google.com/maps/contrib/114211524901668378462\">Julianne Bean</a>"], "photo_reference": "AcYSjRh5cE92FRlfX69D1-K5tq3N5-tVc_reJUIuTDuNWs6Mc23MMVKCuzQWLbkqKjNsi9DBP9eY-voqf5BYI44jEdeRM72WEd3kNtzkBVyeIDiSeptBLf71CtqOEWCSNVBQltx0Ox0-Ut7_rN0-iNUkXRJC9cupFsHbiu4paRW9I_SGH6fp", "width": 3024}], "place_id": "ChIJKWmwOJ5C1moR97ECGHHeoVA", "plus_code": {"compound_code": "5X6P+PR South Yarra VIC, Australia", "global_code": "4RJ65X6P+PR"}, "price_level": 2, "rating": 4.1, "reference": "ChIJKWmwOJ5C1moR97ECGHHeoVA", "scope": "GOOGLE", "types": ["cafe", "food", "point_of_interest", "establishment"], "user_ratings_total": 181, "vicinity": "15/17 Toorak Road, South Yarra", "primary_type": "Cafe/bakery", "types str": "cafe, food, point_of_interest, establishment", "popup": "<h4><b>La Parisienne P\u00e2t\u00e9s</b></h4>15/17 Toorak Road, South Yarra<br><i>cafe, food, point of interest, establishment</i><br><br><font color=\"gray\"><b>4.1\u2605</b> (181)</font><font color=\"green\"><span style=\"float:right\">$$</font></span>", "long": 144.9870787, "lat": -37.83819769999999}, {"business_status": "OPERATIONAL", "geometry": {"location": {"lat": -37.838274, "lng": 144.989326}, "viewport": {"northeast": {"lat": -37.83685961970851, "lng": 144.9906474302915}, "southwest": {"lat": -37.8395575802915, "lng": 144.9879494697085}}}, "icon": "https://maps.gstatic.com/mapfiles/place_api/icons/v1/png_71/cafe-71.png", "icon_background_color": "#FF9E67", "icon_mask_base_uri": "https://maps.gstatic.com/mapfiles/place_api/icons/v2/cafe_pinlet", "name": "Cafe Gaia.", "opening_hours": {"open_now": true}, "photos": [{"height": 5000, "html_attributions": ["<a href=\"https://maps.google.com/maps/contrib/112554230255618871884\">Cafe Gaia.</a>"], "photo_reference": "AcYSjRhs-FKY5s8TgI6Ew2ir1FsFGakzaraxOcuwO_JGU-RPpOMzQ4nv5bfduy7oyx8jUHLAwxrevNVICXimx_ik9Ouv6358ZafG8fnHSkSvcJF7mC65F7OR1HvZLfqBhJNa3zhTlZqvPm81c2kfZGl_jXFU9Enlnafo_tKvlnDlycI9vrcY", "width": 4000}], "place_id": "ChIJ-Sh90J1C1moR2ORr366i2C0", "plus_code": {"compound_code": "5X6Q+MP South Yarra VIC, Australia", "global_code": "4RJ65X6Q+MP"}, "price_level": 2, "rating": 4.3, "reference": "ChIJ-Sh90J1C1moR2ORr366i2C0", "scope": "GOOGLE", "types": ["cafe", "store", "restaurant", "food", "point_of_interest", "establishment"], "user_ratings_total": 214, "vicinity": "Unit 3/4 Avoca Street, South Yarra", "primary_type": "Cafe/bakery", "types str": "cafe, store, restaurant, food, point_of_interest, establishment", "popup": "<h4><b>Cafe Gaia.</b></h4>Unit 3/4 Avoca Street, South Yarra<br><i>cafe, store, restaurant, food, point of interest, establishment</i><br><br><font color=\"gray\"><b>4.3\u2605</b> (214)</font><font color=\"green\"><span style=\"float:right\">$$</font></span>", "long": 144.989326, "lat": -37.838274}, {"business_status": "OPERATIONAL", "geometry": {"location": {"lat": -37.8452778, "lng": 144.98}, "viewport": {"northeast": {"lat": -37.8438296697085, "lng": 144.9813858802915}, "southwest": {"lat": -37.8465276302915, "lng": 144.9786879197085}}}, "icon": "https://maps.gstatic.com/mapfiles/place_api/icons/v1/png_71/cafe-71.png", "icon_background_color": "#FF9E67", "icon_mask_base_uri": "https://maps.gstatic.com/mapfiles/place_api/icons/v2/cafe_pinlet", "name": "Cafe La Colline", "opening_hours": {"open_now": true}, "photos": [{"height": 4032, "html_attributions": ["<a href=\"https://maps.google.com/maps/contrib/105534675619811522108\">S Melbourne</a>"], "photo_reference": "AcYSjRhA_GjaNYAqiFjNrMcGI45tYA_VfyOuyn7sKig8_6cJAkVhmHVMddevgTBnNCKPUXjgXYIFFW_omtI5n7rcgR0QYa86IPHwdZh4OqGnpi_i-FAnll9QlafPdEYF27STOysC5TAGDY1VehTNR_WVTyN3CIIVOE6aQY7yL4rFmMAqxno", "width": 3024}], "place_id": "ChIJUZU4siNo1moRpWbPENB9ICc", "plus_code": {"compound_code": "5X3J+V2 Melbourne VIC, Australia", "global_code": "4RJ65X3J+V2"}, "price_level": 1, "rating": 4.2, "reference": "ChIJUZU4siNo1moRpWbPENB9ICc", "scope": "GOOGLE", "types": ["cafe", "store", "food", "point_of_interest", "establishment"], "user_ratings_total": 141, "vicinity": "3/13 Commercial Road, Melbourne", "primary_type": "Cafe/bakery", "types str": "cafe, store, food, point_of_interest, establishment", "popup": "<h4><b>Cafe La Colline</b></h4>3/13 Commercial Road, Melbourne<br><i>cafe, store, food, point of interest, establishment</i><br><br><font color=\"gray\"><b>4.2\u2605</b> (141)</font><font color=\"green\"><span style=\"float:right\">$</font></span>", "long": 144.98, "lat": -37.8452778}, {"business_status": "OPERATIONAL", "geometry": {"location": {"lat": -37.8379446, "lng": 144.9756167}, "viewport": {"northeast": {"lat": -37.8365587697085, "lng": 144.9771220302915}, "southwest": {"lat": -37.8392567302915, "lng": 144.9744240697085}}}, "icon": "https://maps.gstatic.com/mapfiles/place_api/icons/v1/png_71/cafe-71.png", "icon_background_color": "#FF9E67", "icon_mask_base_uri": "https://maps.gstatic.com/mapfiles/place_api/icons/v2/cafe_pinlet", "name": "the Blue Moose Cafe", "opening_hours": {"open_now": true}, "photos": [{"height": 3024, "html_attributions": ["<a href=\"https://maps.google.com/maps/contrib/111966233799331801315\">Ania</a>"], "photo_reference": "AcYSjRjhiCP5Zr6780xB4bI99KbADXmNnoeLI2H3hr4YBQKq0h0k_ztqQo9GZBU_1zNnrrRQrI-_wW9vh1Df_nxwGh8V7MqRZeVPiMGtLD0f4vbjrpDZbpa7p1BW3bixu1shHVWClate8H4Iv3hqYxwzf_YEICPBa-0CTVP1zzqVZ3AQSINV", "width": 4032}], "place_id": "ChIJ64GWUxxo1moRfs-yh90VhLA", "plus_code": {"compound_code": "5X6G+R6 Melbourne VIC, Australia", "global_code": "4RJ65X6G+R6"}, "price_level": 2, "rating": 4, "reference": "ChIJ64GWUxxo1moRfs-yh90VhLA", "scope": "GOOGLE", "types": ["cafe", "store", "restaurant", "food", "point_of_interest", "establishment"], "user_ratings_total": 108, "vicinity": "436 Saint Kilda Road, Melbourne", "primary_type": "Cafe/bakery", "types str": "cafe, store, restaurant, food, point_of_interest, establishment", "popup": "<h4><b>the Blue Moose Cafe</b></h4>436 Saint Kilda Road, Melbourne<br><i>cafe, store, restaurant, food, point of interest, establishment</i><br><br><font color=\"gray\"><b>4\u2605</b> (108)</font><font color=\"green\"><span style=\"float:right\">$$</font></span>", "long": 144.9756167, "lat": -37.8379446}, {"business_status": "OPERATIONAL", "geometry": {"location": {"lat": -37.8391885, "lng": 144.9771477}, "viewport": {"northeast": {"lat": -37.8378723697085, "lng": 144.9783553302915}, "southwest": {"lat": -37.8405703302915, "lng": 144.9756573697085}}}, "icon": "https://maps.gstatic.com/mapfiles/place_api/icons/v1/png_71/cafe-71.png", "icon_background_color": "#FF9E67", "icon_mask_base_uri": "https://maps.gstatic.com/mapfiles/place_api/icons/v2/cafe_pinlet", "name": "Southside", "opening_hours": {"open_now": true}, "photos": [{"height": 1960, "html_attributions": ["<a href=\"https://maps.google.com/maps/contrib/117331012650040826573\">Tim N</a>"], "photo_reference": "AcYSjRjbbHMQbkTM9iEPHlcDiOYP3a4DA-QQGpJQh0HiPTpijrCUTeETbGODCRdgLE1P1V6o_F5GONbqAQW2odw4Im3i8KxFid76Q98xQJvKIlJUn-zDLJQfecWbs1YHsSZyNVWtphCp3WJNgRYwYPA2PT85OViSJuqpjMYhMApMixTero3o", "width": 4032}], "place_id": "ChIJz2NaZCRp1moRmeozMStK0Mc", "plus_code": {"compound_code": "5X6G+8V Melbourne VIC, Australia", "global_code": "4RJ65X6G+8V"}, "rating": 4.2, "reference": "ChIJz2NaZCRp1moRmeozMStK0Mc", "scope": "GOOGLE", "types": ["cafe", "store", "food", "point_of_interest", "establishment"], "user_ratings_total": 35, "vicinity": "435-437 Saint Kilda Road, Melbourne", "primary_type": "Cafe/bakery", "types str": "cafe, store, food, point_of_interest, establishment", "popup": "<h4><b>Southside</b></h4>435-437 Saint Kilda Road, Melbourne<br><i>cafe, store, food, point of interest, establishment</i><br><br><font color=\"gray\"><b>4.2\u2605</b> (35)</font>", "long": 144.9771477, "lat": -37.8391885}, {"business_status": "OPERATIONAL", "geometry": {"location": {"lat": -37.842172, "lng": 144.9771766}, "viewport": {"northeast": {"lat": -37.8407911197085, "lng": 144.9786654802915}, "southwest": {"lat": -37.8434890802915, "lng": 144.9759675197085}}}, "icon": "https://maps.gstatic.com/mapfiles/place_api/icons/v1/png_71/cafe-71.png", "icon_background_color": "#FF9E67", "icon_mask_base_uri": "https://maps.gstatic.com/mapfiles/place_api/icons/v2/cafe_pinlet", "name": "Red tux cafe", "opening_hours": {"open_now": true}, "photos": [{"height": 3024, "html_attributions": ["<a href=\"https://maps.google.com/maps/contrib/112845414068441279376\">Mapa Madhawa</a>"], "photo_reference": "AcYSjRg7z3rTuQsOe_yeVR3P86MLtYpvF7kqanARynxYfViCA9kEqHIXsbE9A38lZUw9ffdDmiI3XGHlbYKSqfkFOzln_jiDn1ivcDHH4O9u3LFMSu7dgOoO8VncMMmrZ2sInXQZbPgnRFwJpIJB_H-mg2XsIG-RIvpv7epKJk6YahQsZw_H", "width": 4032}], "place_id": "ChIJEXQixRto1moRvDgXc9ALdfo", "plus_code": {"compound_code": "5X5G+4V Melbourne VIC, Australia", "global_code": "4RJ65X5G+4V"}, "price_level": 2, "rating": 4.6, "reference": "ChIJEXQixRto1moRvDgXc9ALdfo", "scope": "GOOGLE", "types": ["cafe", "food", "point_of_interest", "establishment"], "user_ratings_total": 70, "vicinity": "476 Saint Kilda Road, Melbourne", "primary_type": "Cafe/bakery", "types str": "cafe, food, point_of_interest, establishment", "popup": "<h4><b>Red tux cafe</b></h4>476 Saint Kilda Road, Melbourne<br><i>cafe, food, point of interest, establishment</i><br><br><font color=\"gray\"><b>4.6\u2605</b> (70)</font><font color=\"green\"><span style=\"float:right\">$$</font></span>", "long": 144.9771766, "lat": -37.842172}, {"business_status": "OPERATIONAL", "geometry": {"location": {"lat": -37.83867370000001, "lng": 144.97706}, "viewport": {"northeast": {"lat": -37.83745836970851, "lng": 144.9785256802915}, "southwest": {"lat": -37.84015633029151, "lng": 144.9758277197085}}}, "icon": "https://maps.gstatic.com/mapfiles/place_api/icons/v1/png_71/cafe-71.png", "icon_background_color": "#FF9E67", "icon_mask_base_uri": "https://maps.gstatic.com/mapfiles/place_api/icons/v2/cafe_pinlet", "name": "Calla & Gardenia Cafe", "opening_hours": {"open_now": true}, "place_id": "ChIJK-TuJltp1moRLcQdCYO2RH0", "plus_code": {"compound_code": "5X6G+GR Melbourne VIC, Australia", "global_code": "4RJ65X6G+GR"}, "reference": "ChIJK-TuJltp1moRLcQdCYO2RH0", "scope": "GOOGLE", "types": ["cafe", "food", "point_of_interest", "establishment"], "vicinity": "5/431 Saint Kilda Road, Melbourne", "primary_type": "Cafe/bakery", "types str": "cafe, food, point_of_interest, establishment", "popup": "<h4><b>Calla & Gardenia Cafe</b></h4>5/431 Saint Kilda Road, Melbourne<br><i>cafe, food, point of interest, establishment</i><br><br>", "long": 144.97706, "lat": -37.83867370000001}, {"business_status": "OPERATIONAL", "geometry": {"location": {"lat": -37.8386508, "lng": 144.9769478}, "viewport": {"northeast": {"lat": -37.83735106970849, "lng": 144.9781717802915}, "southwest": {"lat": -37.84004903029149, "lng": 144.9754738197085}}}, "icon": "https://maps.gstatic.com/mapfiles/place_api/icons/v1/png_71/cafe-71.png", "icon_background_color": "#FF9E67", "icon_mask_base_uri": "https://maps.gstatic.com/mapfiles/place_api/icons/v2/cafe_pinlet", "name": "Moody Brew", "opening_hours": {"open_now": true}, "photos": [{"height": 4032, "html_attributions": ["<a href=\"https://maps.google.com/maps/contrib/118115996135530740908\">Aman Sehgal</a>"], "photo_reference": "AcYSjRgdgOO9FwON0SjFw_T2oNC6HHJXvrkRf7xCg7dReQ4o4nSZXSt-Ghly-UllrUbbd7h6pBHOA_4Bxpww8Ymbe5TrbDCJQUnu-aLO8I7_xdR4356V4Nz0zjE2yCsDCesUBeRJ8tKEgFW3vPZK4XrGBNuPWxNUW-pXhNg_g2M4bgkkU4Zm", "width": 3024}], "place_id": "ChIJSZ9r9hVp1moRKrligG1RQw4", "plus_code": {"compound_code": "5X6G+GQ Melbourne VIC, Australia", "global_code": "4RJ65X6G+GQ"}, "rating": 4.5, "reference": "ChIJSZ9r9hVp1moRKrligG1RQw4", "scope": "GOOGLE", "types": ["cafe", "food", "point_of_interest", "establishment"], "user_ratings_total": 21, "vicinity": "Commercial Centre, 30/431 Saint Kilda Road, Melbourne", "primary_type": "Cafe/bakery", "types str": "cafe, food, point_of_interest, establishment", "popup": "<h4><b>Moody Brew</b></h4>Commercial Centre, 30/431 Saint Kilda Road, Melbourne<br><i>cafe, food, point of interest, establishment</i><br><br><font color=\"gray\"><b>4.5\u2605</b> (21)</font>", "long": 144.9769478, "lat": -37.8386508}, {"business_status": "OPERATIONAL", "geometry": {"location": {"lat": -37.8439966, "lng": 144.9789749}, "viewport": {"northeast": {"lat": -37.8426892197085, "lng": 144.9801680802915}, "southwest": {"lat": -37.8453871802915, "lng": 144.9774701197085}}}, "icon": "https://maps.gstatic.com/mapfiles/place_api/icons/v1/png_71/cafe-71.png", "icon_background_color": "#FF9E67", "icon_mask_base_uri": "https://maps.gstatic.com/mapfiles/place_api/icons/v2/cafe_pinlet", "name": "In a Rush", "opening_hours": {"open_now": true}, "photos": [{"height": 3024, "html_attributions": ["<a href=\"https://maps.google.com/maps/contrib/115930584320369424154\">C Bob</a>"], "photo_reference": "AcYSjRjJ9wtl_kTJG9fJwEi1Lvw2mYp1sx64DdGgQPdSiOGB5xIZIkptG71eiVtaxgxwNMhga0mHtjlMUynPzew0LhjMbwdhWiO7KT2I8zOUULpgMnpEr1CP4cCBZTGioY5hSRTjHVEZju1XEW9YosRDvtJInFDEpQRFsnogDmUCFUecdsho", "width": 4032}], "place_id": "ChIJVVWVoxlo1moRtdY7GZvw-JM", "plus_code": {"compound_code": "5X4H+CH Melbourne VIC, Australia", "global_code": "4RJ65X4H+CH"}, "rating": 4.6, "reference": "ChIJVVWVoxlo1moRtdY7GZvw-JM", "scope": "GOOGLE", "types": ["cafe", "food", "point_of_interest", "establishment"], "user_ratings_total": 27, "vicinity": "Ground Floor/509 Saint Kilda Road, Melbourne", "primary_type": "Cafe/bakery", "types str": "cafe, food, point_of_interest, establishment", "popup": "<h4><b>In a Rush</b></h4>Ground Floor/509 Saint Kilda Road, Melbourne<br><i>cafe, food, point of interest, establishment</i><br><br><font color=\"gray\"><b>4.6\u2605</b> (27)</font>", "long": 144.9789749, "lat": -37.8439966}, {"business_status": "OPERATIONAL", "geometry": {"location": {"lat": -37.8378668, "lng": 144.9766854}, "viewport": {"northeast": {"lat": -37.83653006970849, "lng": 144.9778858802915}, "southwest": {"lat": -37.83922803029149, "lng": 144.9751879197085}}}, "icon": "https://maps.gstatic.com/mapfiles/place_api/icons/v1/png_71/cafe-71.png", "icon_background_color": "#FF9E67", "icon_mask_base_uri": "https://maps.gstatic.com/mapfiles/place_api/icons/v2/cafe_pinlet", "name": "Aromatic Espresso", "opening_hours": {"open_now": true}, "photos": [{"height": 4032, "html_attributions": ["<a href=\"https://maps.google.com/maps/contrib/112207110823129133009\">Qin Guo</a>"], "photo_reference": "AcYSjRilRYOXQLRb3ekzGiFz0orllI-8W5C5nGRqA9n2cQS1FqL225UoqDT1D-UQjSdjdQFFxPLLIlOlU5XCbu7INj5NXgcE9n99WUS94NHLgmXYmwqG2HhPELBi_XWUGZUv6iN9ZMYvcwd1Ptp3yMc4mgOirlxozZFltb07kRRjsO_OPchD", "width": 3024}], "place_id": "ChIJZ33Nyx1o1moRHDSny4pvIIs", "plus_code": {"compound_code": "5X6G+VM Melbourne VIC, Australia", "global_code": "4RJ65X6G+VM"}, "rating": 4.9, "reference": "ChIJZ33Nyx1o1moRHDSny4pvIIs", "scope": "GOOGLE", "types": ["cafe", "store", "food", "point_of_interest", "establishment"], "user_ratings_total": 8, "vicinity": "417 Saint Kilda Road, Melbourne", "primary_type": "Cafe/bakery", "types str": "cafe, store, food, point_of_interest, establishment", "popup": "<h4><b>Aromatic Espresso</b></h4>417 Saint Kilda Road, Melbourne<br><i>cafe, store, food, point of interest, establishment</i><br><br><font color=\"gray\"><b>4.9\u2605</b> (8)</font>", "long": 144.9766854, "lat": -37.8378668}, {"business_status": "OPERATIONAL", "geometry": {"location": {"lat": -37.8439758, "lng": 144.9777531}, "viewport": {"northeast": {"lat": -37.8427281197085, "lng": 144.9790668802915}, "southwest": {"lat": -37.84542608029149, "lng": 144.9763689197085}}}, "icon": "https://maps.gstatic.com/mapfiles/place_api/icons/v1/png_71/cafe-71.png", "icon_background_color": "#FF9E67", "icon_mask_base_uri": "https://maps.gstatic.com/mapfiles/place_api/icons/v2/cafe_pinlet", "name": "HUES CAFE / HUES CATERING", "opening_hours": {"open_now": true}, "photos": [{"height": 2268, "html_attributions": ["<a href=\"https://maps.google.com/maps/contrib/108486500016293882451\">Marcus Keily</a>"], "photo_reference": "AcYSjRgGPPR3R2CiHxThaXHJ-93iMXrGovUBqKOqC39s0ivmrGRLdVqJ2MUym8F5fCTJk8nXCOcPVyQbzCIhTu0B5sOVe5K-l8A0xbndx_bhjAgDSymTE50PRPnpO4KpC0EZRg-I5o0wy4r6IXfUTO2U82Fw_CDnX4MEwBFLw3lYR03iydsC", "width": 4031}], "place_id": "ChIJMxrR0lNp1moRm7kxIZ2W3n8", "plus_code": {"compound_code": "5X4H+C4 Melbourne VIC, Australia", "global_code": "4RJ65X4H+C4"}, "rating": 4.9, "reference": "ChIJMxrR0lNp1moRm7kxIZ2W3n8", "scope": "GOOGLE", "types": ["cafe", "restaurant", "food", "point_of_interest", "establishment"], "user_ratings_total": 32, "vicinity": "492 Saint Kilda Road, Melbourne", "primary_type": "Cafe/bakery", "types str": "cafe, restaurant, food, point_of_interest, establishment", "popup": "<h4><b>HUES CAFE / HUES CATERING</b></h4>492 Saint Kilda Road, Melbourne<br><i>cafe, restaurant, food, point of interest, establishment</i><br><br><font color=\"gray\"><b>4.9\u2605</b> (32)</font>", "long": 144.9777531, "lat": -37.8439758}, {"business_status": "OPERATIONAL", "geometry": {"location": {"lat": -37.8446409, "lng": 144.9792757}, "viewport": {"northeast": {"lat": -37.8433693697085, "lng": 144.9806569302915}, "southwest": {"lat": -37.8460673302915, "lng": 144.9779589697085}}}, "icon": "https://maps.gstatic.com/mapfiles/place_api/icons/v1/png_71/cafe-71.png", "icon_background_color": "#FF9E67", "icon_mask_base_uri": "https://maps.gstatic.com/mapfiles/place_api/icons/v2/cafe_pinlet", "name": "Locale Coffee", "opening_hours": {"open_now": true}, "photos": [{"height": 5312, "html_attributions": ["<a href=\"https://maps.google.com/maps/contrib/100583310671108819953\">K Pahl-Duffy</a>"], "photo_reference": "AcYSjRgloVsBANiYa4Pejv9UcDdA1vir9yt7uCuItb86jQvGDIauoemItG29Yv3ECbK3bI749nEwg9OOcVw54InWnxt5EdraUH8U_oUJ71PQ1RSDT3i3aL4XLhOKapOYJpmbeyHNkcy0EZvtCF1-a7YoYERgdtSQYp234CmbDtBLrrJKbTeS", "width": 2988}], "place_id": "ChIJNx0qvBlo1moREbaZuYZoCCI", "plus_code": {"compound_code": "5X4H+4P Melbourne VIC, Australia", "global_code": "4RJ65X4H+4P"}, "rating": 4.8, "reference": "ChIJNx0qvBlo1moREbaZuYZoCCI", "scope": "GOOGLE", "types": ["cafe", "food", "point_of_interest", "establishment"], "user_ratings_total": 17, "vicinity": "517 Saint Kilda Road, Melbourne", "primary_type": "Cafe/bakery", "types str": "cafe, food, point_of_interest, establishment", "popup": "<h4><b>Locale Coffee</b></h4>517 Saint Kilda Road, Melbourne<br><i>cafe, food, point of interest, establishment</i><br><br><font color=\"gray\"><b>4.8\u2605</b> (17)</font>", "long": 144.9792757, "lat": -37.8446409}, {"business_status": "OPERATIONAL", "geometry": {"location": {"lat": -37.8384675, "lng": 144.975602}, "viewport": {"northeast": {"lat": -37.8370675697085, "lng": 144.9772080802915}, "southwest": {"lat": -37.8397655302915, "lng": 144.9745101197085}}}, "icon": "https://maps.gstatic.com/mapfiles/place_api/icons/v1/png_71/cafe-71.png", "icon_background_color": "#FF9E67", "icon_mask_base_uri": "https://maps.gstatic.com/mapfiles/place_api/icons/v2/cafe_pinlet", "name": "Deep & Me", "opening_hours": {"open_now": true}, "photos": [{"height": 2309, "html_attributions": ["<a href=\"https://maps.google.com/maps/contrib/117947012563563819722\">Deep &amp; Me</a>"], "photo_reference": "AcYSjRiI3BmuL-bpM0XpVuvHk7q-fVobYSrTw1mPbx30lKNyu-v4dHXX3YzNim_5nEuEei5pAbCHBfisWi2cTjVR4vYoXAYYMQ9Zh0xTm4dNRuqKgWB1b6OGpchg_ULrOKId23etcKZEgJe4-S964sZaVF-OHp9018d__7PuC_Uuz2kPgjNI", "width": 3464}], "place_id": "ChIJUXktk35p1moRXSVTka4I_Vs", "plus_code": {"compound_code": "5X6G+J6 Melbourne VIC, Australia", "global_code": "4RJ65X6G+J6"}, "rating": 4.8, "reference": "ChIJUXktk35p1moRXSVTka4I_Vs", "scope": "GOOGLE", "types": ["cafe", "food", "point_of_interest", "establishment"], "user_ratings_total": 98, "vicinity": "G04/448 Saint Kilda Road, Melbourne", "primary_type": "Cafe/bakery", "types str": "cafe, food, point_of_interest, establishment", "popup": "<h4><b>Deep & Me</b></h4>G04/448 Saint Kilda Road, Melbourne<br><i>cafe, food, point of interest, establishment</i><br><br><font color=\"gray\"><b>4.8\u2605</b> (98)</font>", "long": 144.975602, "lat": -37.8384675}, {"business_status": "OPERATIONAL", "geometry": {"location": {"lat": -37.83893620000001, "lng": 144.9750694}, "viewport": {"northeast": {"lat": -37.83760031970851, "lng": 144.9764997802915}, "southwest": {"lat": -37.84029828029151, "lng": 144.9738018197085}}}, "icon": "https://maps.gstatic.com/mapfiles/place_api/icons/v1/png_71/cafe-71.png", "icon_background_color": "#FF9E67", "icon_mask_base_uri": "https://maps.gstatic.com/mapfiles/place_api/icons/v2/cafe_pinlet", "name": "Mr.Percival Cafe & Restaurant", "opening_hours": {"open_now": true}, "photos": [{"height": 3000, "html_attributions": ["<a href=\"https://maps.google.com/maps/contrib/105493084483754079519\">Jamin Piggo</a>"], "photo_reference": "AcYSjRjPjdJpADKbKgcI881GPThLSaPyPJSwY8wcRfPAGeqSQS1wz0rmUQ27XTX6qiyIKvVcfy8ICej7m20w1PC6bMNRJqeOFvaz5LpQ_NrI35Z2Ecbva8eGL3uOtL8A8bUnXVMY-ffaBAzUsYKtYfVErC1gCprEXFiosp436p9gAJzoM6QN", "width": 4000}], "place_id": "ChIJR7dcihxo1moRzxrLll8JZlc", "plus_code": {"compound_code": "5X6G+C2 Melbourne VIC, Australia", "global_code": "4RJ65X6G+C2"}, "price_level": 2, "rating": 4.4, "reference": "ChIJR7dcihxo1moRzxrLll8JZlc", "scope": "GOOGLE", "types": ["cafe", "store", "restaurant", "food", "point_of_interest", "establishment"], "user_ratings_total": 247, "vicinity": "Melbourne", "primary_type": "Cafe/bakery", "types str": "cafe, store, restaurant, food, point_of_interest, establishment", "popup": "<h4><b>Mr.Percival Cafe & Restaurant</b></h4>Melbourne<br><i>cafe, store, restaurant, food, point of interest, establishment</i><br><br><font color=\"gray\"><b>4.4\u2605</b> (247)</font><font color=\"green\"><span style=\"float:right\">$$</font></span>", "long": 144.9750694, "lat": -37.83893620000001}, {"business_status": "OPERATIONAL", "geometry": {"location": {"lat": -37.8385904, "lng": 144.9870342}, "viewport": {"northeast": {"lat": -37.8372488697085, "lng": 144.9884390302915}, "southwest": {"lat": -37.8399468302915, "lng": 144.9857410697085}}}, "icon": "https://maps.gstatic.com/mapfiles/place_api/icons/v1/png_71/shopping-71.png", "icon_background_color": "#4B96F3", "icon_mask_base_uri": "https://maps.gstatic.com/mapfiles/place_api/icons/v2/shopping_pinlet", "name": "Mannix Plants & Ceramics", "opening_hours": {"open_now": true}, "photos": [{"height": 4032, "html_attributions": ["<a href=\"https://maps.google.com/maps/contrib/104524902701760852051\">Oliver Harling</a>"], "photo_reference": "AcYSjRgyEOi-1jH440VJ1jQ_5tMNrWaaDVURagSAj_NWDtHeX1CmzPddt6PZRlEKMIFbAaIzqaIPhKFGM6kIcol-d35JktKVY-V31F5H2qubVpNxivTdomNNRBlXeUQurGHkn9d5EWIhTZ7W5ftHFuhrOUaV6h_X507liu1Q41S4VottOL6A", "width": 3024}], "place_id": "ChIJDVYEMIxD1moRfVZLQSMRV8g", "plus_code": {"compound_code": "5X6P+HR South Yarra VIC, Australia", "global_code": "4RJ65X6P+HR"}, "rating": 4.9, "reference": "ChIJDVYEMIxD1moRfVZLQSMRV8g", "scope": "GOOGLE", "types": ["home_goods_store", "art_gallery", "cafe", "store", "food", "point_of_interest", "establishment"], "user_ratings_total": 9, "vicinity": "43 Ralston Street, South Yarra", "primary_type": "Cafe/bakery", "types str": "home_goods_store, art_gallery, cafe, store, food, point_of_interest, establishment", "popup": "<h4><b>Mannix Plants & Ceramics</b></h4>43 Ralston Street, South Yarra<br><i>home goods store, art gallery, cafe, store, food, point of interest, establishment</i><br><br><font color=\"gray\"><b>4.9\u2605</b> (9)</font>", "long": 144.9870342, "lat": -37.8385904}, {"business_status": "OPERATIONAL", "geometry": {"location": {"lat": -37.8385904, "lng": 144.9870342}, "viewport": {"northeast": {"lat": -37.8372488697085, "lng": 144.9884390302915},