[{"business_status": "OPERATIONAL", "geometry": {"location": {"lat": -37.84622340000001, "lng": 144.9882166}, "viewport": {"northeast": {"lat": -37.84481436970851, "lng": 144.9895780302915}, "southwest": {"lat": -37.8475123302915, "lng": 144.9868800697085}}}, "icon": "https://maps.gstatic.com/mapfiles/place_api/icons/v1/png_71/bar-71.png", "icon_background_color": "#FF9E67", "icon_mask_base_uri": "https://maps.gstatic.com/mapfiles/place_api/icons/v2/bar_pinlet", "name": "The Alps Wine Shop & Bar", "opening_hours": {"open_now": false}, "photos": [{"height": 2640, "html_attributions": ["<a href=\"https://maps.google.com/maps/contrib/108514632511371553834\">The Alps Wine Shop &amp; Bar</a>"], "photo_reference": "AcYSjRht7ek85sky6C0H5SzGV9Wc5HGW7Nx2BM1XMY5bx0Ia0k0Rjj_DeSHhw6z_rLzXOyyNHjHE2ScSyKlfwD_MNCDohk5A2j4Z5PIGxnChEQlPy8OMp1qoMj0KWLwnpS0I34JfeXKhtMJIK_Awl1uXmGfVtXR3ZHIWOZX0aSn5urdwfu_Z", "width": 3960}], "place_id": "ChIJOUqhhSNo1moRE7PZRS7FrW4", "plus_code": {"compound_code": "5X3Q+G7 Prahran VIC, Australia", "global_code": "4RJ65X3Q+G7"}, "price_level": 2, "rating": 4.6, "reference": "ChIJOUqhhSNo1moRE7PZRS7FrW4", "scope": "GOOGLE", "types": ["liquor_store", "bar", "store", "food", "point_of_interest", "establishment"], "user_ratings_total": 168, "vicinity": "64 Commercial Road, Prahran", "primary_type": "Bar/Nightlife", "types str": "liquor_store, bar, store, food, point_of_interest, establishment", "popup": "<h4><b>The Alps Wine Shop & Bar</b></h4>64 Commercial Road, Prahran<br><i>liquor store, bar, store, food, point of interest, establishment</i><br><br><font color=\"gray\"><b>4.6\u2605</b> (168)</font><font color=\"green\"><span style=\"float:right\">$$</font></span>", "long": 144.9882166, "lat": -37.84622340000001}, {"business_status": "OPERATIONAL", "geometry": {"location": {"lat": -37.811781, "lng": 144.967444}, "viewport": {"northeast": {"lat": -37.81047091970849, "lng": 144.9688609302915}, "southwest": {"lat": -37.81316888029149, "lng": 144.9661629697085}}}, "icon": "https://maps.gstatic.com/mapfiles/place_api/icons/v1/png_71/bar-71.png", "icon_background_color": "#FF9E67", "icon_mask_base_uri": "https://maps.gstatic.com/mapfiles/place_api/icons/v2/bar_pinlet", "name": "Exford Hotel", "opening_hours": {"open_now": false}, "photos": [{"height": 2988, "html_attributions": ["<a href=\"https://maps.google.com/maps/contrib/102842503927685014758\">Exford Hotel</a>"], "photo_reference": "AcYSjRje0_CVQjyOK1yOw5OwG-1VpgwGSoMG-bZpQlUwTbiv01AHsc_pqEtJWlNn5Cv8HwsFRy4o0IXhiFc5LFLa5BxY5oIXqYbWqV0LYLLHXpniQ1q6Z_soYkEa5CniF56vCUQTuiLXFjFe5MuapxDlLfuhVPqXtga_CiQ3RGYCHw483CdT", "width": 5312}], "place_id": "ChIJy8vXd8lC1moRXHCwhRF1HXM", "plus_code": {"compound_code": "5XQ8+7X Melbourne VIC, Australia", "global_code": "4RJ65XQ8+7X"}, "price_level": 1, "rating": 4.1, "reference": "ChIJy8vXd8lC1moRXHCwhRF1HXM", "scope": "GOOGLE", "types": ["liquor_store", "lodging", "bar", "store", "point_of_interest", "establishment"], "user_ratings_total": 1060, "vicinity": "199 Russell Street, Melbourne", "primary_type": "Bar/Nightlife", "types str": "liquor_store, lodging, bar, store, point_of_interest, establishment", "popup": "<h4><b>Exford Hotel</b></h4>199 Russell Street, Melbourne<br><i>liquor store, lodging, bar, store, point of interest, establishment</i><br><br><font color=\"gray\"><b>4.1\u2605</b> (1060)</font><font color=\"green\"><span style=\"float:right\">$</font></span>", "long": 144.967444, "lat": -37.811781}, {"business_status": "OPERATIONAL", "geometry": {"location": {"lat": -37.8109802, "lng": 144.9725379}, "viewport": {"northeast": {"lat": -37.80960011970851, "lng": 144.9740178302915}, "southwest": {"lat": -37.81229808029151, "lng": 144.9713198697085}}}, "icon": "https://maps.gstatic.com/mapfiles/place_api/icons/v1/png_71/shopping-71.png", "icon_background_color": "#4B96F3", "icon_mask_base_uri": "https://maps.gstatic.com/mapfiles/place_api/icons/v2/shopping_pinlet", "name": "City Wine Shop", "opening_hours": {"open_now": false}, "photos": [{"height": 1500, "html_attributions": ["<a href=\"https://maps.google.com/maps/contrib/112057588375155016265\">City Wine Shop</a>"], "photo_reference": "AcYSjRj8yVl1d0GDJXWFqhmMS_iVTDuGD9uKsqucHORBxgAadkkWpc3Q-K5tBVxTWQz_0bdGCrUrEyFnPmb0cvi63g3FbuEGLu9FmdSOEe2hfhmDMxdwLDpkPeAN6A3ZxOeJ-08598WNQxz2BWGSIeNw54KPau6znXTsH6ekYIfXYhq9VCZx", "width": 1100}], "place_id": "ChIJnfRB_sVC1moRcfEI8EUEKsY", "plus_code": {"compound_code": "5XQF+J2 Melbourne VIC, Australia", "global_code": "4RJ65XQF+J2"}, "price_level": 2, "rating": 4.4, "reference": "ChIJnfRB_sVC1moRcfEI8EUEKsY", "scope": "GOOGLE", "types": ["liquor_store", "bar", "store", "food", "point_of_interest", "establishment"], "user_ratings_total": 472, "vicinity": "159 Spring Street, Melbourne", "primary_type": "Bar/Nightlife", "types str": "liquor_store, bar, store, food, point_of_interest, establishment", "popup": "<h4><b>City Wine Shop</b></h4>159 Spring Street, Melbourne<br><i>liquor store, bar, store, food, point of interest, establishment</i><br><br><font color=\"gray\"><b>4.4\u2605</b> (472)</font><font color=\"green\"><span style=\"float:right\">$$</font></span>", "long": 144.9725379, "lat": -37.8109802}, {"business_status": "OPERATIONAL", "geometry": {"location": {"lat": -37.811781, "lng": 144.967444}, "viewport": {"northeast": {"lat": -37.81047091970849, "lng": 144.9688609302915}, "southwest": {"lat": -37.81316888029149, "lng": 144.9661629697085}}}, "icon": "https://maps.gstatic.com/mapfiles/place_api/icons/v1/png_71/bar-71.png", "icon_background_color": "#FF9E67", "icon_mask_base_uri": "https://maps.gstatic.com/mapfiles/place_api/icons/v2/bar_pinlet", "name": "Exford Hotel", "opening_hours": {"open_now": false}, "photos": [{"height": 2988, "html_attributions": ["<a href=\"https://maps.google.com/maps/contrib/102842503927685014758\">Exford Hotel</a>"], "photo_reference": "AcYSjRjLa62j6wJCCw7JoEQtI4yfh1OkHzAs1Bi2aC0B6wyUEKcEswI552Y9UobQzmy2KHj22AW4Ed-tcG_tAEOEUV2SCz6lNrNFmMoIVb8Ak4gjJsK6WBiDUM0ttXLWV8W5Zvpsk9CERsZBziACsXDWWwmY6Ie8HO4DqWg9yMyDVAYimiAP", "width": 5312}], "place_id": "ChIJy8vXd8lC1moRXHCwhRF1HXM", "plus_code": {"compound_code": "5XQ8+7X Melbourne VIC, Australia", "global_code": "4RJ65XQ8+7X"}, "price_level": 1, "rating": 4.1, "reference": "ChIJy8vXd8lC1moRXHCwhRF1HXM", "scope": "GOOGLE", "types": ["liquor_store", "bar", "lodging", "store", "point_of_interest", "establishment"], "user_ratings_total": 1060, "vicinity": "199 Russell Street, Melbourne", "primary_type": "Bar/Nightlife", "types str": "liquor_store, bar, lodging, store, point_of_interest, establishment", "popup": "<h4><b>Exford Hotel</b></h4>199 Russell Street, Melbourne<br><i>liquor store, bar, lodging, store, point of interest, establishment</i><br><br><font color=\"gray\"><b>4.1\u2605</b> (1060)</font><font color=\"green\"><span style=\"float:right\">$</font></span>", "long": 144.967444, "lat": -37.811781}, {"business_status": "OPERATIONAL", "geometry": {"location": {"lat": -37.8113359, "lng": 144.9710055}, "viewport": {"northeast": {"lat": -37.8099452197085, "lng": 144.9723837302915}, "southwest": {"lat": -37.8126431802915, "lng": 144.9696857697085}}}, "icon": "https://maps.gstatic.com/mapfiles/place_api/icons/v1/png_71/restaurant-71.png", "icon_background_color": "#FF9E67", "icon_mask_base_uri": "https://maps.gstatic.com/mapfiles/place_api/icons/v2/restaurant_pinlet", "name": "Becco", "opening_hours": {"open_now": false}, "photos": [{"height": 2592, "html_attributions": ["<a href=\"https://maps.google.com/maps/contrib/101567874606785992295\">Becco</a>"], "photo_reference": "AcYSjRiUjg2F0gYlxexw5b_CUGGFq_mM6hirDl44LNus-M9OeVX5dh8yD7JvMCknsFzCQ_mATkY0ca5h8Ykws-j8_CtMHSOAS0dGu2yl5qRmyBpeBsWivVjfqovWStQqJd5X8liaInK_9MrVA7iYGDP24GYS7Aw1L-rnIRf-Mikz0ez7kpSs", "width": 3872}], "place_id": "ChIJMU9FuchC1moRivSGwN7dhVE", "plus_code": {"compound_code": "5XQC+FC Melbourne VIC, Australia", "global_code": "4RJ65XQC+FC"}, "price_level": 2, "rating": 4.4, "reference": "ChIJMU9FuchC1moRivSGwN7dhVE", "scope": "GOOGLE", "types": ["liquor_store", "meal_takeaway", "grocery_or_supermarket", "bar", "store", "restaurant", "point_of_interest", "food", "establishment"], "user_ratings_total": 284, "vicinity": "25 Crossley Street, Melbourne", "primary_type": "Bar/Nightlife", "types str": "liquor_store, meal_takeaway, grocery_or_supermarket, bar, store, restaurant, point_of_interest, food, establishment", "popup": "<h4><b>Becco</b></h4>25 Crossley Street, Melbourne<br><i>liquor store, meal takeaway, grocery or supermarket, bar, store, restaurant, point of interest, food, establishment</i><br><br><font color=\"gray\"><b>4.4\u2605</b> (284)</font><font color=\"green\"><span style=\"float:right\">$$</font></span>", "long": 144.9710055, "lat": -37.8113359}, {"business_status": "OPERATIONAL", "geometry": {"location": {"lat": -37.8109802, "lng": 144.9725379}, "viewport": {"northeast": {"lat": -37.80960011970851, "lng": 144.9740178302915}, "southwest": {"lat": -37.81229808029151, "lng": 144.9713198697085}}}, "icon": "https://maps.gstatic.com/mapfiles/place_api/icons/v1/png_71/shopping-71.png", "icon_background_color": "#4B96F3", "icon_mask_base_uri": "https://maps.gstatic.com/mapfiles/place_api/icons/v2/shopping_pinlet", "name": "City Wine Shop", "opening_hours": {"open_now": false}, "photos": [{"height": 1500, "html_attributions": ["<a href=\"https://maps.google.com/maps/contrib/112057588375155016265\">City Wine Shop</a>"], "photo_reference": "AcYSjRifdBakSGrshncojVuSndw1ybAwDicXRbcJimwC1PNfsv6lBrmDFlxLGsFWC-2ZXi5SDE0dQnNm4G6SXaDspjXZPDf3oAi0ivCXAWBm4x2BVMA8EAxyfSJdnX6uTQ_24G5HucL4m12cPOYrv5CMvqScUbG_F_yHIYaL660xGw4R0ox4", "width": 1100}], "place_id": "ChIJnfRB_sVC1moRcfEI8EUEKsY", "plus_code": {"compound_code": "5XQF+J2 Melbourne VIC, Australia", "global_code": "4RJ65XQF+J2"}, "price_level": 2, "rating": 4.4, "reference": "ChIJnfRB_sVC1moRcfEI8EUEKsY", "scope": "GOOGLE", "types": ["liquor_store", "bar", "store", "food", "point_of_interest", "establishment"], "user_ratings_total": 472, "vicinity": "159 Spring Street, Melbourne", "primary_type": "Bar/Nightlife", "types str": "liquor_store, bar, store, food, point_of_interest, establishment", "popup": "<h4><b>City Wine Shop</b></h4>159 Spring Street, Melbourne<br><i>liquor store, bar, store, food, point of interest, establishment</i><br><br><font color=\"gray\"><b>4.4\u2605</b> (472)</font><font color=\"green\"><span style=\"float:right\">$$</font></span>", "long": 144.9725379, "lat": -37.8109802}, {"business_status": "OPERATIONAL", "geometry": {"location": {"lat": -37.8113359, "lng": 144.9710055}, "viewport": {"northeast": {"lat": -37.8099452197085, "lng": 144.9723837302915}, "southwest": {"lat": -37.8126431802915, "lng": 144.9696857697085}}}, "icon": "https://maps.gstatic.com/mapfiles/place_api/icons/v1/png_71/restaurant-71.png", "icon_background_color": "#FF9E67", "icon_mask_base_uri": "https://maps.gstatic.com/mapfiles/place_api/icons/v2/restaurant_pinlet", "name": "Becco", "opening_hours": {"open_now": false}, "photos": [{"height": 2592, "html_attributions": ["<a href=\"https://maps.google.com/maps/contrib/101567874606785992295\">Becco</a>"], "photo_reference": "AcYSjRi1-yTFeypyAuuh_BOfGhQ6NszbOO4q4yA0R0ogJEaUqhxb1aXATKTabAQTm8FSYrfvCRK2lYJeFW_0gD3tey0CUBj2zI1E2nKWDDqYgk-vEbpHF_rq87qTwhcrM8wVYg6KRmn6XdM8kTB416TgFcGpTBO-k1AM8yc19GKTB8BCsQ6Q", "width": 3872}], "place_id": "ChIJMU9FuchC1moRivSGwN7dhVE", "plus_code": {"compound_code": "5XQC+FC Melbourne VIC, Australia", "global_code": "4RJ65XQC+FC"}, "price_level": 2, "rating": 4.4, "reference": "ChIJMU9FuchC1moRivSGwN7dhVE", "scope": "GOOGLE", "types": ["meal_takeaway", "liquor_store", "grocery_or_supermarket", "bar", "restaurant", "point_of_interest", "food", "store", "establishment"], "user_ratings_total": 284, "vicinity": "25 Crossley Street, Melbourne", "primary_type": "Bar/Nightlife", "types str": "meal_takeaway, liquor_store, grocery_or_supermarket, bar, restaurant, point_of_interest, food, store, establishment", "popup": "<h4><b>Becco</b></h4>25 Crossley Street, Melbourne<br><i>meal takeaway, liquor store, grocery or supermarket, bar, restaurant, point of interest, food, store, establishment</i><br><br><font color=\"gray\"><b>4.4\u2605</b> (284)</font><font color=\"green\"><span style=\"float:right\">$$</font></span>", "long": 144.9710055, "lat": -37.8113359}, {"business_status": "OPERATIONAL", "geometry": {"location": {"lat": -37.811781, "lng": 144.967444}, "viewport": {"northeast": {"lat": -37.81047091970849, "lng": 144.9688609302915}, "southwest": {"lat": -37.81316888029149, "lng": 144.9661629697085}}}, "icon": "https://maps.gstatic.com/mapfiles/place_api/icons/v1/png_71/bar-71.png", "icon_background_color": "#FF9E67", "icon_mask_base_uri": "https://maps.gstatic.com/mapfiles/place_api/icons/v2/bar_pinlet", "name": "Exford Hotel", "opening_hours": {"open_now": false}, "photos": [{"height": 2988, "html_attributions": ["<a href=\"https://maps.google.com/maps/contrib/102842503927685014758\">Exford Hotel</a>"], "photo_reference": "AcYSjRjMI0-igFRS3-ziChEB1uG5TlIWlN7g0L7BKo6m-QBxSj4lgIKkM4r6GWARb4LTI8BHy5peWGg2lJvPfB16FbKozdq89UyhORxIVjsMdSa_3qqff-ifIJGCnwQmZ_khVMuRl7xLezXd68C5Vmp6nW1bU1-1qdmO_tFQanf42qdpZMeA", "width": 5312}], "place_id": "ChIJy8vXd8lC1moRXHCwhRF1HXM", "plus_code": {"compound_code": "5XQ8+7X Melbourne VIC, Australia", "global_code": "4RJ65XQ8+7X"}, "price_level": 1, "rating": 4.1, "reference": "ChIJy8vXd8lC1moRXHCwhRF1HXM", "scope": "GOOGLE", "types": ["liquor_store", "bar", "lodging", "store", "point_of_interest", "establishment"], "user_ratings_total": 1060, "vicinity": "199 Russell Street, Melbourne", "primary_type": "Bar/Nightlife", "types str": "liquor_store, bar, lodging, store, point_of_interest, establishment", "popup": "<h4><b>Exford Hotel</b></h4>199 Russell Street, Melbourne<br><i>liquor store, bar, lodging, store, point of interest, establishment</i><br><br><font color=\"gray\"><b>4.1\u2605</b> (1060)</font><font color=\"green\"><span style=\"float:right\">$</font></span>", "long": 144.967444, "lat": -37.811781}, {"business_status": "OPERATIONAL", "geometry": {"location": {"lat": -37.8109802, "lng": 144.9725379}, "viewport": {"northeast": {"lat": -37.80960011970851, "lng": 144.9740178302915}, "southwest": {"lat": -37.81229808029151, "lng": 144.9713198697085}}}, "icon": "https://maps.gstatic.com/mapfiles/place_api/icons/v1/png_71/shopping-71.png", "icon_background_color": "#4B96F3", "icon_mask_base_uri": "https://maps.gstatic.com/mapfiles/place_api/icons/v2/shopping_pinlet", "name": "City Wine Shop", "opening_hours": {"open_now": false}, "photos": [{"height": 1500, "html_attributions": ["<a href=\"https://maps.google.com/maps/contrib/112057588375155016265\">City Wine Shop</a>"], "photo_reference": "AcYSjRj5kLkGvmm73sjCMouyvrz-5jC-1MMx98z3mm1Gi_VzfDStZjq6HqdqQITjVivacGKRNCO4qa1sdLHA2JJmHqvvxCZphZlG0LZujMjSnkkvDSiwluK2A4gKmU0kaVF7uKrTA8ZZdfc2nhrOC8OKNQNK6J0JwRCSq54CTdDkZlIsZbEM", "width": 1100}], "place_id": "ChIJnfRB_sVC1moRcfEI8EUEKsY", "plus_code": {"compound_code": "5XQF+J2 Melbourne VIC, Australia", "global_code": "4RJ65XQF+J2"}, "price_level": 2, "rating": 4.4, "reference": "ChIJnfRB_sVC1moRcfEI8EUEKsY", "scope": "GOOGLE", "types": ["liquor_store", "bar", "food", "point_of_interest", "store", "establishment"], "user_ratings_total": 472, "vicinity": "159 Spring Street, Melbourne", "primary_type": "Bar/Nightlife", "types str": "liquor_store, bar, food, point_of_interest, store, establishment", "popup": "<h4><b>City Wine Shop</b></h4>159 Spring Street, Melbourne<br><i>liquor store, bar, food, point of interest, store, establishment</i><br><br><font color=\"gray\"><b>4.4\u2605</b> (472)</font><font color=\"green\"><span style=\"float:right\">$$</font></span>", "long": 144.9725379, "lat": -37.8109802}, {"business_status": "OPERATIONAL", "geometry": {"location": {"lat": -37.811781, "lng": 144.967444}, "viewport": {"northeast": {"lat": -37.81047091970849, "lng": 144.9688609302915}, "southwest": {"lat": -37.81316888029149, "lng": 144.9661629697085}}}, "icon": "https://maps.gstatic.com/mapfiles/place_api/icons/v1/png_71/bar-71.png", "icon_background_color": "#FF9E67", "icon_mask_base_uri": "https://maps.gstatic.com/mapfiles/place_api/icons/v2/bar_pinlet", "name": "Exford Hotel", "opening_hours": {"open_now": false}, "photos": [{"height": 2988, "html_attributions": ["<a href=\"https://maps.google.com/maps/contrib/102842503927685014758\">Exford Hotel</a>"], "photo_reference": "AcYSjRic-kB5RFv3ool1y3uWMO5zF8Ostr6iJQHD1DI2wWJCtRYSJ-HSokjPK4Dlf3OciWTLu-0D03U3bsth39RLfHqvYGvfl6KscpSNH7U_rSZzRrwvjJDXYFmyD3T8yNHg28SZVlPBs02uVobBOhm4fM3MEDc9o52HS2X1M-mqPXuCzeI1", "width": 5312}], "place_id": "ChIJy8vXd8lC1moRXHCwhRF1HXM", "plus_code": {"compound_code": "5XQ8+7X Melbourne VIC, Australia", "global_code": "4RJ65XQ8+7X"}, "price_level": 1, "rating": 4.1, "reference": "ChIJy8vXd8lC1moRXHCwhRF1HXM", "scope": "GOOGLE", "types": ["liquor_store", "lodging", "bar", "store", "point_of_interest", "establishment"], "user_ratings_total": 1060, "vicinity": "199 Russell Street, Melbourne", "primary_type": "Bar/Nightlife", "types str": "liquor_store, lodging, bar, store, point_of_interest, establishment", "popup": "<h4><b>Exford Hotel</b></h4>199 Russell Street, Melbourne<br><i>liquor store, lodging, bar, store, point of interest, establishment</i><br><br><font color=\"gray\"><b>4.1\u2605</b> (1060)</font><font color=\"green\"><span style=\"float:right\">$</font></span>", "long": 144.967444, "lat": -37.811781}, {"business_status": "OPERATIONAL", "geometry": {"location": {"lat": -37.81375969999999, "lng": 144.9682772}, "viewport": {"northeast": {"lat": -37.8123897197085, "lng": 144.9697089302915}, "southwest": {"lat": -37.8150876802915, "lng": 144.9670109697085}}}, "icon": "https://maps.gstatic.com/mapfiles/place_api/icons/v1/png_71/bar-71.png", "icon_background_color": "#FF9E67", "icon_mask_base_uri": "https://maps.gstatic.com/mapfiles/place_api/icons/v2/bar_pinlet", "name": "The Crafty Squire", "opening_hours": {"open_now": false}, "photos": [{"height": 1335, "html_attributions": ["<a href=\"https://maps.google.com/maps/contrib/118109579633347565666\">The Crafty Squire</a>"], "photo_reference": "AcYSjRjolSM9xaNZLlz-J7gSLu-HaDTtMJo6oAEd0CssL2pQ1c0AbD4mH6QpWRMBi8DLnVbgpgwjRsg49zqLjuOwiva7XDn_iOeyW5JZZmpMKPee2_jxGGHhHV-0LtkD-rJK_MD_b0aZx2xrTXTPtTtSkaiKVetN-Qb7vWqfWL42tKO62Mf6", "width": 2000}], "place_id": "ChIJazndwslC1moRIfHbO-8g0ug", "plus_code": {"compound_code": "5XP9+F8 Melbourne VIC, Australia", "global_code": "4RJ65XP9+F8"}, "price_level": 2, "rating": 4.2, "reference": "ChIJazndwslC1moRIfHbO-8g0ug", "scope": "GOOGLE", "types": ["liquor_store", "bar", "store", "restaurant", "food", "point_of_interest", "establishment"], "user_ratings_total": 2965, "vicinity": "127 Russell Street, Melbourne", "primary_type": "Bar/Nightlife", "types str": "liquor_store, bar, store, restaurant, food, point_of_interest, establishment", "popup": "<h4><b>The Crafty Squire</b></h4>127 Russell Street, Melbourne<br><i>liquor store, bar, store, restaurant, food, point of interest, establishment</i><br><br><font color=\"gray\"><b>4.2\u2605</b> (2965)</font><font color=\"green\"><span style=\"float:right\">$$</font></span>", "long": 144.9682772, "lat": -37.81375969999999}, {"business_status": "OPERATIONAL", "geometry": {"location": {"lat": -37.8078236, "lng": 144.9581717}, "viewport": {"northeast": {"lat": -37.8064681697085, "lng": 144.9594629802915}, "southwest": {"lat": -37.8091661302915, "lng": 144.9567650197085}}}, "icon": "https://maps.gstatic.com/mapfiles/place_api/icons/v1/png_71/shopping-71.png", "icon_background_color": "#4B96F3", "icon_mask_base_uri": "https://maps.gstatic.com/mapfiles/place_api/icons/v2/shopping_pinlet", "name": "ReWine", "opening_hours": {"open_now": false}, "photos": [{"height": 769, "html_attributions": ["<a href=\"https://maps.google.com/maps/contrib/103331043123707053882\">ReWine</a>"], "photo_reference": "AcYSjRg6qzJ19PfipB1vTnRkuVdihq4IvlbcPDeqvzsEbkAafqhZn-buFKKHJ4vlZ3ntetfknrXtW7CkcoHS4Ud1DvbCpLRt0wDWJUKyjTDfhgP3s76c4oLOEjGuERXhEHFl2YvkMFc33RDJRx6TFHGfKktFrTNoEUqaiNjs0QWYwzdei3cI", "width": 768}], "place_id": "ChIJ3VI7czRd1moR8Rcitbh8uYE", "plus_code": {"compound_code": "5XR5+V7 Melbourne VIC, Australia", "global_code": "4RJ65XR5+V7"}, "rating": 4.7, "reference": "ChIJ3VI7czRd1moR8Rcitbh8uYE", "scope": "GOOGLE", "types": ["liquor_store", "bar", "food", "store", "point_of_interest", "establishment"], "user_ratings_total": 26, "vicinity": "460 Queen Street, Melbourne", "primary_type": "Bar/Nightlife", "types str": "liquor_store, bar, food, store, point_of_interest, establishment", "popup": "<h4><b>ReWine</b></h4>460 Queen Street, Melbourne<br><i>liquor store, bar, food, store, point of interest, establishment</i><br><br><font color=\"gray\"><b>4.7\u2605</b> (26)</font>", "long": 144.9581717, "lat": -37.8078236}, {"business_status": "OPERATIONAL", "geometry": {"location": {"lat": -37.817778, "lng": 144.965556}, "viewport": {"northeast": {"lat": -37.8165135697085, "lng": 144.9668817802915}, "southwest": {"lat": -37.8192115302915, "lng": 144.9641838197085}}}, "icon": "https://maps.gstatic.com/mapfiles/place_api/icons/v1/png_71/shopping-71.png", "icon_background_color": "#4B96F3", "icon_mask_base_uri": "https://maps.gstatic.com/mapfiles/place_api/icons/v2/shoppingcart_pinlet", "name": "Woolworths Metro Flinders Street", "opening_hours": {"open_now": true}, "photos": [{"height": 3024, "html_attributions": ["<a href=\"https://maps.google.com/maps/contrib/114421311081063804430\">Max Gross</a>"], "photo_reference": "AcYSjRhN2XSyh3HL3jgxZi1_0PnJrlVn28EINMAeyvP1JfZWmk8-Xcmigp7byvmyfOFeMmOnMtV71Q6IUrZ0bfIVf87Oq0UsxN1_JiCG8TGxMSorzO1GP3h-p5QyT4YI9MHv63SP7j7VTj29DH2M1hi8ZG3KYN-pADo2NFekq2249vZyRF2y", "width": 4032}], "place_id": "ChIJlerAC7RC1moRDD3ojkhcMhk", "plus_code": {"compound_code": "5XJ8+V6 Melbourne VIC, Australia", "global_code": "4RJ65XJ8+V6"}, "price_level": 1, "rating": 3.9, "reference": "ChIJlerAC7RC1moRDD3ojkhcMhk", "scope": "GOOGLE", "types": ["supermarket", "cafe", "convenience_store", "grocery_or_supermarket", "store", "food", "point_of_interest", "establishment"], "user_ratings_total": 546, "vicinity": "262 Flinders Street, Melbourne", "primary_type": "Cafe/bakery", "types str": "supermarket, cafe, convenience_store, grocery_or_supermarket, store, food, point_of_interest, establishment", "popup": "<h4><b>Woolworths Metro Flinders Street</b></h4>262 Flinders Street, Melbourne<br><i>supermarket, cafe, convenience store, grocery or supermarket, store, food, point of interest, establishment</i><br><br><font color=\"gray\"><b>3.9\u2605</b> (546)</font><font color=\"green\"><span style=\"float:right\">$</font></span>", "long": 144.965556, "lat": -37.817778}, {"business_status": "OPERATIONAL", "geometry": {"location": {"lat": -37.8121399, "lng": 144.9708313}, "viewport": {"northeast": {"lat": -37.8108134197085, "lng": 144.9721025302915}, "southwest": {"lat": -37.81351138029149, "lng": 144.9694045697085}}}, "icon": "https://maps.gstatic.com/mapfiles/place_api/icons/v1/png_71/shopping-71.png", "icon_background_color": "#4B96F3", "icon_mask_base_uri": "https://maps.gstatic.com/mapfiles/place_api/icons/v2/convenience_pinlet", "name": "7-Eleven 152 Exhibition St", "opening_hours": {"open_now": true}, "photos": [{"height": 2160, "html_attributions": ["<a href=\"https://maps.google.com/maps/contrib/115161916543124945682\">Adam G</a>"], "photo_reference": "AcYSjRg3-oS7AN6RSTTXGmVhMuT9RvWJUA36NVfpsehSBqEq5DjEpnY__dVmXkUdZdDbLXbP-dIeBEt_m6gLKI4Tzsh3DdueRHb7RN-h2wwGBjWUgylpNGbxP0YlS2TGB736U-uQagVxzjIMqAMqIPtCqGU7M59iPoEXHz-GAwWEu5jeqxqU", "width": 3840}], "place_id": "ChIJQ_Yo7chC1moRBsbGSlo6DVc", "plus_code": {"compound_code": "5XQC+48 Melbourne VIC, Australia", "global_code": "4RJ65XQC+48"}, "rating": 3.6, "reference": "ChIJQ_Yo7chC1moRBsbGSlo6DVc", "scope": "GOOGLE", "types": ["convenience_store", "atm", "gas_station", "bakery", "cafe", "store", "restaurant", "food", "point_of_interest", "finance", "establishment"], "user_ratings_total": 7, "vicinity": "152 Exhibition Street, Melbourne", "primary_type": "Cafe/bakery", "types str": "convenience_store, atm, gas_station, bakery, cafe, store, restaurant, food, point_of_interest, finance, establishment", "popup": "<h4><b>7-Eleven 152 Exhibition St</b></h4>152 Exhibition Street, Melbourne<br><i>convenience store, atm, gas station, bakery, cafe, store, restaurant, food, point of interest, finance, establishment</i><br><br><font color=\"gray\"><b>3.6\u2605</b> (7)</font>", "long": 144.9708313, "lat": -37.8121399}, {"business_status": "OPERATIONAL", "geometry": {"location": {"lat": -37.8138889, "lng": 144.9661111}, "viewport": {"northeast": {"lat": -37.81284356970851, "lng": 144.9673189802915}, "southwest": {"lat": -37.8155415302915, "lng": 144.9646210197085}}}, "icon": "https://maps.gstatic.com/mapfiles/place_api/icons/v1/png_71/shopping-71.png", "icon_background_color": "#4B96F3", "icon_mask_base_uri": "https://maps.gstatic.com/mapfiles/place_api/icons/v2/shoppingcart_pinlet", "name": "Woolworths Metro Swanston Street", "opening_hours": {"open_now": true}, "photos": [{"height": 2336, "html_attributions": ["<a href=\"https://maps.google.com/maps/contrib/111228266643897541178\">Colin Cowan</a>"], "photo_reference": "AcYSjRjYF7CQnDSieAjaNZo2v2lpXzSSlIqIUtoEkiZU3lzqIOVihCAp4QVUI_CIrG2jy8p9OIo6A1iOBURfATHSFIBUo-4lb_1Z7vu0bi0J4BOyQM_PMjNDC52Ub5EIyCcfD2LilH49grLvdStmr8gwk3wjoo487vQewr2ZVeWA6i8K6BxE", "width": 3115}], "place_id": "ChIJd56K-bVC1moRaNc_gvrkM2Q", "plus_code": {"compound_code": "5XP8+CC Melbourne VIC, Australia", "global_code": "4RJ65XP8+CC"}, "price_level": 1, "rating": 3.9, "reference": "ChIJd56K-bVC1moRaNc_gvrkM2Q", "scope": "GOOGLE", "types": ["supermarket", "convenience_store", "grocery_or_supermarket", "cafe", "store", "food", "point_of_interest", "establishment"], "user_ratings_total": 583, "vicinity": "160 Swanston Street, Melbourne", "primary_type": "Cafe/bakery", "types str": "supermarket, convenience_store, grocery_or_supermarket, cafe, store, food, point_of_interest, establishment", "popup": "<h4><b>Woolworths Metro Swanston Street</b></h4>160 Swanston Street, Melbourne<br><i>supermarket, convenience store, grocery or supermarket, cafe, store, food, point of interest, establishment</i><br><br><font color=\"gray\"><b>3.9\u2605</b> (583)</font><font color=\"green\"><span style=\"float:right\">$</font></span>", "long": 144.9661111, "lat": -37.8138889}, {"business_status": "OPERATIONAL", "geometry": {"location": {"lat": -37.8166945, "lng": 144.9645333}, "viewport": {"northeast": {"lat": -37.8155661197085, "lng": 144.9661108802915}, "southwest": {"lat": -37.81826408029149, "lng": 144.9634129197085}}}, "icon": "https://maps.gstatic.com/mapfiles/place_api/icons/v1/png_71/shopping-71.png", "icon_background_color": "#4B96F3", "icon_mask_base_uri": "https://maps.gstatic.com/mapfiles/place_api/icons/v2/shoppingcart_pinlet", "name": "Woolworths Metro Elizabeth Street", "opening_hours": {"open_now": true}, "photos": [{"height": 2160, "html_attributions": ["<a href=\"https://maps.google.com/maps/contrib/111624786226789736656\">John Tai</a>"], "photo_reference": "AcYSjRgoiRR0f9rgfhqotWBwwRexIblbe5kwnCiusvNHorOu23b4OFBytQHPUDFKOpuHxJfVCf7bb4diBVc6_ws3juKwKqkM0nOsIMV6xelNtyWxfnIVsh2IOQJJBBXWuF1M_4mRl9jVF5sW1mVQJO2dqu1cmA85dGZ2V2WTJqYao30kSVui", "width": 3840}], "place_id": "ChIJIyKDZrRC1moRnWiB2BmQqHQ", "plus_code": {"compound_code": "5XM7+8R Melbourne VIC, Australia", "global_code": "4RJ65XM7+8R"}, "price_level": 1, "rating": 4, "reference": "ChIJIyKDZrRC1moRnWiB2BmQqHQ", "scope": "GOOGLE", "types": ["supermarket", "convenience_store", "grocery_or_supermarket", "cafe", "store", "food", "point_of_interest", "establishment"], "user_ratings_total": 362, "vicinity": "60 Elizabeth Street, Melbourne", "primary_type": "Cafe/bakery", "types str": "supermarket, convenience_store, grocery_or_supermarket, cafe, store, food, point_of_interest, establishment", "popup": "<h4><b>Woolworths Metro Elizabeth Street</b></h4>60 Elizabeth Street, Melbourne<br><i>supermarket, convenience store, grocery or supermarket, cafe, store, food, point of interest, establishment</i><br><br><font color=\"gray\"><b>4\u2605</b> (362)</font><font color=\"green\"><span style=\"float:right\">$</font></span>", "long": 144.9645333, "lat": -37.8166945}, {"business_status": "OPERATIONAL", "geometry": {"location": {"lat": -37.81736, "lng": 144.959564}, "viewport": {"northeast": {"lat": -37.81605696970851, "lng": 144.9608976802915}, "southwest": {"lat": -37.8187549302915, "lng": 144.9581997197085}}}, "icon": "https://maps.gstatic.com/mapfiles/place_api/icons/v1/png_71/shopping-71.png", "icon_background_color": "#4B96F3", "icon_mask_base_uri": "https://maps.gstatic.com/mapfiles/place_api/icons/v2/convenience_pinlet", "name": "7-Eleven Collins St", "opening_hours": {"open_now": true}, "photos": [{"height": 2044, "html_attributions": ["<a href=\"https://maps.google.com/maps/contrib/115161916543124945682\">Adam G</a>"], "photo_reference": "AcYSjRjEL95KQDlqU_FV1YIbZR_heUX6fBQLoFetZ3Ic-3_VUeX4i1fAKpzDOUFHMEZ3mhr65Y6vYbFC871ERDncPYrU-CwEKBwdO_O_gJUnQK038mSX7yesxGAdj2JHasLRzvQ3pbwwJL_jg1D-BOr5lN5A7hGeEfhaP5k0etUoNI6DfC5h", "width": 3635}], "place_id": "ChIJ7bYL60xd1moRfZWcMgOWt90", "plus_code": {"compound_code": "5XM5+3R Melbourne VIC, Australia", "global_code": "4RJ65XM5+3R"}, "rating": 2.6, "reference": "ChIJ7bYL60xd1moRfZWcMgOWt90", "scope": "GOOGLE", "types": ["convenience_store", "atm", "cafe", "bakery", "home_goods_store", "store", "finance", "restaurant", "point_of_interest", "food", "establishment"], "user_ratings_total": 10, "vicinity": "446 Collins Street, Melbourne", "primary_type": "Cafe/bakery", "types str": "convenience_store, atm, cafe, bakery, home_goods_store, store, finance, restaurant, point_of_interest, food, establishment", "popup": "<h4><b>7-Eleven Collins St</b></h4>446 Collins Street, Melbourne<br><i>convenience store, atm, cafe, bakery, home goods store, store, finance, restaurant, point of interest, food, establishment</i><br><br><font color=\"gray\"><b>2.6\u2605</b> (10)</font>", "long": 144.959564, "lat": -37.81736}, {"business_status": "OPERATIONAL", "geometry": {"location": {"lat": -37.8160079, "lng": 144.9561156}, "viewport": {"northeast": {"lat": -37.8148058697085, "lng": 144.9573837302915}, "southwest": {"lat": -37.8175038302915, "lng": 144.9546857697085}}}, "icon": "https://maps.gstatic.com/mapfiles/place_api/icons/v1/png_71/shopping-71.png", "icon_background_color": "#4B96F3", "icon_mask_base_uri": "https://maps.gstatic.com/mapfiles/place_api/icons/v2/shoppingcart_pinlet", "name": "Woolworths Metro Bourke Street", "photos": [{"height": 3024, "html_attributions": ["<a href=\"https://maps.google.com/maps/contrib/106369029714525443088\">Glen Piper</a>"], "photo_reference": "AcYSjRipI5h6SPPH0A9BGptJaW6gZXX_g8Rd-14Jo967yKPtOLynNyFrCVX44ALtv6ZzGKG1TFHlMEDxL6TK_gnfHsJDhCGWy2mFYAEH96LKZG9YBGtkoqjB3ET8_iyuPoNeO06vYwCqF_ViiOgglUus43lgxdVDN8lc_CbnvLMxjhw7Vg8", "width": 4032}], "place_id": "ChIJhz6IIUxd1moRA-haZZv5ErI", "plus_code": {"compound_code": "5XM4+HC Melbourne VIC, Australia", "global_code": "4RJ65XM4+HC"}, "price_level": 1, "rating": 4, "reference": "ChIJhz6IIUxd1moRA-haZZv5ErI", "scope": "GOOGLE", "types": ["supermarket", "convenience_store", "bakery", "grocery_or_supermarket", "cafe", "food", "point_of_interest", "store", "establishment"], "user_ratings_total": 447, "vicinity": "600 Bourke Street, Melbourne", "primary_type": "Cafe/bakery", "types str": "supermarket, convenience_store, bakery, grocery_or_supermarket, cafe, food, point_of_interest, store, establishment", "popup": "<h4><b>Woolworths Metro Bourke Street</b></h4>600 Bourke Street, Melbourne<br><i>supermarket, convenience store, bakery, grocery or supermarket, cafe, food, point of interest, store, establishment</i><br><br><font color=\"gray\"><b>4\u2605</b> (447)</font><font color=\"green\"><span style=\"float:right\">$</font></span>", "long": 144.9561156, "lat": -37.8160079}, {"business_status": "OPERATIONAL", "geometry": {"location": {"lat": -37.8160079, "lng": 144.9561156}, "viewport": {"northeast": {"lat": -37.8148058697085, "lng": 144.9573837302915}, "southwest": {"lat": -37.8175038302915, "lng": 144.9546857697085}}}, "icon": "https://maps.gstatic.com/mapfiles/place_api/icons/v1/png_71/shopping-71.png", "icon_background_color": "#4B96F3", "icon_mask_base_uri": "https://maps.gstatic.com/mapfiles/place_api/icons/v2/shoppingcart_pinlet", "name": "Woolworths Metro Bourke Street", "photos": [{"height": 3024, "html_attributions": ["<a href=\"https://maps.google.com/maps/contrib/106369029714525443088\">Glen Piper</a>"], "photo_reference": "AcYSjRgDLf0G4tl_wUq7OajTSQAaq2zg0N3mpZ5TDNEpGJQQuXGDUKCakHruRAmdiJIpctNl4Bu4M9y0wE9qqxjvaIuP5-8dOK3Hv7TphyyacDBmk8Dt5iIRjnbjK3TcM7rjcFYU5Tbu3ETYN0sXknv6Fa5C92GtOkj7U0qiEaOkEduANSY", "width": 4032}], "place_id": "ChIJhz6IIUxd1moRA-haZZv5ErI", "plus_code": {"compound_code": "5XM4+HC Melbourne VIC, Australia", "global_code": "4RJ65XM4+HC"}, "price_level": 1, "rating": 4, "reference": "ChIJhz6IIUxd1moRA-haZZv5ErI", "scope": "GOOGLE", "types": ["supermarket", "convenience_store", "cafe", "grocery_or_supermarket", "bakery", "food", "point_of_interest", "store", "establishment"], "user_ratings_total": 447, "vicinity": "600 Bourke Street, Melbourne", "primary_type": "Cafe/bakery", "types str": "supermarket, convenience_store, cafe, grocery_or_supermarket, bakery, food, point_of_interest, store, establishment", "popup": "<h4><b>Woolworths Metro Bourke Street</b></h4>600 Bourke Street, Melbourne<br><i>supermarket, convenience store, cafe, grocery or supermarket, bakery, food, point of interest, store, establishment</i><br><br><font color=\"gray\"><b>4\u2605</b> (447)</font><font color=\"green\"><span style=\"float:right\">$</font></span>", "long": 144.9561156, "lat": -37.8160079}, {"business_status": "OPERATIONAL", "geometry": {"location": {"lat": -37.81736, "lng": 144.959564}, "viewport": {"northeast": {"lat": -37.81605696970851, "lng": 144.9608976802915}, "southwest": {"lat": -37.8187549302915, "lng": 144.9581997197085}}}, "icon": "https://maps.gstatic.com/mapfiles/place_api/icons/v1/png_71/shopping-71.png", "icon_background_color": "#4B96F3", "icon_mask_base_uri": "https://maps.gstatic.com/mapfiles/place_api/icons/v2/convenience_pinlet", "name": "7-Eleven Collins St", "opening_hours": {"open_now": true}, "photos": [{"height": 2044, "html_attributions": ["<a href=\"https://maps.google.com/maps/contrib/115161916543124945682\">Adam G</a>"], "photo_reference": "AcYSjRhjVAFRoPGN8zQsfEGlf15QdUugZgy469hmV1lFht61n5B8aWMv1ERFutG3u5XQMVhlek6915lvlVKBwagYN9LOhZ9bX7SdqSrOuaGYcNYqd6TM5nQkrXGrqLUvSivlD1kHhMrIB7syb6bCFD2glris44Rl_0a_GsCeIOqFVa33x5Iz", "width": 3635}], "place_id": "ChIJ7bYL60xd1moRfZWcMgOWt90", "plus_code": {"compound_code": "5XM5+3R Melbourne VIC, Australia", "global_code": "4RJ65XM5+3R"}, "rating": 2.6, "reference": "ChIJ7bYL60xd1moRfZWcMgOWt90", "scope": "GOOGLE", "types": ["convenience_store", "atm", "cafe", "bakery", "finance", "home_goods_store", "restaurant", "food", "point_of_interest", "store", "establishment"], "user_ratings_total": 10, "vicinity": "446 Collins Street, Melbourne", "primary_type": "Cafe/bakery", "types str": "convenience_store, atm, cafe, bakery, finance, home_goods_store, restaurant, food, point_of_interest, store, establishment", "popup": "<h4><b>7-Eleven Collins St</b></h4>446 Collins Street, Melbourne<br><i>convenience store, atm, cafe, bakery, finance, home goods store, restaurant, food, point of interest, store, establishment</i><br><br><font color=\"gray\"><b>2.6\u2605</b> (10)</font>", "long": 144.959564, "lat": -37.81736}, {"business_status": "OPERATIONAL", "geometry": {"location": {"lat": -37.8138889, "lng": 144.9661111}, "viewport": {"northeast": {"lat": -37.81284356970851, "lng": 144.9673189802915}, "southwest": {"lat": -37.8155415302915, "lng": 144.9646210197085}}}, "icon": "https://maps.gstatic.com/mapfiles/place_api/icons/v1/png_71/shopping-71.png", "icon_background_color": "#4B96F3", "icon_mask_base_uri": "https://maps.gstatic.com/mapfiles/place_api/icons/v2/shoppingcart_pinlet", "name": "Woolworths Metro Swanston Street", "opening_hours": {"open_now": true}, "photos": [{"height": 2336, "html_attributions": ["<a href=\"https://maps.google.com/maps/contrib/111228266643897541178\">Colin Cowan</a>"], "photo_reference": "AcYSjRhqiVCs2Fdfelm0PM11B1CDi6z-G19zAYx8JQNGSZu3pcZE4rx5u_Gb-MwQ3ZYbhxE0Ntpu8x2DsdVUtI-04-5enFHcc1q_2pqDCawsmgxLeqPjIV4abTiyX1Bs2RVj1JgpGU7jGBv8w600rGivSFb_UhyEaXNt5OCGZml2BRbIWY1I", "width": 3115}], "place_id": "ChIJd56K-bVC1moRaNc_gvrkM2Q", "plus_code": {"compound_code": "5XP8+CC Melbourne VIC, Australia", "global_code": "4RJ65XP8+CC"}, "price_level": 1, "rating": 3.9, "reference": "ChIJd56K-bVC1moRaNc_gvrkM2Q", "scope": "GOOGLE", "types": ["supermarket", "convenience_store", "grocery_or_supermarket", "cafe", "store", "food", "point_of_interest", "establishment"], "user_ratings_total": 583, "vicinity": "160 Swanston Street, Melbourne", "primary_type": "Cafe/bakery", "types str": "supermarket, convenience_store, grocery_or_supermarket, cafe, store, food, point_of_interest, establishment", "popup": "<h4><b>Woolworths Metro Swanston Street</b></h4>160 Swanston Street, Melbourne<br><i>supermarket, convenience store, grocery or supermarket, cafe, store, food, point of interest, establishment</i><br><br><font color=\"gray\"><b>3.9\u2605</b> (583)</font><font color=\"green\"><span style=\"float:right\">$</font></span>", "long": 144.9661111, "lat": -37.8138889}, {"business_status": "OPERATIONAL", "geometry": {"location": {"lat": -37.8121399, "lng": 144.9708313}, "viewport": {"northeast": {"lat": -37.8108134197085, "lng": 144.9721025302915}, "southwest": {"lat": -37.81351138029149, "lng": 144.9694045697085}}}, "icon": "https://maps.gstatic.com/mapfiles/place_api/icons/v1/png_71/shopping-71.png", "icon_background_color": "#4B96F3", "icon_mask_base_uri": "https://maps.gstatic.com/mapfiles/place_api/icons/v2/convenience_pinlet", "name": "7-Eleven 152 Exhibition St", "opening_hours": {"open_now": true}, "photos": [{"height": 2160, "html_attributions": ["<a href=\"https://maps.google.com/maps/contrib/115161916543124945682\">Adam G</a>"], "photo_reference": "AcYSjRhDHGsMGsotjJros-WN6cPU_E2_-eWo8PyYxUpQ5imLMm1nmz5GeHpwqneg6F9TAW8b4LmgzG5xEzbYlpvajLuyqd-HtBFL9xmxrILn3zVObV8C6Tk2iu-lLxdPr6fQDm6_Tzh2J0LFZMiMmmgrJTNHWH_otF2GntdgE6z2A5Q4vMkP", "width": 3840}], "place_id": "ChIJQ_Yo7chC1moRBsbGSlo6DVc", "plus_code": {"compound_code": "5XQC+48 Melbourne VIC, Australia", "global_code": "4RJ65XQC+48"}, "rating": 3.6, "reference": "ChIJQ_Yo7chC1moRBsbGSlo6DVc", "scope": "GOOGLE", "types": ["convenience_store", "atm", "gas_station", "bakery", "cafe", "store", "restaurant", "food", "point_of_interest", "finance", "establishment"], "user_ratings_total": 7, "vicinity": "152 Exhibition Street, Melbourne", "primary_type": "Cafe/bakery", "types str": "convenience_store, atm, gas_station, bakery, cafe, store, restaurant, food, point_of_interest, finance, establishment", "popup": "<h4><b>7-Eleven 152 Exhibition St</b></h4>152 Exhibition Street, Melbourne<br><i>convenience store, atm, gas station, bakery, cafe, store, restaurant, food, point of interest, finance, establishment</i><br><br><font color=\"gray\"><b>3.6\u2605</b> (7)</font>", "long": 144.9708313, "lat": -37.8121399}, {"business_status": "OPERATIONAL", "geometry": {"location": {"lat": -37.8121399, "lng": 144.9708313}, "viewport": {"northeast": {"lat": -37.8108134197085, "lng": 144.9721025302915}, "southwest": {"lat": -37.81351138029149, "lng": 144.9694045697085}}}, "icon": "https://maps.gstatic.com/mapfiles/place_api/icons/v1/png_71/shopping-71.png", "icon_background_color": "#4B96F3", "icon_mask_base_uri": "https://maps.gstatic.com/mapfiles/place_api/icons/v2/convenience_pinlet", "name": "7-Eleven 152 Exhibition St", "opening_hours": {"open_now": true}, "photos": [{"height": 2160, "html_attributions": ["<a href=\"https://maps.google.com/maps/contrib/115161916543124945682\">Adam G</a>"], "photo_reference": "AcYSjRgEnrWpGf2QUokhK3poYkKLv3li8yMKHydx5lt1ilFbpfDoUoHFHXnfqhkJKS1Mi2LcOkmDyOBw4elVujAEpPCOPdv27UshC0_TG4Jm_2PSYdy_Tx--mxEAi7QC5BPtC-oXdKpzHIgW6Y0MTUepNg19tls8b4gTGyOvG5gNKaq-3T7W", "width": 3840}], "place_id": "ChIJQ_Yo7chC1moRBsbGSlo6DVc", "plus_code": {"compound_code": "5XQC+48 Melbourne VIC, Australia", "global_code": "4RJ65XQC+48"}, "rating": 3.6, "reference": "ChIJQ_Yo7chC1moRBsbGSlo6DVc", "scope": "GOOGLE", "types": ["convenience_store", "atm", "gas_station", "bakery", "cafe", "finance", "restaurant", "food", "store", "point_of_interest", "establishment"], "user_ratings_total": 7, "vicinity": "152 Exhibition Street, Melbourne", "primary_type": "Cafe/bakery", "types str": "convenience_store, atm, gas_station, bakery, cafe, finance, restaurant, food, store, point_of_interest, establishment", "popup": "<h4><b>7-Eleven 152 Exhibition St</b></h4>152 Exhibition Street, Melbourne<br><i>convenience store, atm, gas station, bakery, cafe, finance, restaurant, food, store, point of interest, establishment</i><br><br><font color=\"gray\"><b>3.6\u2605</b> (7)</font>", "long": 144.9708313, "lat": -37.8121399}, {"business_status": "OPERATIONAL", "geometry": {"location": {"lat": -37.8138889, "lng": 144.9661111}, "viewport": {"northeast": {"lat": -37.81284356970851, "lng": 144.9673189802915}, "southwest": {"lat": -37.8155415302915, "lng": 144.9646210197085}}}, "icon": "https://maps.gstatic.com/mapfiles/place_api/icons/v1/png_71/shopping-71.png", "icon_background_color": "#4B96F3", "icon_mask_base_uri": "https://maps.gstatic.com/mapfiles/place_api/icons/v2/shoppingcart_pinlet", "name": "Woolworths Metro Swanston Street", "opening_hours": {"open_now": true}, "photos": [{"height": 2336, "html_attributions": ["<a href=\"https://maps.google.com/maps/contrib/111228266643897541178\">Colin Cowan</a>"], "photo_reference": "AcYSjRgxAhW3pN-N_mqOKFLlIcQ9s7HDlHUhwxMtXiRHgOGHj3EiYec_A6YC-uQisfWdXIQOVunmEYzGdsxnAfI6BjlD226r_2LLd4bZshonLu0Pz6Da_MeykDjK69VKjm9aVMpGq4eecOGS-cqk7NLenymO_7c8ICaCj5FxFlEa2ZYRoaa2", "width": 3115}], "place_id": "ChIJd56K-bVC1moRaNc_gvrkM2Q", "plus_code": {"compound_code": "5XP8+CC Melbourne VIC, Australia", "global_code": "4RJ65XP8+CC"}, "price_level": 1, "rating": 3.9, "reference": "ChIJd56K-bVC1moRaNc_gvrkM2Q", "scope": "GOOGLE", "types": ["supermarket", "convenience_store", "cafe", "grocery_or_supermarket", "food", "store", "point_of_interest", "establishment"], "user_ratings_total": 583, "vicinity": "160 Swanston Street, Melbourne", "primary_type": "Cafe/bakery", "types str": "supermarket, convenience_store, cafe, grocery_or_supermarket, food, store, point_of_interest, establishment", "popup": "<h4><b>Woolworths Metro Swanston Street</b></h4>160 Swanston Street, Melbourne<br><i>supermarket, convenience store, cafe, grocery or supermarket, food, store, point of interest, establishment</i><br><br><font color=\"gray\"><b>3.9\u2605</b> (583)</font><font color=\"green\"><span style=\"float:right\">$</font></span>", "long": 144.9661111, "lat": -37.8138889}, {"business_status": "OPERATIONAL", "geometry": {"location": {"lat": -37.80951029999999, "lng": 144.9616329}, "viewport": {"northeast": {"lat": -37.8081756697085, "lng": 144.9630201302915}, "southwest": {"lat": -37.8108736302915, "lng": 144.9603221697085}}}, "icon": "https://maps.gstatic.com/mapfiles/place_api/icons/v1/png_71/shopping-71.png", "icon_background_color": "#4B96F3", "icon_mask_base_uri": "https://maps.gstatic.com/mapfiles/place_api/icons/v2/shoppingcart_pinlet", "name": "Woolworths Metro Literature Lane", "opening_hours": {"open_now": true}, "photos": [{"height": 3008, "html_attributions": ["<a href=\"https://maps.google.com/maps/contrib/105086079104773283388\">Roderick Kar</a>"], "photo_reference": "AcYSjRgQijGNP1itxcx4g3bH24Br1mCWUP-MrfitKjBkHEYkn4lnb5gvmwbLWhENvTbEGlxtVq5mL-ZtbLHcNGadCv1NK1Qyr7Gzh8niSyyqK3bDSbYhOZtYBVGpuAUnUfm0H56TQugCASJxuUgzEixik6iR6eTXFqJH7WUAm-xI4doUVJWk", "width": 4016}], "place_id": "ChIJJZeaKstC1moRe65yHj6fGEw", "plus_code": {"compound_code": "5XR6+5M Melbourne VIC, Australia", "global_code": "4RJ65XR6+5M"}, "price_level": 1, "rating": 4.1, "reference": "ChIJJZeaKstC1moRe65yHj6fGEw", "scope": "GOOGLE", "types": ["supermarket", "convenience_store", "grocery_or_supermarket", "cafe", "store", "food", "point_of_interest", "establishment"], "user_ratings_total": 337, "vicinity": "388 Elizabeth Street, Melbourne", "primary_type": "Cafe/bakery", "types str": "supermarket, convenience_store, grocery_or_supermarket, cafe, store, food, point_of_interest, establishment", "popup": "<h4><b>Woolworths Metro Literature Lane</b></h4>388 Elizabeth Street, Melbourne<br><i>supermarket, convenience store, grocery or supermarket, cafe, store, food, point of interest, establishment</i><br><br><font color=\"gray\"><b>4.1\u2605</b> (337)</font><font color=\"green\"><span style=\"float:right\">$</font></span>", "long": 144.9616329, "lat": -37.80951029999999}, {"business_status": "OPERATIONAL", "geometry": {"location": {"lat": -37.8105249, "lng": 144.9617298}, "viewport": {"northeast": {"lat": -37.80895536970851, "lng": 144.9633233302915}, "southwest": {"lat": -37.81165333029151, "lng": 144.9606253697085}}}, "icon": "https://maps.gstatic.com/mapfiles/place_api/icons/v1/png_71/shopping-71.png", "icon_background_color": "#4B96F3", "icon_mask_base_uri": "https://maps.gstatic.com/mapfiles/place_api/icons/v2/shoppingcart_pinlet", "name": "Woolworths Metro Melbourne Central", "photos": [{"height": 2067, "html_attributions": ["<a href=\"https://maps.google.com/maps/contrib/117278067934412493110\">Robert Graham</a>"], "photo_reference": "AcYSjRiLAgXALyUsTHcanZAEANWvmIsfGogFODcm5cg-HQovgSlSxyAsvkoo8w2n157NDKpf3ayPu5HXtu_nmftIT6XqcWaF7OwPShxvsn732bXaTzNyUsrStaeYbqpa2OK83CnsXlpDbr6ptMixH0JdfkBnZEcTbeG2xBOBVYUS9SKK-6Yp", "width": 2919}], "place_id": "ChIJzXQ14cpC1moRnnC-9UE9ZxY", "plus_code": {"compound_code": "5XQ6+QM Melbourne VIC, Australia", "global_code": "4RJ65XQ6+QM"}, "price_level": 1, "rating": 4, "reference": "ChIJzXQ14cpC1moRnnC-9UE9ZxY", "scope": "GOOGLE", "types": ["supermarket", "convenience_store", "grocery_or_supermarket", "cafe", "store", "food", "point_of_interest", "establishment"], "user_ratings_total": 116, "vicinity": "183/201 La Trobe Street, Melbourne", "primary_type": "Cafe/bakery", "types str": "supermarket, convenience_store, grocery_or_supermarket, cafe, store, food, point_of_interest, establishment", "popup": "<h4><b>Woolworths Metro Melbourne Central</b></h4>183/201 La Trobe Street, Melbourne<br><i>supermarket, convenience store, grocery or supermarket, cafe, store, food, point of interest, establishment</i><br><br><font color=\"gray\"><b>4\u2605</b> (116)</font><font color=\"green\"><span style=\"float:right\">$</font></span>", "long": 144.9617298, "lat": -37.8105249}, {"business_status": "OPERATIONAL", "geometry": {"location": {"lat": -37.80951029999999, "lng": 144.9616329}, "viewport": {"northeast": {"lat": -37.8081756697085, "lng": 144.9630201302915}, "southwest": {"lat": -37.8108736302915, "lng": 144.9603221697085}}}, "icon": "https://maps.gstatic.com/mapfiles/place_api/icons/v1/png_71/shopping-71.png", "icon_background_color": "#4B96F3", "icon_mask_base_uri": "https://maps.gstatic.com/mapfiles/place_api/icons/v2/shoppingcart_pinlet", "name": "Woolworths Metro Literature Lane", "opening_hours": {"open_now": true}, "photos": [{"height": 3008, "html_attributions": ["<a href=\"https://maps.google.com/maps/contrib/105086079104773283388\">Roderick Kar</a>"], "photo_reference": "AcYSjRgohL1zCF-cQ3ZiJmUWj932g7s8yIgsOKY6cD5sBtW-IUM9DWt9wZ5iNYwFTa7GQmzg2qDobzYhaLc8q4Dre0NiWoyKCbiS5TRHtl4heOkMW0Ia3Z0b_ur19x7VqJMtyBtu8-kEVVVvsCSE-XGSGxtGgBzvs0-_b1eAATVGsDlA0FRy", "width": 4016}], "place_id": "ChIJJZeaKstC1moRe65yHj6fGEw", "plus_code": {"compound_code": "5XR6+5M Melbourne VIC, Australia", "global_code": "4RJ65XR6+5M"}, "price_level": 1, "rating": 4.1, "reference": "ChIJJZeaKstC1moRe65yHj6fGEw", "scope": "GOOGLE", "types": ["supermarket", "convenience_store", "grocery_or_supermarket", "cafe", "store", "food", "point_of_interest", "establishment"], "user_ratings_total": 337, "vicinity": "388 Elizabeth Street, Melbourne", "primary_type": "Cafe/bakery", "types str": "supermarket, convenience_store, grocery_or_supermarket, cafe, store, food, point_of_interest, establishment", "popup": "<h4><b>Woolworths Metro Literature Lane</b></h4>388 Elizabeth Street, Melbourne<br><i>supermarket, convenience store, grocery or supermarket, cafe, store, food, point of interest, establishment</i><br><br><font color=\"gray\"><b>4.1\u2605</b> (337)</font><font color=\"green\"><span style=\"float:right\">$</font></span>", "long": 144.9616329, "lat": -37.80951029999999}, {"business_status": "OPERATIONAL", "geometry": {"location": {"lat": -37.8105249, "lng": 144.9617298}, "viewport": {"northeast": {"lat": -37.80895536970851, "lng": 144.9633233302915}, "southwest": {"lat": -37.81165333029151, "lng": 144.9606253697085}}}, "icon": "https://maps.gstatic.com/mapfiles/place_api/icons/v1/png_71/shopping-71.png", "icon_background_color": "#4B96F3", "icon_mask_base_uri": "https://maps.gstatic.com/mapfiles/place_api/icons/v2/shoppingcart_pinlet", "name": "Woolworths Metro Melbourne Central", "photos": [{"height": 2067, "html_attributions": ["<a href=\"https://maps.google.com/maps/contrib/117278067934412493110\">Robert Graham</a>"], "photo_reference": "AcYSjRhHaGauJRlZ7pr5WGHLNcFWo0GLyo01KWn9-A41TxdXYU0Ih3lXVAyXZe3KHymLqcMDGrAfr8MvzhVriIxb9I47oRp_g9f9JVwpQBCiWuNKzcFhWlPyquFoF5as1zVSzRMd54aHRsZ7wQP4d7ADodqS3P9cvAe5zo99DBi5Cn54uGa8", "width": 2919}], "place_id": "ChIJzXQ14cpC1moRnnC-9UE9ZxY", "plus_code": {"compound_code": "5XQ6+QM Melbourne VIC, Australia", "global_code": "4RJ65XQ6+QM"}, "price_level": 1, "rating": 4, "reference": "ChIJzXQ14cpC1moRnnC-9UE9ZxY", "scope": "GOOGLE", "types": ["supermarket", "convenience_store", "grocery_or_supermarket", "cafe", "store", "food", "point_of_interest", "establishment"], "user_ratings_total": 116, "vicinity": "183/201 La Trobe Street, Melbourne", "primary_type": "Cafe/bakery", "types str": "supermarket, convenience_store, grocery_or_supermarket, cafe, store, food, point_of_interest, establishment", "popup": "<h4><b>Woolworths Metro Melbourne Central</b></h4>183/201 La Trobe Street, Melbourne<br><i>supermarket, convenience store, grocery or supermarket, cafe, store, food, point of interest, establishment</i><br><br><font color=\"gray\"><b>4\u2605</b> (116)</font><font color=\"green\"><span style=\"float:right\">$</font></span>", "long": 144.9617298, "lat": -37.8105249}, {"business_status": "OPERATIONAL", "geometry": {"location": {"lat": -37.80951029999999, "lng": 144.9616329}, "viewport": {"northeast": {"lat": -37.8081756697085, "lng": 144.9630201302915}, "southwest": {"lat": -37.8108736302915, "lng": 144.9603221697085}}}, "icon": "https://maps.gstatic.com/mapfiles/place_api/icons/v1/png_71/shopping-71.png", "icon_background_color": "#4B96F3", "icon_mask_base_uri": "https://maps.gstatic.com/mapfiles/place_api/icons/v2/shoppingcart_pinlet", "name": "Woolworths Metro Literature Lane", "opening_hours": {"open_now": true}, "photos": [{"height": 3008, "html_attributions": ["<a href=\"https://maps.google.com/maps/contrib/105086079104773283388\">Roderick Kar</a>"], "photo_reference": "AcYSjRhXqsVyIPtstzb3Sm_dFv-M8sRCLiCx_m9644CW6YI7mOwWrIvoDgbsg5Vxj_bhGV0_1FBq-MWPeMgUGnwcpD2szgQGwTP5M5gJQhmiitEvLStrDVopYPbrUhPxutXimmGiYmS2tgJoLvQ1OUFiCIkoDNZ4w-dMRnIkETSPr0WxF2ZZ", "width": 4016}], "place_id": "ChIJJZeaKstC1moRe65yHj6fGEw", "plus_code": {"compound_code": "5XR6+5M Melbourne VIC, Australia", "global_code": "4RJ65XR6+5M"}, "price_level": 1, "rating": 4.1, "reference": "ChIJJZeaKstC1moRe65yHj6fGEw", "scope": "GOOGLE", "types": ["supermarket", "convenience_store", "cafe", "grocery_or_supermarket", "store", "food", "point_of_interest", "establishment"], "user_ratings_total": 337, "vicinity": "388 Elizabeth Street, Melbourne", "primary_type": "Cafe/bakery", "types str": "supermarket, convenience_store, cafe, grocery_or_supermarket, store, food, point_of_interest, establishment", "popup": "<h4><b>Woolworths Metro Literature Lane</b></h4>388 Elizabeth Street, Melbourne<br><i>supermarket, convenience store, cafe, grocery or supermarket, store, food, point of interest, establishment</i><br><br><font color=\"gray\"><b>4.1\u2605</b> (337)</font><font color=\"green\"><span style=\"float:right\">$</font></span>", "long": 144.9616329, "lat": -37.80951029999999}, {"business_status": "OPERATIONAL", "geometry": {"location": {"lat": -37.803067, "lng": 144.957562}, "viewport": {"northeast": {"lat": -37.8016678197085, "lng": 144.9588916302915}, "southwest": {"lat": -37.8043657802915, "lng": 144.9561936697085}}}, "icon": "https://maps.gstatic.com/mapfiles/place_api/icons/v1/png_71/shopping-71.png", "icon_background_color": "#4B96F3", "icon_mask_base_uri": "https://maps.gstatic.com/mapfiles/place_api/icons/v2/shoppingcart_pinlet", "name": "Woolworths Metro City North", "opening_hours": {"open_now": true}, "photos": [{"height": 2170, "html_attributions": ["<a href=\"https://maps.google.com/maps/contrib/105014953679568517229\">Robert Carruthers</a>"], "photo_reference": "AcYSjRhxfqy2959FTqmmJRcgDFrPJjkkI2oLyTSsAoG8eniWstDfHt3FSyb6ZRjqfow0_3ERZt7Nhbxtk2raxoBAml659E4sbG-r_N0_4llc9rXdstLlUuzUDxnN3kyAvGMdC1ru8o6KRDbQE1kfqWLufkyAYHKgbYyNTOM7NYt4xSwu7ypJ", "width": 4032}], "place_id": "ChIJJaCqM4ld1moRt_bfTI6J_1c", "plus_code": {"compound_code": "5XW5+Q2 Melbourne VIC, Australia", "global_code": "4RJ65XW5+Q2"}, "rating": 3.8, "reference": "ChIJJaCqM4ld1moRt_bfTI6J_1c", "scope": "GOOGLE", "types": ["supermarket", "convenience_store", "grocery_or_supermarket", "meal_takeaway", "cafe", "bakery", "store", "restaurant", "food", "point_of_interest", "establishment"], "user_ratings_total": 38, "vicinity": "611 Elizabeth Street, Melbourne", "primary_type": "Cafe/bakery", "types str": "supermarket, convenience_store, grocery_or_supermarket, meal_takeaway, cafe, bakery, store, restaurant, food, point_of_interest, establishment", "popup": "<h4><b>Woolworths Metro City North</b></h4>611 Elizabeth Street, Melbourne<br><i>supermarket, convenience store, grocery or supermarket, meal takeaway, cafe, bakery, store, restaurant, food, point of interest, establishment</i><br><br><font color=\"gray\"><b>3.8\u2605</b> (38)</font>", "long": 144.957562, "lat": -37.803067}, {"business_status": "OPERATIONAL", "geometry": {"location": {"lat": -37.8342345, "lng": 144.9823594}, "viewport": {"northeast": {"lat": -37.8328250197085, "lng": 144.9837039802915}, "southwest": {"lat": -37.83552298029149, "lng": 144.9810060197085}}}, "icon": "https://maps.gstatic.com/mapfiles/place_api/icons/v1/png_71/shopping-71.png", "icon_background_color": "#4B96F3", "icon_mask_base_uri": "https://maps.gstatic.com/mapfiles/place_api/icons/v2/convenience_pinlet", "name": "7-Eleven South Yarra", "opening_hours": {"open_now": true}, "photos": [{"height": 3120, "html_attributions": ["<a href=\"https://maps.google.com/maps/contrib/116857007344126428694\">Matt Hayden</a>"], "photo_reference": "AcYSjRh4PRYe18LZPzVa0D0Jzrdoq7Z_t4rX9vGtCd-pZ5pvaLJjULjmM_ZXlZe7SnS4JCmDXRFGGyBOqIn1ptNfoI7m6QgXqTG0kv5wBjUMvpVK4h68j0IJh-jtR2JyavX155CI2fw_rgZ60YTA4q6xTizyAV3v7A97psLX4VznigJMXpkO", "width": 4160}], "place_id": "ChIJdRDU6aFC1moRrwbEwViQwDs", "plus_code": {"compound_code": "5X8J+8W South Yarra VIC, Australia", "global_code": "4RJ65X8J+8W"}, "rating": 2.1, "reference": "ChIJdRDU6aFC1moRrwbEwViQwDs", "scope": "GOOGLE", "types": ["convenience_store", "atm", "finance", "bakery", "restaurant", "store", "point_of_interest", "food", "establishment"], "user_ratings_total": 33, "vicinity": "187/189 Domain Road, South Yarra", "primary_type": "Cafe/bakery", "types str": "convenience_store, atm, finance, bakery, restaurant, store, point_of_interest, food, establishment", "popup": "<h4><b>7-Eleven South Yarra</b></h4>187/189 Domain Road, South Yarra<br><i>convenience store, atm, finance, bakery, restaurant, store, point of interest, food, establishment</i><br><br><font color=\"gray\"><b>2.1\u2605</b> (33)</font>", "long": 144.9823594, "lat": -37.8342345}, {"business_status": "OPERATIONAL", "geometry": {"location": {"lat": -37.8450767, "lng": 144.9793524}, "viewport": {"northeast": {"lat": -37.84372036970851, "lng": 144.9806808802915}, "southwest": {"lat": -37.84641833029151, "lng": 144.9779829197085}}}, "icon": "https://maps.gstatic.com/mapfiles/place_api/icons/v1/png_71/shopping-71.png", "icon_background_color": "#4B96F3", "icon_mask_base_uri": "https://maps.gstatic.com/mapfiles/place_api/icons/v2/convenience_pinlet", "name": "7-Eleven Chevron", "opening_hours": {"open_now": true}, "photos": [{"height": 2448, "html_attributions": ["<a href=\"https://maps.google.com/maps/contrib/101175627728576299078\">Alisdair Horgbury</a>"], "photo_reference": "AcYSjRgkoCd10g7L3MNczuCuki8CSI9qpG_lidedxamfOe7anxkJfg9NeoqN4BjFk_5DwFUddIRL5bHIzckkTgMIoCZApGswwPWnv9Byn6JvjhLhxeFukn-qqNTaN9BieYYzzMdFQj49ayhYbZzqgwJGEJLzXBmoUwp7vlKFpWba1BWrZWRL", "width": 3264}], "place_id": "ChIJJ-kv3bNp1moRBbtzbDXvMgM", "plus_code": {"compound_code": "5X3H+XP Melbourne VIC, Australia", "global_code": "4RJ65X3H+XP"}, "rating": 3.3, "reference": "ChIJJ-kv3bNp1moRBbtzbDXvMgM", "scope": "GOOGLE", "types": ["convenience_store", "bakery", "store", "point_of_interest", "food", "establishment"], "user_ratings_total": 19, "vicinity": "Tenancy 12, Building 1/519-539 Saint Kilda Road, Melbourne", "primary_type": "Cafe/bakery", "types str": "convenience_store, bakery, store, point_of_interest, food, establishment", "popup": "<h4><b>7-Eleven Chevron</b></h4>Tenancy 12, Building 1/519-539 Saint Kilda Road, Melbourne<br><i>convenience store, bakery, store, point of interest, food, establishment</i><br><br><font color=\"gray\"><b>3.3\u2605</b> (19)</font>", "long": 144.9793524, "lat": -37.8450767}, {"business_status": "OPERATIONAL", "geometry": {"location": {"lat": -37.8450767, "lng": 144.9793524}, "viewport": {"northeast": {"lat": -37.84372036970851, "lng": 144.9806808802915}, "southwest": {"lat": -37.84641833029151, "lng": 144.9779829197085}}}, "icon": "https://maps.gstatic.com/mapfiles/place_api/icons/v1/png_71/shopping-71.png", "icon_background_color": "#4B96F3", "icon_mask_base_uri": "https://maps.gstatic.com/mapfiles/place_api/icons/v2/convenience_pinlet", "name": "7-Eleven Chevron", "opening_hours": {"open_now": true}, "photos": [{"height": 2448, "html_attributions": ["<a href=\"https://maps.google.com/maps/contrib/101175627728576299078\">Alisdair Horgbury</a>"], "photo_reference": "AcYSjRjEVssMC-Qf7YWzZKo97SGJDHOR-HZopaQuVRQ7TflbixEp8guCA5NvlmcWiBdni-lSeY-F86zCYagDsRq8uIghuOvYmkNH_XILiu46jQ_Np5Ri5I2f6Yzq59fOthm7Y3DJJsNPWH4LTrEe9JdXIXBT2mPSrxcpZh8U4aU8wvsIigTq", "width": 3264}], "place_id": "ChIJJ-kv3bNp1moRBbtzbDXvMgM", "plus_code": {"compound_code": "5X3H+XP Melbourne VIC, Australia", "global_code": "4RJ65X3H+XP"}, "rating": 3.3, "reference": "ChIJJ-kv3bNp1moRBbtzbDXvMgM", "scope": "GOOGLE", "types": ["convenience_store", "bakery", "food", "point_of_interest", "store", "establishment"], "user_ratings_total": 19, "vicinity": "Tenancy 12, Building 1/519-539 Saint Kilda Road, Melbourne", "primary_type": "Cafe/bakery", "types str": "convenience_store, bakery, food, point_of_interest, store, establishment", "popup": "<h4><b>7-Eleven Chevron</b></h4>Tenancy 12, Building 1/519-539 Saint Kilda Road, Melbourne<br><i>convenience store, bakery, food, point of interest, store, establishment</i><br><br><font color=\"gray\"><b>3.3\u2605</b> (19)</font>", "long": 144.9793524, "lat": -37.8450767}, {"business_status": "OPERATIONAL", "geometry": {"location": {"lat": -37.8342345, "lng": 144.9823594}, "viewport": {"northeast": {"lat": -37.8328250197085, "lng": 144.9837039802915}, "southwest": {"lat": -37.83552298029149, "lng": 144.9810060197085}}}, "icon": "https://maps.gstatic.com/mapfiles/place_api/icons/v1/png_71/shopping-71.png", "icon_background_color": "#4B96F3", "icon_mask_base_uri": "https://maps.gstatic.com/mapfiles/place_api/icons/v2/convenience_pinlet", "name": "7-Eleven South Yarra", "opening_hours": {"open_now": true}, "photos": [{"height": 3120, "html_attributions": ["<a href=\"https://maps.google.com/maps/contrib/116857007344126428694\">Matt Hayden</a>"], "photo_reference": "AcYSjRizgBzNy3gG4JFlZ1Oan8HRqk2nDT1u_VP9DLFe4FKCHtUWYPTEHz2hkMVKPhYNxjR2PSo90SsfGEK8aWKKVAUn-aE8B3PtAMrytTqSjJn0hBWFdbN13XmtQW8GDdXtoECBEwcND2Kj7w4z9xn3il8aHNa6iB0ByBFR19VZ7Qa4rLyz", "width": 4160}], "place_id": "ChIJdRDU6aFC1moRrwbEwViQwDs", "plus_code": {"compound_code": "5X8J+8W South Yarra VIC, Australia", "global_code": "4RJ65X8J+8W"}, "rating": 2.1, "reference": "ChIJdRDU6aFC1moRrwbEwViQwDs", "scope": "GOOGLE", "types": ["convenience_store", "atm", "bakery", "finance", "store", "restaurant", "point_of_interest", "food", "establishment"], "user_ratings_total": 33, "vicinity": "187/189 Domain Road, South Yarra", "primary_type": "Cafe/bakery", "types str": "convenience_store, atm, bakery, finance, store, restaurant, point_of_interest, food, establishment", "popup": "<h4><b>7-Eleven South Yarra</b></h4>187/189 Domain Road, South Yarra<br><i>convenience store, atm, bakery, finance, store, restaurant, point of interest, food, establishment</i><br><br><font color=\"gray\"><b>2.1\u2605</b> (33)</font>", "long": 144.9823594, "lat": -37.8342345}, {"business_status": "OPERATIONAL", "geometry": {"location": {"lat": -37.8342345, "lng": 144.9823594}, "viewport": {"northeast": {"lat": -37.8328250197085, "lng": 144.9837039802915}, "southwest": {"lat": -37.83552298029149, "lng": 144.9810060197085}}}, "icon": "https://maps.gstatic.com/mapfiles/place_api/icons/v1/png_71/shopping-71.png", "icon_background_color": "#4B96F3", "icon_mask_base_uri": "https://maps.gstatic.com/mapfiles/place_api/icons/v2/convenience_pinlet", "name": "7-Eleven South Yarra", "opening_hours": {"open_now": true}, "photos": [{"height": 3120, "html_attributions": ["<a href=\"https://maps.google.com/maps/contrib/116857007344126428694\">Matt Hayden</a>"], "photo_reference": "AcYSjRgEqRXnehVPidCfKrBM1pxUbCdHoUYEVt3i_WWkMfLxqRwQOKuNxQBKUBAkfcvGZGJ3yAez4XYqRLbaztTJsrHstiGFaWkSOmMj2WRHbp9G8QOBbQV95WzpcNwkiAAMgqe709TId-MbkfKl_KQAriLUgj7BwMVMmyBwgt1PkDr5XRdZ", "width": 4160}], "place_id": "ChIJdRDU6aFC1moRrwbEwViQwDs", "plus_code": {"compound_code": "5X8J+8W South Yarra VIC, Australia", "global_code": "4RJ65X8J+8W"}, "rating": 2.1, "reference": "ChIJdRDU6aFC1moRrwbEwViQwDs", "scope": "GOOGLE", "types": ["convenience_store", "atm", "bakery", "finance", "store", "restaurant", "food", "point_of_interest", "establishment"], "user_ratings_total": 33, "vicinity": "187/189 Domain Road, South Yarra", "primary_type": "Cafe/bakery", "types str": "convenience_store, atm, bakery, finance, store, restaurant, food, point_of_interest, establishment", "popup": "<h4><b>7-Eleven South Yarra</b></h4>187/189 Domain Road, South Yarra<br><i>convenience store, atm, bakery, finance, store, restaurant, food, point of interest, establishment</i><br><br><font color=\"gray\"><b>2.1\u2605</b> (33)</font>", "long": 144.9823594, "lat": -37.8342345}, {"business_status": "OPERATIONAL", "geometry": {"location": {"lat": -37.81406630000001, "lng": 144.9656001}, "viewport": {"northeast": {"lat": -37.8126888197085, "lng": 144.9670741802915}, "southwest": {"lat": -37.8153867802915, "lng": 144.9643762197085}}}, "icon": "https://maps.gstatic.com/mapfiles/place_api/icons/v1/png_71/shopping-71.png", "icon_background_color": "#4B96F3", "icon_mask_base_uri": "https://maps.gstatic.com/mapfiles/place_api/icons/v2/convenience_pinlet", "name": "7-Eleven", "opening_hours": {"open_now": true}, "photos": [{"height": 2448, "html_attributions": ["<a href=\"https://maps.google.com/maps/contrib/117006901914225135176\">Sonia Mitchell</a>"], "photo_reference": "AcYSjRjvFDMQCdzV7jLwYZ-mxwXvroceZFHtW0b1o3QhheIkNW_de1zfxZ75ry2f6cJl9IixXYdpoufxzQPJbDDQa4LKDAqn0t7_uViN2Ka4BbEdsUEmxFjJVg0uyqW2uhF5GBKn0Nds6u0jlchQkW9NnfBxwDPDtzQ9_d2I47kibjK41Mo", "width": 3264}], "place_id": "ChIJT8T86bZC1moRLHUnChjyrck", "plus_code": {"compound_code": "5XP8+96 Melbourne VIC, Australia", "global_code": "4RJ65XP8+96"}, "rating": 3.3, "reference": "ChIJT8T86bZC1moRLHUnChjyrck", "scope": "GOOGLE", "types": ["convenience_store", "atm", "bakery", "finance", "restaurant", "food", "store", "point_of_interest", "establishment"], "user_ratings_total": 12, "vicinity": "159 Swanston Street, Melbourne", "primary_type": "Cafe/bakery", "types str": "convenience_store, atm, bakery, finance, restaurant, food, store, point_of_interest, establishment", "popup": "<h4><b>7-Eleven</b></h4>159 Swanston Street, Melbourne<br><i>convenience store, atm, bakery, finance, restaurant, food, store, point of interest, establishment</i><br><br><font color=\"gray\"><b>3.3\u2605</b> (12)</font>", "long": 144.9656001, "lat": -37.81406630000001}, {"business_status": "OPERATIONAL", "geometry": {"location": {"lat": -37.8175653, "lng": 144.9687728}, "viewport": {"northeast": {"lat": -37.8160237697085, "lng": 144.9700297302915}, "southwest": {"lat": -37.8187217302915, "lng": 144.9673317697085}}}, "icon": "https://maps.gstatic.com/mapfiles/place_api/icons/v1/png_71/shopping-71.png", "icon_background_color": "#4B96F3", "icon_mask_base_uri": "https://maps.gstatic.com/mapfiles/place_api/icons/v2/convenience_pinlet", "name": "7-Eleven Federation Square", "opening_hours": {"open_now": true}, "photos": [{"height": 1836, "html_attributions": ["<a href=\"https://maps.google.com/maps/contrib/101311671400237520236\">Maria Ngo</a>"], "photo_reference": "AcYSjRjMA7THAEDh3TKwh9ixyCI6_BktDMkJrI9qbQKQdO93UDrxiMvRS1bPpeopFy7SDQB49HnMTWxLhwFbc6E8JHIIIP4eaUX_Kuqt2Va4fUB1fKm012bEHgeM4bu4XJfyM180PakDR5I9gzgu25NsBjvVieUs58O3tglbPOlLpsZkr8NK", "width": 3264}], "place_id": "ChIJ7zhN7rZC1moRajRhG4HN4F8", "plus_code": {"compound_code": "5XJ9+XG Melbourne VIC, Australia", "global_code": "4RJ65XJ9+XG"}, "rating": 2.7, "reference": "ChIJ7zhN7rZC1moRajRhG4HN4F8", "scope": "GOOGLE", "types": ["convenience_store", "atm", "bakery", "finance", "restaurant", "food", "store", "point_of_interest", "establishment"], "user_ratings_total": 32, "vicinity": "2 Swanston Street, Melbourne", "primary_type": "Cafe/bakery", "types str": "convenience_store, atm, bakery, finance, restaurant, food, store, point_of_interest, establishment", "popup": "<h4><b>7-Eleven Federation Square</b></h4>2 Swanston Street, Melbourne<br><i>convenience store, atm, bakery, finance, restaurant, food, store, point of interest, establishment</i><br><br><font color=\"gray\"><b>2.7\u2605</b> (32)</font>", "long": 144.9687728, "lat": -37.8175653}, {"business_status": "OPERATIONAL", "geometry": {"location": {"lat": -37.813809, "lng": 144.9734899}, "viewport": {"northeast": {"lat": -37.8123292197085, "lng": 144.9747783302915}, "southwest": {"lat": -37.81502718029149, "lng": 144.9720803697085}}}, "icon": "https://maps.gstatic.com/mapfiles/place_api/icons/v1/png_71/shopping-71.png", "icon_background_color": "#4B96F3", "icon_mask_base_uri": "https://maps.gstatic.com/mapfiles/place_api/icons/v2/convenience_pinlet", "name": "7-Eleven 11 Collins Street", "opening_hours": {"open_now": true}, "photos": [{"height": 1818, "html_attributions": ["<a href=\"https://maps.google.com/maps/contrib/115161916543124945682\">Adam G</a>"], "photo_reference": "AcYSjRjUyhxTaJsiIbpwAd55ZPDJJlmmeEaYFYX8oSIO9MGEIGaS9SB6aEvq4KwNqkZKOCbRxR_XejSMgd2Rneu3TCZp79T3mFazp9OdZVDLzdWkZFfIZ0AXj84d1m9AXWjMgV9tOmrS6f620CikV_fyGmAhmbvHanRuQIALA3ymaLCduRFv", "width": 3233}], "place_id": "ChIJJUb8NMZC1moRNrmEQstA3kM", "plus_code": {"compound_code": "5XPF+F9 Melbourne VIC, Australia", "global_code": "4RJ65XPF+F9"}, "rating": 2.6, "reference": "ChIJJUb8NMZC1moRNrmEQstA3kM", "scope": "GOOGLE", "types": ["convenience_store", "atm", "bakery", "finance", "restaurant", "food", "store", "point_of_interest", "establishment"], "user_ratings_total": 27, "vicinity": "11 Collins Street, Melbourne", "primary_type": "Cafe/bakery", "types str": "convenience_store, atm, bakery, finance, restaurant, food, store, point_of_interest, establishment", "popup": "<h4><b>7-Eleven 11 Collins Street</b></h4>11 Collins Street, Melbourne<br><i>convenience store, atm, bakery, finance, restaurant, food, store, point of interest, establishment</i><br><br><font color=\"gray\"><b>2.6\u2605</b> (27)</font>", "long": 144.9734899, "lat": -37.813809}, {"business_status": "OPERATIONAL", "geometry": {"location": {"lat": -37.8166598, "lng": 144.9668196}, "viewport": {"northeast": {"lat": -37.8152361697085, "lng": 144.9681949302915}, "southwest": {"lat": -37.8179341302915, "lng": 144.9654969697085}}}, "icon": "https://maps.gstatic.com/mapfiles/place_api/icons/v1/png_71/shopping-71.png", "icon_background_color": "#4B96F3", "icon_mask_base_uri": "https://maps.gstatic.com/mapfiles/place_api/icons/v2/convenience_pinlet", "name": "7-Eleven Melb Swanston St", "opening_hours": {"open_now": true}, "photos": [{"height": 3024, "html_attributions": ["<a href=\"https://maps.google.com/maps/contrib/114421311081063804430\">Max Gross</a>"], "photo_reference": "AcYSjRi9O5Fvuw4-BN2BQyOygRFthFx-1102NhSm_Ze84bwl_nLD0DHat0kUweVjcvxqcOi-F6LnvmUfGYvY2e1sbKO_sNN0VWLusiOZuHgEqhe01SEhGlhAC2h_Hzi8FdV5SB4zDbbXoQn5jL2Oo87VVCCWmhMxEU4J2N0Xrl_ag5PC06GS", "width": 4032}], "place_id": "ChIJGcmcg7ZC1moRAOacd3HoEwM", "plus_code": {"compound_code": "5XM8+8P Melbourne VIC, Australia", "global_code": "4RJ65XM8+8P"}, "rating": 2.8, "reference": "ChIJGcmcg7ZC1moRAOacd3HoEwM", "scope": "GOOGLE", "types": ["convenience_store", "atm", "bakery", "finance", "restaurant", "food", "store", "point_of_interest", "establishment"], "user_ratings_total": 20, "vicinity": "37 Swanston Street, Melbourne", "primary_type": "Cafe/bakery", "types str": "convenience_store, atm, bakery, finance, restaurant, food, store, point_of_interest, establishment", "popup": "<h4><b>7-Eleven Melb Swanston St</b></h4>37 Swanston Street, Melbourne<br><i>convenience store, atm, bakery, finance, restaurant, food, store, point of interest, establishment</i><br><br><font color=\"gray\"><b>2.8\u2605</b> (20)</font>", "long": 144.9668196, "lat": -37.8166598}, {"business_status": "OPERATIONAL", "geometry": {"location": {"lat": -37.8121399, "lng": 144.9708313}, "viewport": {"northeast": {"lat": -37.8108134197085, "lng": 144.9721025302915}, "southwest": {"lat": -37.81351138029149, "lng": 144.9694045697085}}}, "icon": "https://maps.gstatic.com/mapfiles/place_api/icons/v1/png_71/shopping-71.png", "icon_background_color": "#4B96F3", "icon_mask_base_uri": "https://maps.gstatic.com/mapfiles/place_api/icons/v2/convenience_pinlet", "name": "7-Eleven 152 Exhibition St", "opening_hours": {"open_now": true}, "photos": [{"height": 2160, "html_attributions": ["<a href=\"https://maps.google.com/maps/contrib/115161916543124945682\">Adam G</a>"], "photo_reference": "AcYSjRgNrd2-5L-vBv0oigsdSCJFvBchKO6bSuLnOLVqvqg48nsBU8hM_JEBVbtj921izgJjiNIgrU9IfxZ-OhZm2j8ZxT1TSYKXF9rLuXWNoB26ESsglhsGAcffpqkm2bnQe4_1INgYIRTFxSsQpPULKpC-mTfTXK-umU2fMfs7qls2VkR5", "width": 3840}], "place_id": "ChIJQ_Yo7chC1moRBsbGSlo6DVc", "plus_code": {"compound_code": "5XQC+48 Melbourne VIC, Australia", "global_code": "4RJ65XQC+48"}, "rating": 3.6, "reference": "ChIJQ_Yo7chC1moRBsbGSlo6DVc", "scope": "GOOGLE", "types": ["convenience_store", "atm", "gas_station", "cafe", "bakery", "finance", "restaurant", "food", "store", "point_of_interest", "establishment"], "user_ratings_total": 7, "vicinity": "152 Exhibition Street, Melbourne", "primary_type": "Cafe/bakery", "types str": "convenience_store, atm, gas_station, cafe, bakery, finance, restaurant, food, store, point_of_interest, establishment", "popup": "<h4><b>7-Eleven 152 Exhibition St</b></h4>152 Exhibition Street, Melbourne<br><i>convenience store, atm, gas station, cafe, bakery, finance, restaurant, food, store, point of interest, establishment</i><br><br><font color=\"gray\"><b>3.6\u2605</b> (7)</font>", "long": 144.9708313, "lat": -37.8121399}, {"business_status": "OPERATIONAL", "geometry": {"location": {"lat": -37.8117679, "lng": 144.9721735}, "viewport": {"northeast": {"lat": -37.8104141197085, "lng": 144.9735074802915}, "southwest": {"lat": -37.8131120802915, "lng": 144.9708095197085}}}, "icon": "https://maps.gstatic.com/mapfiles/place_api/icons/v1/png_71/shopping-71.png", "icon_background_color": "#4B96F3", "icon_mask_base_uri": "https://maps.gstatic.com/mapfiles/place_api/icons/v2/convenience_pinlet", "name": "7-Eleven Melb Bourke St", "opening_hours": {"open_now": true}, "photos": [{"height": 4000, "html_attributions": ["<a href=\"https://maps.google.com/maps/contrib/111753510554445641997\">Pete Miller</a>"], "photo_reference": "AcYSjRhwJnhAsocsD5hOwPQcLKZB0rBpxrDNx46wYS-WMoxr1tn0tu3kLM-_-WbxHzoKfSBW4YlkHVfFyaT-b2GO6fh9HVijby8idmRycVWF7y0WXKStwPMVd2W6-VIjZw6NWu-GTBOTluesukNfhldmRSwcPvRkIO-PT1ZTBTjm5WaBLfKH", "width": 1800}], "place_id": "ChIJTQhzp8hC1moRM4IwgTbfo_A", "plus_code": {"compound_code": "5XQC+7V Melbourne VIC, Australia", "global_code": "4RJ65XQC+7V"}, "rating": 3.3, "reference": "ChIJTQhzp8hC1moRM4IwgTbfo_A", "scope": "GOOGLE", "types": ["convenience_store", "atm", "bakery", "finance", "restaurant", "food", "store", "point_of_interest", "establishment"], "user_ratings_total": 28, "vicinity": "35 Bourke Street, Melbourne", "primary_type": "Cafe/bakery", "types str": "convenience_store, atm, bakery, finance, restaurant, food, store, point_of_interest, establishment", "popup": "<h4><b>7-Eleven Melb Bourke St</b></h4>35 Bourke Street, Melbourne<br><i>convenience store, atm, bakery, finance, restaurant, food, store, point of interest, establishment</i><br><br><font color=\"gray\"><b>3.3\u2605</b> (28)</font>", "long": 144.9721735, "lat": -37.8117679}, {"business_status": "OPERATIONAL", "geometry": {"location": {"lat": -37.8180848, "lng": 144.96473}, "viewport": {"northeast": {"lat": -37.81672826970849, "lng": 144.9661314302915}, "southwest": {"lat": -37.81942623029149, "lng": 144.9634334697085}}}, "icon": "https://maps.gstatic.com/mapfiles/place_api/icons/v1/png_71/shopping-71.png", "icon_background_color": "#4B96F3", "icon_mask_base_uri": "https://maps.gstatic.com/mapfiles/place_api/icons/v2/convenience_pinlet", "name": "7-Eleven Flinders St Store", "opening_hours": {"open_now": true}, "photos": [{"height": 1295, "html_attributions": ["<a href=\"https://maps.google.com/maps/contrib/115161916543124945682\">Adam G</a>"], "photo_reference": "AcYSjRjvJxxBHlJ4D7gfjPtkhM1e4vl1AAi9euKK5QA565NNVctBiTjfgd6C_wa3Gt_Tyol5Z44Bt_F-8CcSl7Isam1AagVkcBK8PBnDjKd0sgKiADk_hxVcugbXoxzyGhfgLmJIxtTO5D6AuZGS3ZWA9GSIZ7_aJ4wFMqsCGqHysbREtUo_", "width": 2302}], "place_id": "ChIJ7YbbiLNC1moRcyDe57v-yBg", "plus_code": {"compound_code": "5XJ7+QV Melbourne VIC, Australia", "global_code": "4RJ65XJ7+QV"}, "rating": 2.2, "reference": "ChIJ7YbbiLNC1moRcyDe57v-yBg", "scope": "GOOGLE", "types": ["convenience_store", "atm", "bakery", "finance", "restaurant", "food", "store", "point_of_interest", "establishment"], "user_ratings_total": 42, "vicinity": "2/1-5 Elizabeth Street, Melbourne", "primary_type": "Cafe/bakery", "types str": "convenience_store, atm, bakery, finance, restaurant, food, store, point_of_interest, establishment", "popup": "<h4><b>7-Eleven Flinders St Store</b></h4>2/1-5 Elizabeth Street, Melbourne<br><i>convenience store, atm, bakery, finance, restaurant, food, store, point of interest, establishment</i><br><br><font color=\"gray\"><b>2.2\u2605</b> (42)</font>", "long": 144.96473, "lat": -37.8180848}, {"business_status": "OPERATIONAL", "geometry": {"location": {"lat": -37.8127732, "lng": 144.9675962}, "viewport": {"northeast": {"lat": -37.8115018697085, "lng": 144.9689661802915}, "southwest": {"lat": -37.8141998302915, "lng": 144.9662682197085}}}, "icon": "https://maps.gstatic.com/mapfiles/place_api/icons/v1/png_71/shopping-71.png", "icon_background_color": "#4B96F3", "icon_mask_base_uri": "https://maps.gstatic.com/mapfiles/place_api/icons/v2/convenience_pinlet", "name": "7-Eleven 190 Bourke St", "opening_hours": {"open_now": true}, "photos": [{"height": 5312, "html_attributions": ["<a href=\"https://maps.google.com/maps/contrib/100065741663239639061\">Christopher John Fuller (CJ)</a>"], "photo_reference": "AcYSjRhwHNUML6ad74ggzAvLgEIRrCNgE9XT0yIjeToCefXgivbSHkz8habEY_ahkxZ1Cb7hnfb3CCyDTz0o4EPdmgDMLfdfXoFWkWQaijVkpQOFBHxFQ5I2bny_DqeUb4bifTshBf6buWigKx95s3KCBmktv4d71rRdHvfiq_KqgFeqKhbj", "width": 2988}], "place_id": "ChIJbWack8lC1moRivOwG3Yco7o", "plus_code": {"compound_code": "5XP9+V2 Melbourne VIC, Australia", "global_code": "4RJ65XP9+V2"}, "rating": 3, "reference": "ChIJbWack8lC1moRivOwG3Yco7o", "scope": "GOOGLE", "types": ["convenience_store", "atm", "bakery", "finance", "restaurant", "food", "store", "point_of_interest", "establishment"], "user_ratings_total": 9, "vicinity": "190 Bourke Street, Melbourne", "primary_type": "Cafe/bakery", "types str": "convenience_store, atm, bakery, finance, restaurant, food, store, point_of_interest, establishment", "popup": "<h4><b>7-Eleven 190 Bourke St</b></h4>190 Bourke Street, Melbourne<br><i>convenience store, atm, bakery, finance, restaurant, food, store, point of interest, establishment</i><br><br><font color=\"gray\"><b>3\u2605</b> (9)</font>", "long": 144.9675962, "lat": -37.8127732}, {"business_status": "OPERATIONAL", "geometry": {"location": {"lat": -37.8135394, "lng": 144.9659861}, "viewport": {"northeast": {"lat": -37.81213556970851, "lng": 144.9671908302915}, "southwest": {"lat": -37.81483353029151, "lng": 144.9644928697085}}}, "icon": "https://maps.gstatic.com/mapfiles/place_api/icons/v1/png_71/shopping-71.png", "icon_background_color": "#4B96F3", "icon_mask_base_uri": "https://maps.gstatic.com/mapfiles/place_api/icons/v2/convenience_pinlet", "name": "7-Eleven Lower Bourke", "opening_hours": {"open_now": true}, "photos": [{"height": 2448, "html_attributions": ["<a href=\"https://maps.google.com/maps/contrib/100268266272395825144\">Devotion For Krishna</a>"], "photo_reference": "AcYSjRhxkoAwemvEkOywxt7jOH-YQwIczBSEnVQOW6FQsz_1bjwNJnBJcWREv6AjNW3yUISoC68EbKnukTnMlRrUrVtAxhO07ovC8_HT1u0j3SANkUPIX3G7QW_mjiUg9Rjqlo9lU9HW7tAGGIx2dG_4S6nRndV_YkGIu-RrrJT4454tO9D1", "width": 3264}], "place_id": "ChIJ1cUBCMpC1moRgTM6PEMAGgU", "plus_code": {"compound_code": "5XP8+H9 Melbourne VIC, Australia", "global_code": "4RJ65XP8+H9"}, "rating": 3.1, "reference": "ChIJ1cUBCMpC1moRgTM6PEMAGgU", "scope": "GOOGLE", "types": ["convenience_store", "atm", "bakery", "finance", "restaurant", "food", "store", "point_of_interest", "establishment"], "user_ratings_total": 19, "vicinity": "263 Bourke Street, Melbourne", "primary_type": "Cafe/bakery", "types str": "convenience_store, atm, bakery, finance, restaurant, food, store, point_of_interest, establishment", "popup": "<h4><b>7-Eleven Lower Bourke</b></h4>263 Bourke Street, Melbourne<br><i>convenience store, atm, bakery, finance, restaurant, food, store, point of interest, establishment</i><br><br><font color=\"gray\"><b>3.1\u2605</b> (19)</font>", "long": 144.9659861, "lat": -37.8135394}, {"business_status": "OPERATIONAL", "geometry": {"location": {"lat": -37.8216993, "lng": 144.9655108}, "viewport": {"northeast": {"lat": -37.8203208697085, "lng": 144.9669414802915}, "southwest": {"lat": -37.8230188302915, "lng": 144.9642435197085}}}, "icon": "https://maps.gstatic.com/mapfiles/place_api/icons/v1/png_71/shopping-71.png", "icon_background_color": "#4B96F3", "icon_mask_base_uri": "https://maps.gstatic.com/mapfiles/place_api/icons/v2/convenience_pinlet", "name": "7-Eleven Eureka Tower", "opening_hours": {"open_now": true}, "photos": [{"height": 3024, "html_attributions": ["<a href=\"https://maps.google.com/maps/contrib/113026606376868253830\">Andrew \u9ec4\u5ef6\u797a Huang</a>"], "photo_reference": "AcYSjRjWo6dwJzIqDvELCbJBTrLDNlqiehUy0j7ZbhRL7iSeBQ4TFFkBcfrN4fnq9FRk7T03jRW5brEzn48VCjZGBPgEGgq0G63FKVuYpXUOaT5m7ClB-UAejCNCO6T9j5uqPhBPgR4MBSqjh9wtHVN9iJneti-xaBeZDy9JJLLRqt6f0dVA", "width": 4032}], "place_id": "ChIJzY_sFLJC1moRGK1R_45Hcqc", "plus_code": {"compound_code": "5XH8+86 Southbank VIC, Australia", "global_code": "4RJ65XH8+86"}, "rating": 3.7, "reference": "ChIJzY_sFLJC1moRGK1R_45Hcqc", "scope": "GOOGLE", "types": ["convenience_store", "atm", "finance", "bakery", "restaurant", "point_of_interest", "food", "store", "establishment"], "user_ratings_total": 18, "vicinity": "Eureka Tower, G1/70 City Road, Southbank", "primary_type": "Cafe/bakery", "types str": "convenience_store, atm, finance, bakery, restaurant, point_of_interest, food, store, establishment", "popup": "<h4><b>7-Eleven Eureka Tower</b></h4>Eureka Tower, G1/70 City Road, Southbank<br><i>convenience store, atm, finance, bakery, restaurant, point of interest, food, store, establishment</i><br><br><font color=\"gray\"><b>3.7\u2605</b> (18)</font>", "long": 144.9655108, "lat": -37.8216993}, {"business_status": "OPERATIONAL", "geometry": {"location": {"lat": -37.8151276, "lng": 144.963719}, "viewport": {"northeast": {"lat": -37.8138027697085, "lng": 144.9650374802915}, "southwest": {"lat": -37.81650073029149, "lng": 144.9623395197085}}}, "icon": "https://maps.gstatic.com/mapfiles/place_api/icons/v1/png_71/gas_station-71.png", "icon_background_color": "#909CE1", "icon_mask_base_uri": "https://maps.gstatic.com/mapfiles/place_api/icons/v2/gas_pinlet", "name": "7-Eleven Melbourne", "opening_hours": {"open_now": true}, "photos": [{"height": 2448, "html_attributions": ["<a href=\"https://maps.google.com/maps/contrib/117006901914225135176\">Sonia Mitchell</a>"], "photo_reference": "AcYSjRhVF8-pi1Od52VcOcJ4XW8ApPUVFOD0FIf17timuZKlSGp2OjhGMLHknkU8MVIMg7GCzF-6Gosr-O61xPWLdhNodr8IU8V1IOHa98uEWixOT6kPYx0hsq6XvypMA34o6iecpDNXyFBX-3g7FKmO7zw3NHfGkF7wAeLSvmOd7JITiJE", "width": 3264}], "place_id": "ChIJA-02ALVC1moRV3mBRKih9uQ", "plus_code": {"compound_code": "5XM7+WF Melbourne VIC, Australia", "global_code": "4RJ65XM7+WF"}, "rating": 2.6, "reference": "ChIJA-02ALVC1moRV3mBRKih9uQ", "scope": "GOOGLE", "types": ["gas_station", "convenience_store", "atm", "finance", "bakery", "restaurant", "point_of_interest", "food", "store", "establishment"], "user_ratings_total": 16, "vicinity": "124 Elizabeth Street, Melbourne", "primary_type": "Cafe/bakery", "types str": "gas_station, convenience_store, atm, finance, bakery, restaurant, point_of_interest, food, store, establishment", "popup": "<h4><b>7-Eleven Melbourne</b></h4>124 Elizabeth Street, Melbourne<br><i>gas station, convenience store, atm, finance, bakery, restaurant, point of interest, food, store, establishment</i><br><br><font color=\"gray\"><b>2.6\u2605</b> (16)</font>", "long": 144.963719, "lat": -37.8151276}, {"business_status": "OPERATIONAL", "geometry": {"location": {"lat": -37.8126575, "lng": 144.9654464}, "viewport": {"northeast": {"lat": -37.8113358197085, "lng": 144.9667014802915}, "southwest": {"lat": -37.8140337802915, "lng": 144.9640035197085}}}, "icon": "https://maps.gstatic.com/mapfiles/place_api/icons/v1/png_71/shopping-71.png", "icon_background_color": "#4B96F3", "icon_mask_base_uri": "https://maps.gstatic.com/mapfiles/place_api/icons/v2/convenience_pinlet", "name": "7-Eleven Melb Swanston", "opening_hours": {"open_now": true}, "photos": [{"height": 3024, "html_attributions": ["<a href=\"https://maps.google.com/maps/contrib/109435730365210550503\">Sascha Becker</a>"], "photo_reference": "AcYSjRjJbY5IfVlAUWOoeGK3mT26inDeHzWD505rSqO9X6vYwItyaN-X4fGWBttLLjyLIx3TtcvHkdPN1qroKAGtqD4zK27vKzUGKqMegPMC8hh16KRXQO3_hvTd4RzQjwwTp_IkzsXIZJMcTJm4IkJac6RfxrGFMZtb4sMr6UmevUKN4K11", "width": 4032}], "place_id": "ChIJ8ar7EspC1moRnU4TGkmE_n8", "plus_code": {"compound_code": "5XP8+W5 Melbourne VIC, Australia", "global_code": "4RJ65XP8+W5"}, "rating": 2.4, "reference": "ChIJ8ar7EspC1moRnU4TGkmE_n8", "scope": "GOOGLE", "types": ["convenience_store", "atm", "finance", "bakery", "restaurant", "point_of_interest", "food", "store", "establishment"], "user_ratings_total": 10, "vicinity": "222 Swanston Street, Melbourne", "primary_type": "Cafe/bakery", "types str": "convenience_store, atm, finance, bakery, restaurant, point_of_interest, food, store, establishment", "popup": "<h4><b>7-Eleven Melb Swanston</b></h4>222 Swanston Street, Melbourne<br><i>convenience store, atm, finance, bakery, restaurant, point of interest, food, store, establishment</i><br><br><font color=\"gray\"><b>2.4\u2605</b> (10)</font>", "long": 144.9654464, "lat": -37.8126575}, {"business_status": "OPERATIONAL", "geometry": {"location": {"lat": -37.810322, "lng": 144.969528}, "viewport": {"northeast": {"lat": -37.8089978697085, "lng": 144.9707549802915}, "southwest": {"lat": -37.8116958302915, "lng": 144.9680570197085}}}, "icon": "https://maps.gstatic.com/mapfiles/place_api/icons/v1/png_71/shopping-71.png", "icon_background_color": "#4B96F3", "icon_mask_base_uri": "https://maps.gstatic.com/mapfiles/place_api/icons/v2/convenience_pinlet", "name": "7-Eleven Exhibition Street", "opening_hours": {"open_now": true}, "photos": [{"height": 3024, "html_attributions": ["<a href=\"https://maps.google.com/maps/contrib/116270298623188651586\">Martin Beales</a>"], "photo_reference": "AcYSjRiBlWm1Cp2_xkk1wWeyvhQS0cMt8LtH5GqobW24JPu-K_XxixLTP1Y-hXRpVBK2sHwaO-Ct4mLHA82orjOrhKcMPcGfQVJtyIyJ0kOs4hAMPi5ZE04M98-8vA0f5XQETsp9CZQbs0qhTQJHLnxDIOvOCwR-8ypPVULY8hnGBUQIIt8o", "width": 4032}], "place_id": "ChIJr5nq1chC1moRwjZmcSICG1g", "plus_code": {"compound_code": "5XQ9+VR Melbourne VIC, Australia", "global_code": "4RJ65XQ9+VR"}, "rating": 3.7, "reference": "ChIJr5nq1chC1moRwjZmcSICG1g", "scope": "GOOGLE", "types": ["convenience_store", "atm", "finance", "bakery", "restaurant", "point_of_interest", "food", "store", "establishment"], "user_ratings_total": 23, "vicinity": "237 Exhibition Street, Melbourne", "primary_type": "Cafe/bakery", "types str": "convenience_store, atm, finance, bakery, restaurant, point_of_interest, food, store, establishment", "popup": "<h4><b>7-Eleven Exhibition Street</b></h4>237 Exhibition Street, Melbourne<br><i>convenience store, atm, finance, bakery, restaurant, point of interest, food, store, establishment</i><br><br><font color=\"gray\"><b>3.7\u2605</b> (23)</font>", "long": 144.969528, "lat": -37.810322}, {"business_status": "OPERATIONAL", "geometry": {"location": {"lat": -37.8177849, "lng": 144.9621853}, "viewport": {"northeast": {"lat": -37.8164687697085, "lng": 144.9635708802915}, "southwest": {"lat": -37.8191667302915, "lng": 144.9608729197085}}}, "icon": "https://maps.gstatic.com/mapfiles/place_api/icons/v1/png_71/shopping-71.png", "icon_background_color": "#4B96F3", "icon_mask_base_uri": "https://maps.gstatic.com/mapfiles/place_api/icons/v2/convenience_pinlet", "name": "7-Eleven Flinders Lane", "opening_hours": {"open_now": true}, "photos": [{"height": 4032, "html_attributions": ["<a href=\"https://maps.google.com/maps/contrib/114018028110201770383\">George Forgan-Smith</a>"], "photo_reference": "AcYSjRhbNQTYqHd-8UBTIJXQCxzI9_TBek2RMfzbcDz26fgLo6V0R_Woe4WO4Nnrb4hGTKbYw20md-MkWqp8DdwtR1prqVBpzGYZ8OpAr32AUgf1pPgehbmtLZTvOay0fmxOgEVJTaldLoAHEnb6Z3t2MuhTCV4pwnGMMHaxpTXWh8j8xgbf", "width": 3024}], "place_id": "ChIJcSUDRLNC1moR4wwY0-wfIyE", "plus_code": {"compound_code": "5XJ6+VV Melbourne VIC, Australia", "global_code": "4RJ65XJ6+VV"}, "rating": 1.8, "reference": "ChIJcSUDRLNC1moR4wwY0-wfIyE", "scope": "GOOGLE", "types": ["convenience_store", "atm", "finance", "bakery", "restaurant", "point_of_interest", "food", "store", "establishment"], "user_ratings_total": 18, "vicinity": "50 Queen St & Cnr, Flinders Lane, Melbourne", "primary_type": "Cafe/bakery", "types str": "convenience_store, atm, finance, bakery, restaurant, point_of_interest, food, store, establishment", "popup": "<h4><b>7-Eleven Flinders Lane</b></h4>50 Queen St & Cnr, Flinders Lane, Melbourne<br><i>convenience store, atm, finance, bakery, restaurant, point of interest, food, store, establishment</i><br><br><font color=\"gray\"><b>1.8\u2605</b> (18)</font>", "long": 144.9621853, "lat": -37.8177849}, {"business_status": "OPERATIONAL", "geometry": {"location": {"lat": -37.8137561, "lng": 144.9626621}, "viewport": {"northeast": {"lat": -37.8123780197085, "lng": 144.9640881302915}, "southwest": {"lat": -37.8150759802915, "lng": 144.9613901697085}}}, "icon": "https://maps.gstatic.com/mapfiles/place_api/icons/v1/png_71/shopping-71.png", "icon_background_color": "#4B96F3", "icon_mask_base_uri": "https://maps.gstatic.com/mapfiles/place_api/icons/v2/convenience_pinlet", "name": "7-Eleven", "opening_hours": {"open_now": true}, "photos": [{"height": 2160, "html_attributions": ["<a href=\"https://maps.google.com/maps/contrib/115161916543124945682\">Adam G</a>"], "photo_reference": "AcYSjRgk-zQSEpJEr3ohT9Mf5AyuyLWN841_lRVepxfesiXXhOfghrxPvJnhgvuwbecFjxgv2Qsnkp9bNokgmt4NU5RZvAM0CjkTfv8fMgsOC4MU3ow1DyqQAU4EcrJX-vDs-Bx5zpEe8hAjo__-EgKrNpjU-3vKyn0tDNvqjU23o5Rz-m2Z", "width": 3840}], "place_id": "ChIJPxP9FLVC1moRH9gh2A3ppxk", "plus_code": {"compound_code": "5XP7+F3 Melbourne VIC, Australia", "global_code": "4RJ65XP7+F3"}, "rating": 2.4, "reference": "ChIJPxP9FLVC1moRH9gh2A3ppxk", "scope": "GOOGLE", "types": ["convenience_store", "atm", "finance", "bakery", "restaurant", "point_of_interest", "food", "store", "establishment"], "user_ratings_total": 30, "vicinity": "197 Elizabeth Street, Melbourne", "primary_type": "Cafe/bakery", "types str": "convenience_store, atm, finance, bakery, restaurant, point_of_interest, food, store, establishment", "popup": "<h4><b>7-Eleven</b></h4>197 Elizabeth Street, Melbourne<br><i>convenience store, atm, finance, bakery, restaurant, point of interest, food, store, establishment</i><br><br><font color=\"gray\"><b>2.4\u2605</b> (30)</font>", "long": 144.9626621, "lat": -37.8137561}, {"business_status": "OPERATIONAL", "geometry": {"location": {"lat": -37.8114734, "lng": 144.9644702}, "viewport": {"northeast": {"lat": -37.8101673697085, "lng": 144.9658727802915}, "southwest": {"lat": -37.8128653302915, "lng": 144.9631748197085}}}, "icon": "https://maps.gstatic.com/mapfiles/place_api/icons/v1/png_71/shopping-71.png", "icon_background_color": "#4B96F3", "icon_mask_base_uri": "https://maps.gstatic.com/mapfiles/place_api/icons/v2/convenience_pinlet", "name": "7-Eleven", "opening_hours": {"open_now": true}, "photos": [{"height": 4032, "html_attributions": ["<a href=\"https://maps.google.com/maps/contrib/113848907155973479370\">Ender A\u00e7\u0131kal\u0131n</a>"], "photo_reference": "AcYSjRjhUAVtVUnJmQmTbEP2mvcJpMRg63tVeKplrer2wLv1cWjcAKME4MXt6et5gYA8BlgyuZM917yCz7KB2O6IRptG6OZwf5XhdXX-c8j6JBNz_WOe27ZjkqJUswmXvLz5D-HSiuU8nniEvNtS2dFZM0z36TL_vLQSfT5QLngJ09wb0bt2", "width": 3024}], "place_id": "ChIJrfvgWspC1moRZoFWy5HF8ic", "plus_code": {"compound_code": "5XQ7+CQ Melbourne VIC, Australia", "global_code": "4RJ65XQ7+CQ"}, "rating": 3.3, "reference": "ChIJrfvgWspC1moRZoFWy5HF8ic", "scope": "GOOGLE", "types": ["convenience_store", "atm", "gas_station", "finance", "bakery", "restaurant", "point_of_interest", "food", "store", "establishment"], "user_ratings_total": 20, "vicinity": "Swanston St &, Lonsdale Street, Melbourne", "primary_type": "Cafe/bakery", "types str": "convenience_store, atm, gas_station, finance, bakery, restaurant, point_of_interest, food, store, establishment", "popup": "<h4><b>7-Eleven</b></h4>Swanston St &, Lonsdale Street, Melbourne<br><i>convenience store, atm, gas station, finance, bakery, restaurant, point of interest, food, store, establishment</i><br><br><font color=\"gray\"><b>3.3\u2605</b> (20)</font>", "long": 144.9644702, "lat": -37.8114734}, {"business_status": "OPERATIONAL", "geometry": {"location": {"lat": -37.8215113, "lng": 144.9620255}, "viewport": {"northeast": {"lat": -37.8200413197085, "lng": 144.9636933302914}, "southwest": {"lat": -37.8227392802915, "lng": 144.9609953697085}}}, "icon": "https://maps.gstatic.com/mapfiles/place_api/icons/v1/png_71/shopping-71.png", "icon_background_color": "#4B96F3", "icon_mask_base_uri": "https://maps.gstatic.com/mapfiles/place_api/icons/v2/convenience_pinlet", "name": "7-Eleven Freshwater Place", "opening_hours": {"open_now": true}, "photos": [{"height": 3024, "html_attributions": ["<a href=\"https://maps.google.com/maps/contrib/108853419411502210741\">Sean Nichols</a>"], "photo_reference": "AcYSjRhTbKXEnK858Lrp-50jlqdRWz_3Yz4XK1WjXnGD-344Vxc0rUj8LY0Fgb0503ieuovT-Rdv7m0EA3XdboOr8DRsORS2v0pbbRBFTipB0GnyJ6811-TwZ2B3D9bqoJrvaPLuNx00zqPgyUKx1xEfHqVHiDo7gN9xaYgEszh0l0kDShf7", "width": 4032}], "place_id": "ChIJ3frmVq1C1moRsfYotgyhapY", "plus_code": {"compound_code": "5XH6+9R Southbank VIC, Australia", "global_code": "4RJ65XH6+9R"}, "rating": 3, "reference": "ChIJ3frmVq1C1moRsfYotgyhapY", "scope": "GOOGLE", "types": ["convenience_store", "atm", "finance", "bakery", "restaurant", "point_of_interest", "food", "store", "establishment"], "user_ratings_total": 17, "vicinity": "1 Freshwater Place, Southbank", "primary_type": "Cafe/bakery", "types str": "convenience_store, atm, finance, bakery, restaurant, point_of_interest, food, store, establishment", "popup": "<h4><b>7-Eleven Freshwater Place</b></h4>1 Freshwater Place, Southbank<br><i>convenience store, atm, finance, bakery, restaurant, point of interest, food, store, establishment</i><br><br><font color=\"gray\"><b>3\u2605</b> (17)</font>", "long": 144.9620255, "lat": -37.8215113}, {"business_status": "OPERATIONAL", "geometry": {"location": {"lat": -37.81406630000001, "lng": 144.9656001}, "viewport": {"northeast": {"lat": -37.8126888197085, "lng": 144.9670741802915}, "southwest": {"lat": -37.8153867802915, "lng": 144.9643762197085}}}, "icon": "https://maps.gstatic.com/mapfiles/place_api/icons/v1/png_71/shopping-71.png", "icon_background_color": "#4B96F3", "icon_mask_base_uri": "https://maps.gstatic.com/mapfiles/place_api/icons/v2/convenience_pinlet", "name": "7-Eleven", "opening_hours": {"open_now": true}, "photos": [{"height": 2448, "html_attributions": ["<a href=\"https://maps.google.com/maps/contrib/117006901914225135176\">Sonia Mitchell</a>"], "photo_reference": "AcYSjRh2w6iAkhcpuWw2XThnxb2-c8tR8MRkvOQ0ZezTSl26EEseSi2lfr6V9V3MQTNu8gLrKRBIGq2LS5wVd3zMxbEuoFvPZxMUV8erm75_oGv3wLJI94KOS3Poy3jLaVkID-_Pl1F-kURsc9NOdAfhhLnnDlTuWN7RtDpQeni6ETkXKvY", "width": 3264}], "place_id": "ChIJT8T86bZC1moRLHUnChjyrck", "plus_code": {"compound_code": "5XP8+96 Melbourne VIC, Australia", "global_code": "4RJ65XP8+96"}, "rating": 3.3, "reference": "ChIJT8T86bZC1moRLHUnChjyrck", "scope": "GOOGLE", "types": ["convenience_store", "atm", "bakery", "finance", "store", "restaurant", "food", "point_of_interest", "establishment"], "user_ratings_total": 12, "vicinity": "159 Swanston Street, Melbourne", "primary_type": "Cafe/bakery", "types str": "convenience_store, atm, bakery, finance, store, restaurant, food, point_of_interest, establishment", "popup": "<h4><b>7-Eleven</b></h4>159 Swanston Street, Melbourne<br><i>convenience store, atm, bakery, finance, store, restaurant, food, point of interest, establishment</i><br><br><font color=\"gray\"><b>3.3\u2605</b> (12)</font>", "long": 144.9656001, "lat": -37.81406630000001}, {"business_status": "OPERATIONAL", "geometry": {"location": {"lat": -37.8194975, "lng": 144.9574848}, "viewport": {"northeast": {"lat": -37.8181315697085, "lng": 144.9587018802915}, "southwest": {"lat": -37.8208295302915, "lng": 144.9560039197085}}}, "icon": "https://maps.gstatic.com/mapfiles/place_api/icons/v1/png_71/shopping-71.png", "icon_background_color": "#4B96F3", "icon_mask_base_uri": "https://maps.gstatic.com/mapfiles/place_api/icons/v2/convenience_pinlet", "name": "7-Eleven 26 King St", "opening_hours": {"open_now": true}, "photos": [{"height": 4032, "html_attributions": ["<a href=\"https://maps.google.com/maps/contrib/106276422971046318121\">Surender Singh</a>"], "photo_reference": "AcYSjRjsLuxbjZyz3zYx3PiVI1vNsfaGTAc9x8c4PiJr8jz8CXjJ4InSXSOLfNU3WTeLq2kaivC5bsWwinIxrpecmcn6EWc9k0GPLQqLIInuTs6d4_sH3BOd_Yoxz1XxLkDCsK9cfwghqyUTA1OX4Sp8Ok3ONfscGxAE-OKtu7ocyCB7YPOB", "width": 3024}], "place_id": "ChIJJfqCjk1d1moRPm1sDi6nXwg", "plus_code": {"compound_code": "5XJ4+6X Melbourne VIC, Australia", "global_code": "4RJ65XJ4+6X"}, "rating": 2.7, "reference": "ChIJJfqCjk1d1moRPm1sDi6nXwg", "scope": "GOOGLE", "types": ["convenience_store", "atm", "bakery", "finance", "store", "restaurant", "food", "point_of_interest", "establishment"], "user_ratings_total": 12, "vicinity": "26 King Street, Melbourne", "primary_type": "Cafe/bakery", "types str": "convenience_store, atm, bakery, finance, store, restaurant, food, point_of_interest, establishment", "popup": "<h4><b>7-Eleven 26 King St</b></h4>26 King Street, Melbourne<br><i>convenience store, atm, bakery, finance, store, restaurant, food, point of interest, establishment</i><br><br><font color=\"gray\"><b>2.7\u2605</b> (12)</font>", "long": 144.9574848, "lat": -37.8194975}, {"business_status": "OPERATIONAL", "geometry": {"location": {"lat": -37.81736, "lng": 144.959564}, "viewport": {"northeast": {"lat": -37.81605696970851, "lng": 144.9608976802915}, "southwest": {"lat": -37.8187549302915, "lng": 144.9581997197085}}}, "icon": "https://maps.gstatic.com/mapfiles/place_api/icons/v1/png_71/shopping-71.png", "icon_background_color": "#4B96F3", "icon_mask_base_uri": "https://maps.gstatic.com/mapfiles/place_api/icons/v2/convenience_pinlet", "name": "7-Eleven Collins St", "opening_hours": {"open_now": true}, "photos": [{"height": 2044, "html_attributions": ["<a href=\"https://maps.google.com/maps/contrib/115161916543124945682\">Adam G</a>"], "photo_reference": "AcYSjRglhUh7HpnXcES6_2Na2HYV6LUEx4406V1c7EUl-4RCkgeeiNGLKFxjkVJoJHgkQUOUt-wQk38Ds00NysGiJOhCnRrf8ahp-Zyfxq4G67PSRRUm41BTi7fkAnql3kIk2mkXb2JJ4eQ--KNTvhhStE-sTewj0N5WedpvnaWLCzBPLrib", "width": 3635}], "place_id": "ChIJ7bYL60xd1moRfZWcMgOWt90", "plus_code": {"compound_code": "5XM5+3R Melbourne VIC, Australia", "global_code": "4RJ65XM5+3R"}, "rating": 2.6, "reference": "ChIJ7bYL60xd1moRfZWcMgOWt90", "scope": "GOOGLE", "types": ["convenience_store", "atm", "cafe", "bakery", "home_goods_store", "finance", "store", "restaurant", "food", "point_of_interest", "establishment"], "user_ratings_total": 10, "vicinity": "446 Collins Street, Melbourne", "primary_type": "Cafe/bakery", "types str": "convenience_store, atm, cafe, bakery, home_goods_store, finance, store, restaurant, food, point_of_interest, establishment", "popup": "<h4><b>7-Eleven Collins St</b></h4>446 Collins Street, Melbourne<br><i>convenience store, atm, cafe, bakery, home goods store, finance, store, restaurant, food, point of interest, establishment</i><br><br><font color=\"gray\"><b>2.6\u2605</b> (10)</font>", "long": 144.959564, "lat": -37.81736}, {"business_status": "OPERATIONAL", "geometry": {"location": {"lat": -37.8160079, "lng": 144.9561156}, "viewport": {"northeast": {"lat": -37.8148058697085, "lng": 144.9573837302915}, "southwest": {"lat": -37.8175038302915, "lng": 144.9546857697085}}}, "icon": "https://maps.gstatic.com/mapfiles/place_api/icons/v1/png_71/shopping-71.png", "icon_background_color": "#4B96F3", "icon_mask_base_uri": "https://maps.gstatic.com/mapfiles/place_api/icons/v2/shoppingcart_pinlet", "name": "Woolworths Metro Bourke Street", "photos": [{"height": 3024, "html_attributions": ["<a href=\"https://maps.google.com/maps/contrib/106369029714525443088\">Glen Piper</a>"], "photo_reference": "AcYSjRhBKUcr2VzPkV0VMvsAttPYN4hRpbFPPIrHjq9fbruBGc9yiixOwPrAudT0shTmEgTDZIash9XeTyKzjs8fwa8q1TWlovKGfIacr1spDIFbmvcfSTEW4lxjB7auYVbMdb7Crk6g_DUZHHXCAjSY3Js8_HlHr1C-W71vms4ACU8r4UM", "width": 4032}], "place_id": "ChIJhz6IIUxd1moRA-haZZv5ErI", "plus_code": {"compound_code": "5XM4+HC Melbourne VIC, Australia", "global_code": "4RJ65XM4+HC"},