Mode,OBJECTID,STOP_ID,STOP_NAME,LATITUDE,LONGITUDE,TICKETZONE,ROUTES_USING_STOP,SHAPE,SE_ANNO_CAD_DATA,In City Of Melbourne
TRAM,426,18087,3-Market St/Flinders St (Melbourne City),-37.8191,144.9618,1,"70,75,35",POINT (-37.81906299 144.96179688),,True
TRAM,427,18089,4-Elizabeth St/Flinders St (Melbourne City),-37.8182,144.9646,1,"70,75,35",POINT (-37.81823796 144.96462612),,True
TRAM,428,18090,5-Swanston St/Flinders St (Melbourne City),-37.8176,144.9671,1,"70,75,35",POINT (-37.81755999 144.96713208),,True
TRAM,429,18091,6-Russell St/Flinders St (Melbourne City),-37.8166,144.9705,1,"70,75,35",POINT (-37.81656396 144.97049988),,True
TRAM,430,18092,8-Spring St/Flinders St (Melbourne City),-37.8153,144.9746,1,"75,35",POINT (-37.81531899 144.97461216),,True
TRAM,431,18093,9-Lansdowne St/Wellington Pde (East Melbourne),-37.8155,144.9772,1,"75,48",POINT (-37.815453 144.97716384),,True
TRAM,432,18094,10-Jolimont Rd/Wellington Pde (East Melbourne),-37.8158,144.9798,1,"75,48",POINT (-37.81575 144.97979112),,True
TRAM,433,18095,11-Jolimont Station-MCG/Wellington Pde (East Melbourne),-37.8163,144.9848,1,"75,48",POINT (-37.81634103 144.98481888),,True
TRAM,434,18097,13-Simpson St/Wellington Pde (East Melbourne),-37.8165,144.987,1,"75,48",POINT (-37.81654002 144.98698284),,True
TRAM,435,18098,14-Punt Rd/Wellington Pde (Melbourne City),-37.8174,144.9897,1,"75,48",POINT (-37.817388 144.98967492),,True
TRAM,437,18100,13-Simpson St/Wellington Pde (East Melbourne),-37.8166,144.987,1,"75,48",POINT (-37.81660302 144.98696988),,True
TRAM,438,18102,11-Jolimont Station-MCG/Wellington Pde (East Melbourne),-37.8162,144.984,1,"75,48",POINT (-37.81624599 144.98399196),,True
TRAM,439,18103,10-Jolimont Rd/Wellington Pde (East Melbourne),-37.8158,144.9793,1,"75,48",POINT (-37.81576899 144.97932492),,True
TRAM,440,18104,9-Lansdowne St/Wellington Pde (Melbourne City),-37.8155,144.9767,1,"75,48",POINT (-37.815471 144.97666416),,True
TRAM,441,18105,8-Spring St/Flinders St (Melbourne City),-37.8155,144.9742,1,"75,35",POINT (-37.81553697 144.97417404),,True
TRAM,442,18108,7B-Rod Laver Arena/MCG Gates 1-3 (Melbourne City),-37.8196,144.9791,1,70,POINT (-37.81958697 144.97913016),,True
TRAM,443,18116,7C-MCG Gates 4-7/John Cain Arena (Melbourne City),-37.8224,144.9835,1,70,POINT (-37.82238399 144.98353008),,True
TRAM,444,18118,7D-Olympic Boulevard (Melbourne City),-37.8241,144.9869,1,70,POINT (-37.82413503 144.98685684),,True
TRAM,445,18155,7D-Olympic Boulevard (Melbourne City),-37.8238,144.9868,1,70,POINT (-37.82382696 144.986751),,True
TRAM,446,18161,7C-MCG Gates 4-7/John Cain Arena (Melbourne City),-37.8221,144.9828,1,70,POINT (-37.82213703 144.98279784),,True
TRAM,447,18172,7B-Rod Laver Arena/MCG Gates 1-3 (Melbourne City),-37.8193,144.9784,1,70,POINT (-37.81934901 144.97842096),,True
TRAM,448,18174,6-Russell St/Flinders St (Melbourne City),-37.8167,144.9702,1,"70,75,35",POINT (-37.81665702 144.97016796),,True
TRAM,449,18175,5-Swanston St/Flinders St (Melbourne City),-37.8178,144.9665,1,"70,75,35",POINT (-37.81775601 144.96649092),,True
TRAM,450,18176,4-Elizabeth St/Flinders St (Melbourne City),-37.8184,144.9643,1,"70,75,35",POINT (-37.81841202 144.96428016),,True
TRAM,451,18178,3-Market St/Flinders St (Melbourne City),-37.8193,144.9613,1,"70,75,35",POINT (-37.81930599 144.96127884),,True
TRAM,452,18179,D6-Victoria Police Centre/Flinders St (Southbank),-37.8217,144.9532,1,"70,75,35",POINT (-37.821726 144.95321484),,True
TRAM,453,18180,D5-South Wharf/Wurundjeri Way (Docklands),-37.822,144.9509,1,"70,75,35",POINT (-37.82200104 144.950913),,True
TRAM,454,18181,D4-Docklands Park/Harbour Esp (Docklands),-37.8217,144.9475,1,"70,75,35",POINT (-37.82172501 144.94750092),,True
TRAM,455,18182,D3-Stadium Precinct/Harbour Esp (Docklands),-37.8175,144.946,1,"70,75,35",POINT (-37.81746297 144.94596012),,True
TRAM,456,18183,D2-CentralPier/Harbour Esp (Docklands),-37.8142,144.9446,1,"35,70,75,86,30",POINT (-37.81424898 144.94458384),,True
TRAM,457,18184,125-Clarendon St/Whiteman St (Southbank),-37.8257,144.9567,1,"12,96,109",POINT (-37.82568798 144.95668416),,True
TRAM,458,18185,124A-Casino/MCEC/Clarendon St (Southbank),-37.8233,144.9561,1,"12,96,109",POINT (-37.82328903 144.95605704),,True
TRAM,459,18186,124-Batman Park/Spencer St (Melbourne City),-37.8216,144.9553,1,"12,96,109",POINT (-37.82155401 144.95526504),,True
TRAM,460,18187,122-Southern Cross Railway Station/Spencer St (Melbourne City),-37.8188,144.9541,1,96,POINT (-37.81876698 144.95409216),,True
TRAM,461,18189,120-Lonsdale St/Spencer St (Melbourne City),-37.8153,144.9524,1,86,POINT (-37.81531296 144.95238108),,True
TRAM,462,18190,119-La Trobe St/Spencer St (Melbourne City),-37.8134,144.9515,1,86,POINT (-37.81340496 144.95150196),,True
TRAM,463,18192,120-Lonsdale St/Spencer St (Melbourne City),-37.815,144.9523,1,86,POINT (-37.81495998 144.95231088),,True
TRAM,464,18194,122-Southern Cross Railway Station/Spencer St (Melbourne City),-37.8183,144.9537,1,96,POINT (-37.81831896 144.95371812),,True
TRAM,465,18196,124-Batman Park/Spencer St (Melbourne City),-37.8218,144.9554,1,"12,96,109",POINT (-37.82177298 144.95540616),,True
TRAM,466,18197,124A-Casino/MCEC/Clarendon St (Southbank),-37.8236,144.9563,1,"12,96,109",POINT (-37.82359098 144.95631012),,True
TRAM,467,18199,5-Bourke St/William St (Melbourne City),-37.8159,144.9582,1,58,POINT (-37.81587402 144.95825016),,True
TRAM,476,18201,7-Flagstaff Railway Station/William St (Melbourne City),-37.812,144.9565,1,58,POINT (-37.81199601 144.95651712),,True
TRAM,477,18202,8-Franklin St/William St (Melbourne City),-37.8097,144.9555,1,58,POINT (-37.80974304 144.95545404),,True
TRAM,478,18203,10-Victoria St/Peel St (West Melbourne),-37.8054,144.956,1,58,POINT (-37.805391 144.95602896),,True
TRAM,479,18204,10-Victoria St/Peel St (West Melbourne),-37.8057,144.9561,1,58,POINT (-37.80569799 144.95607684),,True
TRAM,480,18205,9-Queen Victoria Market/Peel St (North Melbourne),-37.8074,144.9558,1,58,POINT (-37.80744201 144.95577912),,True
TRAM,481,18206,9-Queen Victoria Market/39 Peel St (North Melbourne),-37.8072,144.9558,1,58,POINT (-37.80721602 144.95575104),,True
TRAM,482,18207,8-Franklin St/Peel St (Melbourne City),-37.8094,144.9555,1,58,POINT (-37.80942804 144.95547384),,True
TRAM,483,18208,7-Flagstaff Railway Station/William St (Melbourne City),-37.8125,144.9568,1,58,POINT (-37.81246104 144.956799),,True
TRAM,484,18210,5-Bourke St/William St (Melbourne City),-37.8154,144.9582,1,58,POINT (-37.81544004 144.95816016),,True
TRAM,485,18211,4-Collins St/William St (Melbourne City),-37.8175,144.9591,1,58,POINT (-37.81745703 144.95909184),,True
TRAM,486,18214,1-Flinders St/Queens Bridge St (Melbourne City),-37.8195,144.9612,1,58,POINT (-37.81951299 144.96123996),,True
TRAM,487,18215,115-Casino/Southbank/Queens Bridge St (Southbank),-37.8221,144.9612,1,58,POINT (-37.82211696 144.96122484),,True
TRAM,488,18217,117-York St/Kings Way (South Melbourne),-37.8296,144.9641,1,58,POINT (-37.82961 144.96407496),,True
TRAM,489,18218,118-Sturt St/Kings Way (Southbank),-37.8305,144.965,1,58,POINT (-37.83053601 144.96500412),,True
TRAM,494,18224,20-Kings Way/Sturt St (Southbank),-37.8301,144.9653,1,1,POINT (-37.83009096 144.96533388),,True
TRAM,495,18225,19-Miles St/Sturt St (Southbank),-37.8284,144.9658,1,1,POINT (-37.828431 144.96575508),,True
TRAM,496,18226,18-Grant St/Sturt St (Southbank),-37.8258,144.9666,1,1,POINT (-37.82577897 144.96663384),,True
TRAM,497,18227,17-Arts Precinct/Sturt St (Southbank),-37.8238,144.9673,1,1,POINT (-37.82381598 144.96725592),,True
TRAM,498,18229,17-Arts Precinct/Sturt St (Southbank),-37.8241,144.9672,1,1,POINT (-37.82409399 144.96717996),,True
TRAM,499,18230,18-Grant St/Sturt St (Southbank),-37.8259,144.9667,1,1,POINT (-37.82592396 144.96666408),,True
TRAM,500,18231,19-Miles St/Sturt St (Southbank),-37.8282,144.9661,1,1,POINT (-37.82818404 144.96605712),,True
TRAM,501,18232,20-Kings Way/Sturt St (Southbank),-37.8301,144.9654,1,1,POINT (-37.83011904 144.96539004),,True
TRAM,502,18233,116-City Rd/Kings Way (Southbank),-37.8263,144.9606,1,58,POINT (-37.82626002 144.96057684),,True
TRAM,651,18789,112-Lygon St/Elgin St (Carlton),-37.7971,144.9672,1,"6,1",POINT (-37.79711298 144.96715908),,True
TRAM,652,18790,113-Lytton St/Lygon St (Carlton),-37.7941,144.968,1,"6,1",POINT (-37.79412696 144.96802488),,True
TRAM,653,18791,114-Princes St/Lygon St (Carlton North),-37.7927,144.9683,1,"6,1",POINT (-37.79268903 144.96826896),,True
TRAM,654,18792,115-Melbourne Cemetery/Lygon St (Carlton North),-37.7896,144.9688,1,"6,1",POINT (-37.78957998 144.96879708),,True
TRAM,655,18793,116-Fenwick St/Lygon St (Carlton North),-37.7874,144.9692,1,"6,1",POINT (-37.78737003 144.96918588),,True
TRAM,658,18899,26-Alfred Hospital/Commercial Rd (South Yarra),-37.8453,144.9822,1,72,POINT (-37.84527801 144.98222508),,True
TRAM,659,18918,27-Punt Rd/Commercial Rd (South Yarra),-37.8456,144.9849,1,72,POINT (-37.84563 144.98486316),,True
TRAM,8,18524,32-Sandown Rd/Epsom Rd (Ascot Vale),-37.7827,144.9167,1,57,POINT (-37.78266798 144.91667484),,True
TRAM,9,18525,31-Racing Victoria/400 Epsom Rd (Flemington),-37.7844,144.9182,1,57,POINT (-37.78442496 144.91820412),,True
TRAM,13,18529,26-Newmarket Plaza/Racecourse Rd (Kensington),-37.7881,144.9284,1,57,POINT (-37.78807401 144.92838996),,True
TRAM,15,18531,24-Collett St/Racecourse Rd (Kensington),-37.7885,144.9335,1,57,POINT (-37.788507 144.93352212),,True
TRAM,16,18532,23-Stubbs St/Racecourse Rd (Flemington),-37.7887,144.9355,1,57,POINT (-37.78874901 144.93548016),,True
TRAM,17,18533,22-Boundary Rd/Racecourse Rd (North Melbourne),-37.7892,144.9401,1,57,POINT (-37.789209 144.94014504),,True
TRAM,18,18536,19-Abbotsford St Interchange/Abbotsford St (North Melbourne),-37.7937,144.9472,1,57,POINT (-37.79372898 144.94716288),,True
TRAM,19,18537,18-Erskine St/Abbotsford St (North Melbourne),-37.7952,144.9468,1,57,POINT (-37.79524602 144.94680288),,True
TRAM,20,18538,17-Canning St/Abbotsford St (North Melbourne),-37.7967,144.9465,1,57,POINT (-37.79671896 144.94653504),,True
TRAM,21,18539,16-Haines St/Abbotsford St (North Melbourne),-37.798,144.9463,1,57,POINT (-37.79796798 144.94631904),,True
TRAM,22,18540,15-Arden St/Abbotsford St (North Melbourne),-37.8007,144.9458,1,57,POINT (-37.80067203 144.94583484),,True
TRAM,23,18541,14-Abbotsford St/Queensberry St (North Melbourne),-37.8027,144.9458,1,57,POINT (-37.80266301 144.94580208),,True
TRAM,24,18543,23-Royal Park/Royal Park (Parkville),-37.7914,144.9493,1,58,POINT (-37.791414 144.94929408),,True
TRAM,25,18544,24-Elliott Ave/Royal Park (Parkville),-37.7879,144.9496,1,58,POINT (-37.78787799 144.94961916),,True
TRAM,26,18545,25-State Netball Hockey Centre/Royal Park (Parkville),-37.7844,144.9487,1,58,POINT (-37.78438302 144.94866984),,True
TRAM,27,18546,26-Melbourne Zoo/Royal Park (Parkville),-37.7824,144.9493,1,58,POINT (-37.78237503 144.94928184),,True
TRAM,28,18547,27-Royal Park Station/Royal Park (Parkville),-37.7809,144.9509,1,58,POINT (-37.78087203 144.95092488),,True
TRAM,29,18548,28-Park St/Royal Park (Parkville),-37.7769,144.9495,1,58,POINT (-37.77691698 144.94948992),,True
TRAM,128,18699,124-Walsh St/Toorak Rd (South Yarra),-37.8382,144.9846,1,58,POINT (-37.83818997 144.98456508),,True
TRAM,163,13401,28-Punt Rd/High St (Prahran),-37.8506,144.984,1,6,POINT (-37.85056398 144.98404704),,True
TRAM,188,16729,18-Princes Park/Royal Pde (Parkville),-37.7794,144.9599,1,19,POINT (-37.77937902 144.95993604),,True
TRAM,189,16730,17-Ievers St/Royal Pde (Parkville),-37.7819,144.9596,1,19,POINT (-37.78188804 144.95964012),,True
TRAM,190,16731,16-Visy Park/Royal Pde (Parkville),-37.7849,144.9593,1,19,POINT (-37.78485597 144.959274),,True
TRAM,191,16732,15-Leonard St/Royal Pde (Parkville),-37.7879,144.9589,1,19,POINT (-37.787931 144.95889384),,True
TRAM,192,16733,14-Macarthur Rd/Royal Pde (Parkville),-37.79,144.9586,1,19,POINT (-37.79001702 144.958644),,True
TRAM,193,16734,13-Gatehouse St/Royal Pde (Parkville),-37.7927,144.9583,1,19,POINT (-37.79267904 144.95830992),,True
TRAM,194,16735,12-Morrah St/Royal Pde (Parkville),-37.7957,144.9579,1,19,POINT (-37.79565597 144.95794416),,True
TRAM,195,16736,11-University of Melbourne/Royal Pde (Parkville),-37.7983,144.9577,1,19,POINT (-37.79827299 144.95765616),,True
TRAM,257,17328,18-Princes Park/Royal Pde (Parkville),-37.7794,144.9602,1,19,POINT (-37.77938298 144.96015204),,True
TRAM,258,17329,17-Ievers St/Royal Pde (Parkville),-37.7817,144.9598,1,19,POINT (-37.78168401 144.95983812),,True
TRAM,259,17330,16-Walker St/Royal Pde (Parkville),-37.7846,144.9595,1,19,POINT (-37.78458903 144.95950908),,True
TRAM,260,17331,15-Leonard St/Royal Pde (Parkville),-37.7877,144.9591,1,19,POINT (-37.78767396 144.95912892),,True
TRAM,261,17332,14-Cemetery Road West/Royal Pde (Parkville),-37.7897,144.9589,1,19,POINT (-37.78971498 144.95887908),,True
TRAM,262,17333,13-Gatehouse St/Royal Pde (Parkville),-37.7924,144.9585,1,19,POINT (-37.792422 144.95854392),,True
TRAM,263,17334,12-Morrah St/Royal Pde (Parkville),-37.7956,144.9582,1,19,POINT (-37.79556102 144.95817312),,True
TRAM,264,17335,11-University of Melbourne/Royal Pde (Parkville),-37.7981,144.9579,1,19,POINT (-37.79810496 144.95785416),,True
TRAM,265,17591,7-Russell St/Bourke St (Melbourne City),-37.8128,144.9684,1,"96,86",POINT (-37.81276902 144.96835392),,True
TRAM,266,17593,6-Swanston St/Bourke St (Melbourne City),-37.8135,144.9659,1,"96,86",POINT (-37.81348398 144.96590412),,True
TRAM,267,17594,5-Elizabeth St/Bourke St (Melbourne City),-37.8142,144.9635,1,"96,86",POINT (-37.81421703 144.96351012),,True
TRAM,268,17596,4-Queen St/Bourke St (Melbourne City),-37.8153,144.9598,1,"96,86",POINT (-37.81525302 144.95983488),,True
TRAM,269,17597,3-William St/Bourke St (Melbourne City),-37.8159,144.9576,1,"96,86",POINT (-37.81588203 144.95762484),,True
TRAM,276,17848,1-Spencer St/Bourke St (Melbourne City),-37.8171,144.9535,1,"96,86",POINT (-37.81706301 144.953514),,True
TRAM,277,17849,1-Spencer St/Bourke St (Melbourne City),-37.8168,144.954,1,"96,86",POINT (-37.81684602 144.95399712),,True
TRAM,278,17850,1-Flinders Street Railway Station/Elizabeth St (Melbourne City),-37.8177,144.9648,1,"57,59,19",POINT (-37.81771704 144.96476508),,True
TRAM,279,17851,2-Collins St/Elizabeth St (Melbourne City),-37.8154,144.9637,1,"57,59,19",POINT (-37.81542798 144.96366888),,True
TRAM,280,17852,3-Bourke Street Mall/Elizabeth St (Melbourne City),-37.8134,144.9628,1,"57,59,19",POINT (-37.81344699 144.96275808),,True
TRAM,281,17854,5-Melbourne Central Station/Elizabeth St (Melbourne City),-37.8106,144.9614,1,"57,59,19",POINT (-37.81055799 144.96142896),,True
TRAM,282,17856,7-Queen Victoria Market/Elizabeth St (Melbourne City),-37.8066,144.9596,1,"57,59,19",POINT (-37.806561 144.95957388),,True
TRAM,283,17857,8-Peel St/Victoria St (Melbourne City),-37.8059,144.9562,1,57,POINT (-37.80593496 144.95621796),,True
TRAM,284,17858,9-William St/Victoria St (Melbourne City),-37.8057,144.9539,1,57,POINT (-37.805688 144.95390784),,True
TRAM,285,17859,10-Chetwynd St/Victoria St (Melbourne City),-37.8055,144.9524,1,57,POINT (-37.805517 144.95239116),,True
TRAM,286,17860,11-Errol St/Victoria St (Melbourne City),-37.8052,144.9494,1,57,POINT (-37.80519597 144.949446),,True
TRAM,287,17861,11-Victoria St/Errol St (North Melbourne),-37.805,144.9493,1,57,POINT (-37.804959 144.94933908),,True
TRAM,288,17862,10-Chetwynd St/Victoria St (Melbourne City),-37.8054,144.952,1,57,POINT (-37.80540297 144.95203008),,True
TRAM,289,17863,9-Howard St/Victoria St (Melbourne City),-37.8056,144.9535,1,57,POINT (-37.80556398 144.95350212),,True
TRAM,290,17864,8-Peel St/Victoria St (Melbourne City),-37.8058,144.9557,1,57,POINT (-37.80581004 144.95574384),,True
TRAM,291,17866,9-Pelham St/Elizabeth St (Melbourne City),-37.8019,144.9575,1,"59,19",POINT (-37.80194697 144.95746392),,True
TRAM,292,17867,10-Royal Melbourne Hospital/Royal Pde (Melbourne City),-37.7999,144.9574,1,19,POINT (-37.799901 144.95744088),,True
TRAM,293,17868,10-Royal Melbourne Hospital/Royal Pde (Parkville),-37.7996,144.9577,1,19,POINT (-37.79957997 144.95766516),,True
TRAM,294,17869,9-Pelham St/Elizabeth St (Melbourne City),-37.8021,144.9577,1,"59,19",POINT (-37.80214803 144.957663),,True
TRAM,295,17871,7-Queen Victoria Market/Elizabeth St (Melbourne City),-37.8069,144.9598,1,"57,59,19",POINT (-37.80689004 144.95984892),,True
TRAM,296,17873,5-Melbourne Central Station/Elizabeth St (Melbourne City),-37.8111,144.9618,1,"57,59,19",POINT (-37.81110501 144.96177816),,True
TRAM,297,17875,3-Bourke Street Mall/Elizabeth St (Melbourne City),-37.814,144.9631,1,"57,59,19",POINT (-37.81403901 144.96312816),,True
TRAM,298,17876,2-Collins St/Elizabeth St (Melbourne City),-37.8159,144.964,1,"57,59,19",POINT (-37.81592901 144.96399612),,True
TRAM,299,17877,1-Flinders Street Railway Station/Elizabeth St (Melbourne City),-37.8179,144.9648,1,"57,59,19",POINT (-37.81789902 144.96483996),,True
TRAM,301,17880,10-Albert St/Nicholson St (Fitzroy),-37.8097,144.9729,1,"86,96,35",POINT (-37.80967599 144.97294896),,True
TRAM,302,17882,9-Spring St/Bourke St (Melbourne City),-37.8115,144.9726,1,"96,86",POINT (-37.81154403 144.97257888),,True
TRAM,303,17885,3-William St/Bourke St (Melbourne City),-37.8157,144.9579,1,"96,86",POINT (-37.81570599 144.95791392),,True
TRAM,304,17886,4-Queen St/Bourke St (Melbourne City),-37.8151,144.9601,1,"96,86",POINT (-37.81512198 144.96005412),,True
TRAM,305,17887,5-Elizabeth St/Bourke St (Melbourne City),-37.814,144.9637,1,"96,86",POINT (-37.814031 144.96368508),,True
TRAM,306,17888,6-Swanston St/Bourke St (Melbourne City),-37.8133,144.9664,1,"96,86",POINT (-37.813266 144.96637608),,True
TRAM,307,17889,7-Russell St/Bourke St (Melbourne City),-37.8125,144.9692,1,"96,86",POINT (-37.81246797 144.96916896),,True
TRAM,309,17891,9-Spring St/Bourke St (Melbourne City),-37.8115,144.9724,1,"96,86",POINT (-37.81152297 144.97241004),,True
TRAM,310,17892,10-Albert St/Nicholson St (East Melbourne),-37.8094,144.9729,1,"86,96,35",POINT (-37.809423 144.97289892),,True
TRAM,311,17894,11-Melbourne Museum/Nicholson St (Fitzroy),-37.8057,144.9735,1,"96,86",POINT (-37.80567603 144.97354584),,True
TRAM,312,17895,12-St Vincents Plaza/Victoria Pde (East Melbourne),-37.8083,144.9761,1,"11,12,30,109",POINT (-37.80828 144.97613316),,True
TRAM,313,17896,11-Albert St/Gisborne St (East Melbourne),-37.8094,144.9757,1,"11,12,109",POINT (-37.80938997 144.97572816),,True
TRAM,314,17897,10-Parliament Railway Station/Macarthur St (East Melbourne),-37.8124,144.9745,1,"11,12,109",POINT (-37.81237896 144.97448796),,True
TRAM,315,17898,8-Spring St/Collins St (Melbourne City),-37.8136,144.9733,1,"11,12,48,109",POINT (-37.81355697 144.97328484),,True
TRAM,316,17901,6-Melbourne Town Hall/Collins St (Melbourne City),-37.8157,144.966,1,"11,12,48,109",POINT (-37.81567404 144.96595704),,True
TRAM,317,17902,5-Elizabeth St/Collins St (Melbourne City),-37.8164,144.9634,1,"11,12,48,109",POINT (-37.81642302 144.96340392),,True
TRAM,318,17903,3-William St/Collins St (Melbourne City),-37.8176,144.9594,1,"11,12,48,109",POINT (-37.81760697 144.95942916),,True
TRAM,319,17905,1-Spencer St/Collins St (Melbourne City),-37.8188,144.9551,1,"11,12,48,109",POINT (-37.81884699 144.95505516),,True
TRAM,320,17906,1-Spencer St/Collins St (Melbourne City),-37.8187,144.9552,1,"11,12,48,109",POINT (-37.81874097 144.95518296),,True
TRAM,321,17908,3-William St/Collins St (Melbourne City),-37.8174,144.9599,1,"11,12,48,109",POINT (-37.81737198 144.959913),,True
TRAM,322,17910,5-Elizabeth St/Collins St (Melbourne City),-37.8162,144.9639,1,"11,12,48,109",POINT (-37.81620603 144.963864),,True
TRAM,323,17911,6-Melbourne Town Hall/Collins St (Melbourne City),-37.8155,144.9663,1,"11,12,48,109",POINT (-37.81551798 144.96627996),,True
TRAM,324,17914,8-Spring St/Collins St (Melbourne City),-37.8134,144.9735,1,"11,12,48,109",POINT (-37.81341603 144.97348212),,True
TRAM,325,17915,10-Parliament Railway Station/Macarthur St (East Melbourne),-37.8122,144.9744,1,"11,12,109",POINT (-37.81216998 144.97436808),,True
TRAM,366,17958,22-Boundary Rd/Racecourse Rd (North Melbourne),-37.7891,144.9399,1,57,POINT (-37.78913097 144.939852),,True
TRAM,367,17959,20-Melrose St/Flemington Rd (North Melbourne),-37.7904,144.9435,1,"59,57",POINT (-37.79039403 144.94348512),,True
TRAM,368,17961,19-Abbotsford St Interchange/Abbotsford St (North Melbourne),-37.7941,144.9471,1,57,POINT (-37.79410599 144.94709592),,True
TRAM,369,18006,11-Albert St/Gisborne St (East Melbourne),-37.8097,144.9756,1,"11,12,109",POINT (-37.80969498 144.97560612),,True
TRAM,370,18009,10-Nicholson St/Victoria Pde (East Melbourne),-37.808,144.9736,1,30,POINT (-37.808019 144.97356204),,True
TRAM,371,18010,9-La Trobe St/Victoria St (Melbourne City),-37.8076,144.971,1,"35,30",POINT (-37.807614 144.97097184),,True
TRAM,372,18011,8-Exhibition St/La Trobe St (Melbourne City),-37.8081,144.969,1,"35,30",POINT (-37.80810297 144.96902712),,True
TRAM,373,18030,6-Swanston St/La Trobe St (Melbourne City),-37.8096,144.9641,1,"35,30",POINT (-37.80954999 144.96408108),,True
TRAM,374,18031,5-Elizabeth St/La Trobe St (Melbourne City),-37.8103,144.9616,1,"35,30",POINT (-37.81029096 144.961596),,True
TRAM,375,18032,4-Queen St/La Trobe St (Melbourne City),-37.811,144.9591,1,"35,30",POINT (-37.81100502 144.95912208),,True
TRAM,376,18033,3-William St/La Trobe St (Melbourne City),-37.8117,144.9567,1,"35,30",POINT (-37.81171098 144.956718),,True
TRAM,377,18035,1-Spencer St/La Trobe St (Melbourne City),-37.8131,144.9518,1,"35,30",POINT (-37.81311201 144.95176008),,True
TRAM,378,18037,D10-New Quay Prom/Docklands Dr (Docklands),-37.8138,144.9405,1,"70,86,35",POINT (-37.81378098 144.94050792),,True
TRAM,379,18038,D11-Waterfront City/Docklands Dr (Docklands),-37.8143,144.9388,1,"70,86,35",POINT (-37.81434501 144.938754),,True
TRAM,380,18039,D10-NewQuay Prom/Docklands Dr (Docklands),-37.8133,144.9415,1,"70,86,35",POINT (-37.81331199 144.94150908),,True
TRAM,381,18040,D1-Stadium Precinct/La Trobe St (Docklands),-37.8146,144.9464,1,"35,86,30",POINT (-37.81457802 144.946404),,True
TRAM,382,18041,119-Spencer St/La Trobe St (Melbourne City),-37.8132,144.9512,1,"35,86,30",POINT (-37.81321101 144.951201),,True
TRAM,383,18042,2-King St/La Trobe St (Melbourne City),-37.8125,144.9537,1,"35,30",POINT (-37.81248003 144.95373216),,True
TRAM,384,18043,3-William St/La Trobe St (Melbourne City),-37.8118,144.9561,1,"35,30",POINT (-37.81179099 144.95613588),,True
TRAM,385,18044,4-Queen St/La Trobe St (Melbourne City),-37.8111,144.9587,1,"35,30",POINT (-37.811061 144.95871204),,True
TRAM,386,18045,5-Elizabeth St/La Trobe St (Melbourne City),-37.8104,144.9611,1,"35,30",POINT (-37.81035504 144.96111684),,True
TRAM,387,18046,6-Swanston St/La Trobe St (Melbourne City),-37.8096,144.9635,1,"35,30",POINT (-37.80964701 144.96346512),,True
TRAM,388,18047,7-Russell St/La Trobe St (Melbourne City),-37.8089,144.9661,1,"35,30",POINT (-37.80890901 144.96609816),,True
TRAM,389,18048,8-Exhibition St/La Trobe St (Melbourne City),-37.8082,144.9685,1,"35,30",POINT (-37.80818496 144.96853716),,True
TRAM,390,18049,9-Victoria St/La Trobe St (Melbourne City),-37.8077,144.9703,1,"35,30",POINT (-37.80765603 144.97026588),,True
TRAM,391,18050,10-Nicholson St/Victoria Pde (Carlton),-37.8078,144.9728,1,"35,30",POINT (-37.80783603 144.97283988),,True
TRAM,393,18052,D2-Central Pier/Harbour Esp (Docklands),-37.8147,144.9449,1,"35,70,75,86,30",POINT (-37.81470501 144.944901),,True
TRAM,394,18053,D3-Stadium Precinct/Harbour Esp (Docklands),-37.8178,144.9462,1,"70,75,35",POINT (-37.81781901 144.94624596),,True
TRAM,395,18054,D4-Docklands Park/Harbour Esp (Docklands),-37.8215,144.9476,1,"70,75,35",POINT (-37.82146599 144.94761),,True
TRAM,396,18055,D5-South Wharf/Wurundjeri Way (Docklands),-37.8218,144.9512,1,"70,75,35",POINT (-37.82183499 144.95121288),,True
TRAM,397,18056,D6-Flinders Street West/Flinders St (Docklands),-37.8215,144.9536,1,"70,75,35",POINT (-37.82147103 144.95360796),,True
TRAM,398,18057,18-Chapman St/Abbotsford St (North Melbourne),-37.795,144.9469,1,57,POINT (-37.79496 144.94694688),,True
TRAM,399,18058,17-Molesworth St/Abbotsford St (North Melbourne),-37.7963,144.9467,1,57,POINT (-37.79630703 144.94669416),,True
TRAM,400,18059,16-Haines St/Abbotsford St (North Melbourne),-37.7983,144.9463,1,57,POINT (-37.79828397 144.94634388),,True
TRAM,401,18060,15-Arden St/Abbotsford St (North Melbourne),-37.801,144.9458,1,57,POINT (-37.80099702 144.94584888),,True
TRAM,402,18061,14-Queensberry St/Abbotsford St (North Melbourne),-37.8024,144.9456,1,57,POINT (-37.80239004 144.94562784),,True
TRAM,403,18063,23-Royal Park/Royal Park (Parkville),-37.7914,144.9494,1,58,POINT (-37.79137998 144.94939704),,True
TRAM,404,18064,24-Elliott Ave/Royal Park (Parkville),-37.788,144.9498,1,58,POINT (-37.78801596 144.94975092),,True
TRAM,405,18065,25-State Netball Hockey Centre/Royal Park (Parkville),-37.7845,144.9488,1,58,POINT (-37.78453899 144.94884804),,True
TRAM,406,18066,26-Melbourne Zoo/Royal Park (Parkville),-37.7826,144.9492,1,58,POINT (-37.78261704 144.94921884),,True
TRAM,407,18067,27-Royal Park Station/Royal Park (Parkville),-37.7808,144.9514,1,58,POINT (-37.78075296 144.95136012),,True
TRAM,408,18068,28-Park St/Royal Park (Parkville),-37.7772,144.95,1,58,POINT (-37.77724098 144.94996908),,True
TRAM,1196,20482,15-Murphy St/Flemington Rd (North Melbourne),-37.7975,144.9524,1,"59,58",POINT (-37.79748801 144.95238504),,True
TRAM,1197,20490,12-Flemington Rd/Peel St (North Melbourne),-37.8014,144.9567,1,58,POINT (-37.80138402 144.95672988),,True
TRAM,1198,20491,12-Flemington Rd/Peel St (North Melbourne),-37.8015,144.9568,1,58,POINT (-37.801548 144.95680512),,True
TRAM,1199,20492,11-Queensberry St/Peel St (North Melbourne),-37.8036,144.9564,1,58,POINT (-37.80362304 144.95644116),,True
TRAM,1200,20493,11-Queensberry St/Peel St (North Melbourne),-37.8033,144.9564,1,58,POINT (-37.80330696 144.95639292),,True
TRAM,1254,4125,126-City Rd/Clarendon St (South Melbourne),-37.8272,144.9579,1,12,POINT (-37.82722302 144.95786892),,True
TRAM,1308,20979,0-Bourke St/Spring St (Melbourne City),-37.8117,144.9732,1,35,POINT (-37.811664 144.97324596),,True
TRAM,1310,20981,D1-Stadium Precinct/La Trobe St (Docklands),-37.8146,144.9467,1,"35,86,30",POINT (-37.81456596 144.94674492),,True
TRAM,833,19133,26-Alfred Hospital/Commercial Rd (Prahran),-37.8454,144.9823,1,72,POINT (-37.84536099 144.98231292),,True
TRAM,836,19250,13-Curzon St/Queensberry St (North Melbourne),-37.8028,144.9479,1,57,POINT (-37.802826 144.94794408),,True
TRAM,837,19251,12-North Melbourne Town Hall/Queensberry St (North Melbourne),-37.803,144.9494,1,57,POINT (-37.80298701 144.94940496),,True
TRAM,838,19253,14-Royal Melbourne Hospital/Flemington Rd (Parkville),-37.7995,144.9549,1,"59,58",POINT (-37.799478 144.95488596),,True
TRAM,839,19254,16-Harker St/Flemington Rd (Parkville),-37.7964,144.9511,1,"59,58",POINT (-37.79641899 144.95105196),,True
TRAM,840,19256,19-Royal Childrens Hospital/Flemington Rd (North Melbourne),-37.7943,144.9484,1,"59,58",POINT (-37.79428203 144.94836312),,True
TRAM,841,19259,22-Flemington Bridge Station/Flemington Rd (North Melbourne),-37.7883,144.9409,1,59,POINT (-37.78827597 144.940932),,True
TRAM,875,19304,125-Port Junction/79 Whiteman St (Southbank),-37.8261,144.9562,1,"12,96,109",POINT (-37.82607597 144.95620788),,True
TRAM,886,19322,124-Walsh St/Toorak Rd (South Yarra),-37.838,144.9845,1,58,POINT (-37.83802797 144.98453592),,True
TRAM,887,19323,125-Punt Rd/Toorak Rd (South Yarra),-37.8382,144.9863,1,58,POINT (-37.83821004 144.98626896),,True
TRAM,902,19340,112-Lygon St/Elgin St (Carlton),-37.797,144.9664,1,"6,1",POINT (-37.79702703 144.96635484),,True
TRAM,903,19341,113-Lytton St/Lygon St (Carlton),-37.7941,144.9681,1,"6,1",POINT (-37.79413803 144.96812712),,True
TRAM,931,19369,125A-Southbank Tram Depot/Light Rail (South Melbourne),-37.8275,144.954,1,"12,109",POINT (-37.82745297 144.95398812),,True
TRAM,937,19377,16-Wellington St/Victoria Pde (Collingwood),-37.8093,144.9861,1,"12,109",POINT (-37.80927099 144.98613612),,True
TRAM,1385,21231,1-Spencer St/Flinders St (Melbourne City),-37.8208,144.9559,1,"70,75,35",POINT (-37.82083401 144.95585292),,True
TRAM,1386,21232,1-Spencer St/Flinders St (Melbourne City),-37.8211,144.9554,1,"70,75,35",POINT (-37.821051 144.95538096),,True
TRAM,1387,21233,2-Melbourne Aquarium/Flinders St (Melbourne City),-37.8203,144.9578,1,"70,75,35",POINT (-37.82031003 144.95782104),,True
TRAM,1388,21234,2-Melbourne Aquarium/Flinders St (Melbourne City),-37.8201,144.9582,1,"70,75,35",POINT (-37.82010897 144.95821308),,True
TRAM,1399,22152,7-Exhibition St/Collins St (Melbourne City),-37.8142,144.9707,1,"11,12,48,109",POINT (-37.81421496 144.97071192),,True
TRAM,1400,22153,7-Exhibition St/Collins St (Melbourne City),-37.8144,144.9705,1,"11,12,48,109",POINT (-37.81438299 144.97051392),,True
TRAM,1407,22612,116-City Rd/Kings Way (Southbank),-37.8263,144.9608,1,58,POINT (-37.82629998 144.96080292),,True
TRAM,1408,22903,7A-William Barak Bridge/Melbourne Park (Melbourne City),-37.8182,144.9762,1,70,POINT (-37.81816704 144.97620408),,True
TRAM,1409,22904,7A-William Barak Bridge/Melbourne Park (Melbourne City),-37.8183,144.9758,1,70,POINT (-37.81832301 144.975825),,True
TRAM,587,18450,115-Casino East/Queens Bridge St (Southbank),-37.8217,144.9612,1,58,POINT (-37.82171097 144.96122484),,True
TRAM,601,18465,1-Flinders St/Queens Bridge St (Melbourne City),-37.8194,144.9611,1,58,POINT (-37.81942902 144.96110604),,True
TRAM,602,18466,2-Flinders Lane/Market St (Melbourne City),-37.8185,144.9607,1,58,POINT (-37.81853901 144.96069816),,True
TRAM,603,18467,3-William St/Flinders Lane (Melbourne City),-37.8186,144.9598,1,58,POINT (-37.81863999 144.95977584),,True
TRAM,605,18469,4-Collins St/William St (Melbourne City),-37.8178,144.9592,1,58,POINT (-37.81781901 144.95917284),,True
TRAM,1110,19691,7-RMIT University/Swanston St (Melbourne City),-37.8078,144.9629,1,"16,3/3a,5,6,64,67,72,1",POINT (-37.80779904 144.96286788),,True
TRAM,1111,19693,4-Queensberry St/Swanston St (Carlton),-37.8051,144.9631,1,"16,3/3a,5,6,64,67,72,1",POINT (-37.80513504 144.96311196),,True
TRAM,1112,19694,3-Lincoln Square/Swanston St (Carlton),-37.8026,144.9636,1,"16,3/3a,5,6,64,67,72,1",POINT (-37.80262899 144.96355512),,True
TRAM,1113,19696,1-Melbourne University/Swanston St (Carlton),-37.7988,144.9642,1,"16,3/3a,5,6,64,67,72,1",POINT (-37.79876601 144.96424092),,True
TRAM,1116,19699,15-Murphy St/Flemington Rd (North Melbourne),-37.7976,144.9524,1,"59,58",POINT (-37.79758701 144.95239404),,True
TRAM,1136,19721,125A-Southbank Tram Depot/Light Rail (South Melbourne),-37.8277,144.9537,1,"12,109",POINT (-37.82769102 144.95370912),,True
TRAM,1141,19726,13-Lansdowne St/Victoria Pde (East Melbourne),-37.8086,144.9788,1,"12,109",POINT (-37.80855099 144.97880616),,True
TRAM,1142,19728,15-Smith St/Victoria Pde (East Melbourne),-37.8089,144.9822,1,"12,109",POINT (-37.80892503 144.982215),,True
TRAM,1143,19729,16-Wellington St/Victoria Pde (East Melbourne),-37.8093,144.9857,1,"12,109",POINT (-37.80929196 144.98573796),,True
TRAM,1144,19731,18-Hoddle St/Victoria Pde (Collingwood),-37.8098,144.9904,1,"12,109",POINT (-37.80979497 144.99041508),,True
TRAM,1439,6059,12-Moor St/Nicholson St (Fitzroy),-37.8019,144.9742,1,96,POINT (-37.80189396 144.97423992),,True
TRAM,1440,6061,13-Johnston St/Nicholson St (Fitzroy),-37.7984,144.9748,1,96,POINT (-37.798407 144.97481304),,True
TRAM,1478,6133,12-Moor St/Nicholson St (Fitzroy),-37.8016,144.9742,1,96,POINT (-37.80158697 144.97423704),,True
TRAM,1479,6135,13-Johnston St/Nicholson St (Carlton),-37.7976,144.9749,1,96,POINT (-37.79761599 144.97494804),,True
TRAM,1480,6136,14-Rose St/Nicholson St (Carlton),-37.7952,144.9753,1,96,POINT (-37.79524404 144.97531884),,True
TRAM,1568,4324,126-City Rd/Clarendon St (South Melbourne),-37.8281,144.9583,1,12,POINT (-37.82806002 144.95834592),,True
TRAM,1573,43472,D14-Southern Cross Station/Collins St (Docklands),-37.8197,144.9522,1,"48,11",POINT (-37.81968102 144.95221512),,True
TRAM,1574,43473,D15-Batman's Hill/Collins St (Docklands),-37.8203,144.9501,1,"48,11",POINT (-37.82026602 144.95013108),,True
TRAM,1575,43474,D17-Merchant St/Collins St (Docklands),-37.8215,144.9454,1,"48,11",POINT (-37.82152701 144.94541616),,True
TRAM,1576,43475,D16-Harbour Esp/Collins St (Docklands),-37.8208,144.948,1,"48,11",POINT (-37.82079702 144.94803804),,True
TRAM,1577,43476,D15-Batman's Hill/Collins St (Docklands),-37.8201,144.9505,1,"48,11",POINT (-37.82007396 144.95047704),,True
TRAM,1578,43477,D14-Southern Cross Station/Collins St (Docklands),-37.8195,144.9526,1,"48,11",POINT (-37.81947096 144.952596),,True
TRAM,1579,43480,D16-Harbour Esp/Collins St (Docklands),-37.8209,144.9481,1,"48,11",POINT (-37.820862 144.94813812),,True
TRAM,1652,47493,D18-Bourke St/Collins St (Docklands),-37.8208,144.942,1,"48,11",POINT (-37.82080098 144.942039),,True
TRAM,1654,49999,22-Toorak Rd/St Kilda Rd (Melbourne City),-37.8358,144.9754,1,58,POINT (-37.83575196 144.97535988),,True
TRAM,1655,52112,123-Fawkner Park/Toorak Rd (South Yarra),-37.8376,144.9807,1,58,POINT (-37.83762 144.98070588),,True
TRAM,1656,52113,123-Fawkner Park/Toorak Rd (South Yarra),-37.8376,144.981,1,58,POINT (-37.83763404 144.98104716),,True
TRAM,1016,19466,8-Richmond Station/Swan St (Cremorne),-37.8245,144.9884,1,70,POINT (-37.82453202 144.98843616),,True
TRAM,1031,19489,1-Melbourne University/Swanston St (Carlton),-37.7993,144.9642,1,"16,3/3a,5,6,64,67,72,1",POINT (-37.79930502 144.96419196),,True
TRAM,1032,19491,3-Lincoln Square/Swanston St (Carlton),-37.8024,144.9637,1,"16,3/3a,5,6,64,67,72,1",POINT (-37.80236997 144.96368688),,True
TRAM,1033,19492,4-Queensberry St/Swanston St (Carlton),-37.8057,144.9631,1,"16,3/3a,5,6,64,67,72,1",POINT (-37.80569403 144.963108),,True
TRAM,1034,19494,7-RMIT University/Swanston St (Melbourne City),-37.8081,144.9633,1,"16,3/3a,5,6,64,67,72,1",POINT (-37.80813897 144.96329016),,True
TRAM,1035,19495,8-Melbourne Central Station/Swanston St (Melbourne City),-37.8104,144.9643,1,"16,3/3a,5,6,64,67,72,1",POINT (-37.81038204 144.96427404),,True
TRAM,1036,19497,10-Bourke Street Mall/Swanston St (Melbourne City),-37.8132,144.9656,1,"16,3/3a,5,6,64,67,72,1",POINT (-37.81319904 144.96558192),,True
TRAM,1037,19498,11-City Square/Swanston St (Melbourne City),-37.8164,144.967,1,"16,3/3a,5,6,64,67,72,1",POINT (-37.81637802 144.96701688),,True
TRAM,1038,19499,13-Federation Square/Swanston St (Melbourne City),-37.8185,144.968,1,"16,3/3a,5,6,64,67,72,1",POINT (-37.81847601 144.96798204),,True
TRAM,1039,19500,14-Arts Precinct/St Kilda Rd (Southbank),-37.8218,144.9695,1,"16,3/3a,5,6,64,67,72,1",POINT (-37.82184597 144.96951384),,True
TRAM,1040,19502,17-Grant St-Police Memorial/St Kilda Rd (Southbank),-37.8242,144.9705,1,"3/3a,5,6,64,67,72,16",POINT (-37.82416896 144.97047288),,True
TRAM,1041,19504,19-Shrine of Remembrance/St Kilda Rd (Melbourne City),-37.8288,144.9714,1,"3/3a,5,6,64,67,72,16",POINT (-37.82879901 144.97136892),,True
TRAM,1044,19539,23-Arthur St/St Kilda Rd (Melbourne City),-37.8389,144.9766,1,"3/3a,5,6,64,67,72,16",POINT (-37.83885498 144.97656984),,True
TRAM,1045,19560,24-Leopold St/St Kilda Rd (South Melbourne),-37.8412,144.9774,1,"3/3a,5,6,64,67,72,16",POINT (-37.84115898 144.97740504),,True
TRAM,1046,19561,25-Commercial Rd/St Kilda Rd (South Melbourne),-37.8445,144.9786,1,"3/3a,5,6,64,67,72,16",POINT (-37.844523 144.97863084),,True
TRAM,1047,19562,26-Moubray St/St Kilda Rd (South Melbourne),-37.8476,144.9797,1,"3/3a,5,6,64,67,16",POINT (-37.84755204 144.97971912),,True
TRAM,1048,19563,27-High St/St Kilda Rd (South Melbourne),-37.8499,144.9806,1,"3/3a,5,6,64,67,16",POINT (-37.84986396 144.98055396),,True
TRAM,1055,19572,26-Beatrice St/St Kilda Rd (Melbourne City),-37.8479,144.9798,1,"3/3a,5,6,64,67,16",POINT (-37.84789503 144.97975512),,True
TRAM,1059,19589,13-Curzon St/Queensberry St (North Melbourne),-37.8029,144.9484,1,57,POINT (-37.80294201 144.94836204),,True
TRAM,1060,19590,12-North Melbourne Town Hall/Errol St (North Melbourne),-37.8032,144.9495,1,57,POINT (-37.80322398 144.94953492),,True
TRAM,1061,19591,14-Royal Melbourne Hospital/Flemington Rd (North Melbourne),-37.7998,144.9552,1,"59,58",POINT (-37.79982603 144.95520492),,True
TRAM,1062,19592,16-Harker St/Flemington Rd (North Melbourne),-37.7968,144.9514,1,"59,58",POINT (-37.79675802 144.95136012),,True
TRAM,1063,19594,19-Royal Childrens Hospital/Flemington Rd (North Melbourne),-37.7941,144.9481,1,"59,58",POINT (-37.794141 144.94806),,True
TRAM,1064,19595,20-Melrose St/Flemington Rd (North Melbourne),-37.7905,144.9435,1,"59,57",POINT (-37.79047404 144.94345992),,True
TRAM,1065,19597,22-Flemington Bridge Station/Flemington Rd (North Melbourne),-37.7881,144.9406,1,59,POINT (-37.78805403 144.94060908),,True
TRAM,1102,19678,20-Park Street/St Kilda Rd (Melbourne City),-37.8321,144.9717,1,"3/3a,5,6,64,67,72,16",POINT (-37.83205701 144.97165404),,True
TRAM,1103,19679,19-Shrine of Remembrance/St Kilda Rd (Melbourne City),-37.8289,144.9712,1,"3/3a,5,6,64,67,72,16",POINT (-37.82893104 144.97122888),,True
TRAM,1104,19681,17-Grant St-Police Memorial/St Kilda Rd (Southbank),-37.8246,144.9708,1,"3/3a,5,6,64,67,72,16",POINT (-37.82463399 144.97080084),,True
TRAM,1105,19684,14-Arts Precinct/St Kilda Rd (Southbank),-37.8215,144.9692,1,"16,3/3a,5,6,64,67,72,1",POINT (-37.82151702 144.96923916),,True
TRAM,1106,19685,13-Federation Square/Swanston St (Melbourne City),-37.8181,144.9677,1,"16,3/3a,5,6,64,67,72,1",POINT (-37.81806498 144.96767496),,True
TRAM,1107,19686,11-City Square/Swanston St (Melbourne City),-37.8157,144.9666,1,"16,3/3a,5,6,64,67,72,1",POINT (-37.81573002 144.96656904),,True
TRAM,1108,19687,10-Bourke Street Mall/Swanston St (Melbourne City),-37.8128,144.9652,1,"16,3/3a,5,6,64,67,72,1",POINT (-37.81275903 144.96518484),,True
TRAM,1109,19689,8-Melbourne Central Station/Swanston St (Melbourne City),-37.8099,144.9639,1,"16,3/3a,5,6,64,67,72,1",POINT (-37.80988902 144.96388992),,True
TRAIN,146,19970,Royal Park Railway Station (Parkville),-37.7812,144.9523,1,Upfield,POINT (-37.78119297 144.95230116),,True
TRAIN,148,19972,Macaulay Railway Station (North Melbourne),-37.7943,144.9362,1,Upfield,POINT (-37.794267 144.93616596),,True
TRAIN,149,19973,North Melbourne Railway Station (West Melbourne),-37.8074,144.9426,1,"Flemington,Sunbury,Upfield,Werribee,Williamstown,Craigieburn",POINT (-37.80741897 144.94257),,True
TRAIN,155,19979,Jolimont-MCG Railway Station (East Melbourne),-37.8165,144.9841,1,"Mernda,Hurstbridge",POINT (-37.81652697 144.98409816),,True
TRAIN,195,20026,South Kensington Railway Station (Kensington),-37.7995,144.9255,1,"Williamstown,Werribee",POINT (-37.79953101 144.92546892),,True
TRAIN,207,20041,Kensington Railway Station (Kensington),-37.7938,144.9305,1,Craigieburn,POINT (-37.79378001 144.93052404),,True
TRAIN,209,22180,Southern Cross Railway Station (Melbourne City),-37.8179,144.9514,1,"Belgrave,Craigieburn,Cranbourne,Flemington,Frankston,Glen Waverley,Hurstbridge,Lilydale,Mernda,Pakenham,Sandringham,Sunbury,Upfield,Werribee,Williamstown,Alamein",POINT (-37.81793601 144.95141088),,True
TRAIN,17,19841,Flagstaff Railway Station (Melbourne City),-37.812,144.9557,1,"Belgrave,Craigieburn,Cranbourne,Flemington,Glen Waverley,Hurstbridge,Lilydale,Mernda,Pakenham,Sunbury,Upfield,Alamein",POINT (-37.81198098 144.95565384),,True
TRAIN,18,19842,Melbourne Central Railway Station (Melbourne City),-37.8099,144.9626,1,"Belgrave,Craigieburn,Cranbourne,Flemington,Glen Waverley,Hurstbridge,Lilydale,Mernda,Pakenham,Sunbury,Upfield,Alamein",POINT (-37.80993897 144.96259392),,True
TRAIN,19,19843,Parliament Railway Station (Melbourne City),-37.8111,144.9729,1,"Belgrave,Craigieburn,Cranbourne,Flemington,Glen Waverley,Hurstbridge,Lilydale,Mernda,Pakenham,Sunbury,Upfield,Alamein",POINT (-37.81105398 144.97291116),,True
TRAIN,30,19854,Flinders Street Railway Station (Melbourne City),-37.8183,144.967,1,"Belgrave,Craigieburn,Cranbourne,Flemington,Frankston,Glen Waverley,Hurstbridge,Lilydale,Mernda,Pakenham,Sandringham,Sunbury,Upfield,Werribee,Williamstown,Alamein",POINT (-37.81830501 144.96696396),,True
BUS,1300,1092,Alexandra Ave/Punt Rd (South Yarra),-37.8309,144.9878,1,246,POINT (-37.83086397 144.98776404),,True
BUS,3264,1397,Epsom Rd/Smithfield Rd (Kensington),-37.7895,144.9224,1,404,POINT (-37.78953696 144.92238696),,True
BUS,3272,1398,Gatehouse Dr/Smithfield Rd (Kensington),-37.7913,144.9197,1,404,POINT (-37.79133696 144.91970208),,True
BUS,5142,1781,Nicholson St/Elgin St (Fitzroy),-37.798,144.9743,1,"207,200",POINT (-37.797984 144.974313),,True
BUS,5404,16830,Melbourne University/Royal Pde (Parkville),-37.7984,144.9579,1,"546,505",POINT (-37.79843004 144.95785596),,True
BUS,5405,16831,Cemetery Rd/College Cres (Parkville),-37.792,144.9612,1,546,POINT (-37.79199 144.96118992),,True
BUS,5406,16832,Rathdowne St/Princes St (Carlton),-37.7926,144.9708,1,546,POINT (-37.79262504 144.97081416),,True
BUS,5407,16833,Lygon St/Cemetery Rd (Carlton),-37.7929,144.9677,1,546,POINT (-37.79291403 144.96770592),,True
BUS,5744,20160,Victoria St/Rathdowne St (Carlton),-37.8069,144.969,1,402,POINT (-37.80685098 144.96901596),,True
BUS,5976,1880,Rathdowne St/Elgin St (Carlton),-37.7976,144.9709,1,"207,200",POINT (-37.79761896 144.97092684),,True
BUS,6871,19656,Flinders St/Queens Bridge St (Melbourne City),-37.8195,144.9611,1,"236,234",POINT (-37.81945602 144.96105996),,True
BUS,6873,19668,Stanley St/Spencer St (West Melbourne),-37.8087,144.9487,1,216,POINT (-37.80867096 144.94873716),,True
BUS,6661,20836,Southern Cross Coach Terminal/Spencer St (Melbourne City),-37.8151,144.9511,"1,6",684,POINT (-37.815084 144.95114916),,True
BUS,6493,20458,Flinders Lane/Queen St (Melbourne City),-37.8181,144.962,1,605,POINT (-37.81809297 144.96200604),,True
BUS,6494,20459,Flinders Lane/Queen St (Melbourne City),-37.8177,144.9618,1,"220,234,236,216",POINT (-37.817685 144.96182388),,True
BUS,6496,20460,Collins St/Queen St (Melbourne City),-37.8166,144.9613,1,"309,303",POINT (-37.81664802 144.96129612),,True
BUS,6497,20461,Little Collins St/Queen St (Melbourne City),-37.8162,144.9611,1,"207,250,251,350,200",POINT (-37.81617597 144.96110388),,True
BUS,6498,20462,Bourke St/Queen St (Melbourne City),-37.8153,144.9607,1,"220,232,234,235,236,000,000",POINT (-37.81526796 144.96069816),,True
BUS,6499,20463,Bourke St/Queen St (Melbourne City),-37.8145,144.9604,1,"207,250,251,303,309,000,000",POINT (-37.81453203 144.96036588),,True
BUS,6500,20464,Bourke St/Queen St (Melbourne City),-37.8145,144.9603,1,605,POINT (-37.81446804 144.96032196),,True
BUS,6501,20465,Lonsdale St/Queen St (Melbourne City),-37.8134,144.9598,1,"220,232,234,235,236,000,000",POINT (-37.81336896 144.95982984),,True
BUS,6502,20466,La Trobe St/Queen St (Melbourne City),-37.8117,144.9591,1,"232,234,235,236,237,000",POINT (-37.81169802 144.95906916),,True
BUS,6503,20468,Queen Victoria Market/Franklin St (Melbourne City),-37.8095,144.9562,1,"232,234,235,236,237,000,000",POINT (-37.80949401 144.95618808),,True
BUS,6504,20469,Queen Victoria Market/Peel St (Melbourne City),-37.8093,144.9555,1,220,POINT (-37.80933003 144.95553396),,True
BUS,6506,20470,William St/A'Beckett St (Melbourne City),-37.8105,144.9563,1,"232,234,235,236,237,000",POINT (-37.81048797 144.956331),,True
BUS,6507,20471,La Trobe St/Queen St (Melbourne City),-37.8106,144.9588,1,"232,234,235,236,237,000",POINT (-37.81060398 144.95884992),,True
BUS,6508,20472,Lonsdale St/Queen St (Melbourne City),-37.8125,144.9597,1,"232,234,235,236,237,000",POINT (-37.81254798 144.95972688),,True
BUS,6509,20473,Little Bourke St/Queen St (Melbourne City),-37.8138,144.9603,1,"207,250,251,303,309,000,000",POINT (-37.81379196 144.96029496),,True
BUS,6510,20474,Bourke St/Queen St (Melbourne City),-37.8146,144.9607,1,"220,234,236,605,216",POINT (-37.81462797 144.96068088),,True
BUS,6511,20475,Little Collins St/Queen St (Melbourne City),-37.8157,144.9612,1,"207,232,235,237,250,000,000,000,000,000",POINT (-37.81568196 144.96117516),,True
BUS,6512,20477,Casino East/Queens Bridge St (Southbank),-37.8221,144.9612,1,"236,605,234",POINT (-37.82208996 144.96121404),,True
BUS,6514,20480,Kavanagh St/Southbank Bvd (Southbank),-37.8231,144.9658,1,605,POINT (-37.82309697 144.96577596),,True
BUS,6515,20487,Victorian College of the Arts/Southbank Bvd (Southbank),-37.8237,144.9682,1,605,POINT (-37.82370699 144.96824808),,True
BUS,6516,20488,City Rd/Southbank Bvd (Southbank),-37.8231,144.9647,1,605,POINT (-37.82312199 144.96465096),,True
BUS,6517,20489,Casino East/Queens Bridge St (Southbank),-37.8217,144.9613,1,"236,605,234",POINT (-37.82169396 144.96125904),,True
BUS,6777,19249,Old Melbourne Gaol/Russell St (Melbourne City),-37.8075,144.9656,1,"207,200",POINT (-37.80749502 144.965637),,True
BUS,6802,19507,Jeffcott St/Spencer St (West Melbourne),-37.8119,144.951,1,216,POINT (-37.81189098 144.95099904),,True
BUS,6803,19508,Dudley St/Spencer St (West Melbourne),-37.8098,144.9499,1,216,POINT (-37.80980901 144.949932),,True
BUS,6804,19509,Dudley St/Spencer St (West Melbourne),-37.8105,144.95,1,216,POINT (-37.81049598 144.950049),,True
BUS,6805,19510,Jeffcott St/Spencer St (West Melbourne),-37.8118,144.9507,1,216,POINT (-37.81181403 144.95068296),,True
BUS,6806,19513,Spencer St/Dudley St (West Melbourne),-37.81,144.9506,1,220,POINT (-37.80999198 144.95059692),,True
BUS,6807,19514,King St/Dudley St (West Melbourne),-37.8093,144.952,1,220,POINT (-37.80929601 144.95203584),,True
BUS,6808,19515,William St/Dudley St (West Melbourne),-37.8087,144.9546,1,220,POINT (-37.80870102 144.95463108),,True
BUS,6809,19519,Banana Alley Vaults/Flinders St (Melbourne City),-37.8192,144.9619,1,"236,605,234",POINT (-37.81915596 144.96194304),,True
BUS,6810,19522,Market St/Flinders St (Melbourne City),-37.819,144.9618,1,605,POINT (-37.81897299 144.96180012),,True
BUS,6811,19527,Little Lonsdale St/Russell St (Melbourne City),-37.8096,144.9665,1,"207,200",POINT (-37.80957402 144.96648804),,True
BUS,6812,19529,Trades Hall/Lygon St (Carlton),-37.8066,144.966,1,"207,200",POINT (-37.80664596 144.96604596),,True
BUS,6813,19531,La Trobe St/Russell St (Melbourne City),-37.8086,144.9663,1,"207,200",POINT (-37.80857898 144.96631092),,True
BUS,6814,19540,Little Lonsdale St/Exhibition St (Melbourne City),-37.8088,144.969,1,"251,250",POINT (-37.80884097 144.96896196),,True
BUS,6815,19541,Spring St/Lonsdale St (Melbourne City),-37.8097,144.9713,1,"303,304,305,309,318,000,000,000,000,000,000",POINT (-37.80972 144.97132284),,True
BUS,6816,19542,Exhibition St/Lonsdale St (Melbourne City),-37.8104,144.9689,1,"251,302,303,304,305,000,000,000,000,000,000,000,000",POINT (-37.81044396 144.96886116),,True
BUS,6817,19545,Melbourne Central/Lonsdale St (Melbourne City),-37.8116,144.965,1,"207,250,251,302,303,000,000,000,000,000,000,000,000,000,000",POINT (-37.81156698 144.965025),,True
BUS,6818,19546,Supreme Court/Lonsdale St (Melbourne City),-37.8139,144.957,1,"318,905,906,907,908,000",POINT (-37.81389798 144.95702112),,True
BUS,6819,19547,Lonsdale St/Spencer St (Melbourne City),-37.8148,144.9521,1,216,POINT (-37.81482102 144.95207688),,True
BUS,6820,19548,Spencer St/Lonsdale St (Melbourne City),-37.8142,144.9553,1,216,POINT (-37.81420101 144.95529708),,True
BUS,6821,19549,King St/Lonsdale St (Melbourne City),-37.8143,144.9551,1,"304,305,318,905,906,000,000,000",POINT (-37.81428804 144.95512392),,True
BUS,6823,19550,County Court/Lonsdale St (Melbourne City),-37.8135,144.9579,1,"302,304,305,318,905,000,000,000,000",POINT (-37.81345302 144.95787396),,True
BUS,6824,19551,Hardware Lane/Lonsdale St (Melbourne City),-37.8126,144.9606,1,"207,250,251,302,303,000,000,000,000,000,000,000,000,000,000",POINT (-37.812636 144.96064488),,True
BUS,6825,19554,Swanston St/Lonsdale St (Melbourne City),-37.8113,144.9653,1,"304,305,309,318,905,000,000,000,000",POINT (-37.81131003 144.96528204),,True
BUS,6826,19555,Tattersalls Lane/Lonsdale St (Melbourne City),-37.8113,144.9652,1,"309,906,907,908,303",POINT (-37.81132704 144.96520212),,True
BUS,6827,19558,Exhibition St/Lonsdale St (Melbourne City),-37.8098,144.9703,1,"303,304,305,309,318,000,000,000,000,000,000",POINT (-37.809828 144.97025184),,True
BUS,6834,19584,Stanley St/Spencer St (West Melbourne),-37.8082,144.9486,1,216,POINT (-37.80822699 144.94861296),,True
BUS,6835,19585,Hawke St/Spencer St (West Melbourne),-37.8069,144.9467,1,216,POINT (-37.80685998 144.94672008),,True
BUS,6836,19586,Abbotsford St/Spencer St (West Melbourne),-37.8059,144.9446,1,216,POINT (-37.80590301 144.94455396),,True
BUS,6837,19587,Dryburgh St/Spencer St (West Melbourne),-37.8056,144.9434,1,216,POINT (-37.80565002 144.94343688),,True
BUS,6838,19588,Hawke St/Spencer St (West Melbourne),-37.8074,144.9473,1,216,POINT (-37.80739296 144.94730688),,True
BUS,7042,2131,Faraday St/Lygon St (Carlton),-37.7989,144.9673,1,"207,200",POINT (-37.79893602 144.96733692),,True
BUS,6924,21056,Todd Rd/Wharf Rd (Port Melbourne),-37.8279,144.9089,1,"606,235",POINT (-37.82793096 144.90889308),,True
BUS,6926,2111,Lygon St/Elgin St (Carlton),-37.7973,144.968,1,"207,200",POINT (-37.79729802 144.96797196),,True
BUS,17099,7425,Dynon Rd/Kensington Rd (West Melbourne),-37.8005,144.9168,1,402,POINT (-37.800504 144.91676484),,True
BUS,18094,41068,Adderley St/Dudley St (West Melbourne),-37.8108,144.9484,1,220,POINT (-37.81083699 144.94840416),,True
BUS,18095,41069,Festival Hall/Dudley St (West Melbourne),-37.811,144.9474,1,220,POINT (-37.81103499 144.94735404),,True
BUS,18100,41078,Waterfront City/Footscray Rd (West Melbourne),-37.8118,144.9411,1,220,POINT (-37.81183599 144.94109508),,True
BUS,13909,45647,Mercy Health Aged Care/William St (Parkville),-37.7762,144.9398,1,505,POINT (-37.77617997 144.93975804),,True
BUS,13910,45648,Auckland Lane/Cade Way (Parkville),-37.7782,144.939,1,505,POINT (-37.77814998 144.93902184),,True
BUS,13911,45649,Parkville Ave/Garrard St (Parkville),-37.7792,144.9413,1,505,POINT (-37.77916302 144.94132116),,True
BUS,13913,45650,Royal Melb Hosp Royal Park/Poplar Rd (Parkville),-37.779,144.9467,1,505,POINT (-37.77904098 144.94673988),,True
BUS,13914,45651,Royal Park Station/Poplar Rd (Parkville),-37.7807,144.9509,1,505,POINT (-37.78065396 144.95085108),,True
BUS,13915,45652,Melbourne Zoo/Poplar Rd (Parkville),-37.7833,144.9548,1,505,POINT (-37.78330896 144.95477508),,True
BUS,13916,45653,Princes Park/Royal Pde (Parkville),-37.7854,144.9598,1,505,POINT (-37.78540497 144.95979312),,True
BUS,13917,45654,Royal Melbourne Hospital/Royal Pde (Parkville),-37.7977,144.9576,1,505,POINT (-37.79774001 144.95760216),,True
BUS,13918,45655,Princes Park/Royal Pde (Parkville),-37.785,144.9591,1,505,POINT (-37.784979 144.95910084),,True
BUS,13919,45656,Melbourne Zoo/Poplar Rd (Parkville),-37.7836,144.9549,1,505,POINT (-37.78357302 144.95494896),,True
BUS,13920,45657,Royal Park Station/Poplar Rd (Parkville),-37.7806,144.9507,1,505,POINT (-37.78061499 144.95069412),,True
BUS,13921,45658,Royal Melb Hosp Royal Park/Poplar Rd (Parkville),-37.7791,144.9466,1,505,POINT (-37.779093 144.94656888),,True
BUS,15046,3814,Sims St/Dynon Rd (West Melbourne),-37.8015,144.9137,1,"402,216",POINT (-37.801521 144.91366992),,True
BUS,16412,48728,Collins Square/Batmans Hill Dr (Docklands),-37.8212,144.949,1,"235,237,232",POINT (-37.82115702 144.94902696),,True
BUS,16413,48729,Batmans Hill Dr/Collins St (Docklands),-37.8204,144.9491,1,"235,237,232",POINT (-37.82043801 144.94911516),,True
BUS,16417,4874,Fishermans Bend/Wharf Rd (Port Melbourne),-37.8291,144.9071,1,"606,235",POINT (-37.82907 144.907065),,True
BUS,16420,4875,Todd Rd/Wharf Rd (Port Melbourne),-37.8278,144.9088,1,"606,235",POINT (-37.82782197 144.90882792),,True
BUS,16421,4876,Wirraway Dr/Todd Rd (Port Melbourne),-37.8262,144.9115,1,"606,235",POINT (-37.82624697 144.91150812),,True
BUS,16422,48761,Anderson St/Alexandra Ave (South Yarra),-37.8284,144.9854,1,605,POINT (-37.82838996 144.98535492),,True
BUS,16424,4877,Sabre Dr/Lorimer St (Port Melbourne),-37.8247,144.9066,1,237,POINT (-37.82467404 144.906633),,True
BUS,16425,4878,Canberra St/Lorimer St (Port Melbourne),-37.8273,144.9028,1,237,POINT (-37.82732697 144.90281988),,True
BUS,16426,4879,Sardine St/Lorimer St (Port Melbourne),-37.8295,144.9011,1,237,POINT (-37.82953098 144.90107604),,True
BUS,15139,40645,North Melbourne Station/Dryburgh St (West Melbourne),-37.8068,144.9426,1,401,POINT (-37.80680697 144.94264416),,True
BUS,15140,40647,Lincoln Square/Bouverie St (Carlton),-37.802,144.9623,1,402,POINT (-37.80198603 144.96233508),,True
BUS,17604,7450,Altona St/Kensington Rd (Kensington),-37.7962,144.9242,1,402,POINT (-37.79621001 144.92418804),,True
BUS,17605,7451,Derby St/Kensington Rd (Kensington),-37.7952,144.926,1,402,POINT (-37.79520498 144.92597616),,True
BUS,17606,7452,Kensington Station/Macaulay Rd (Kensington),-37.7944,144.9295,1,402,POINT (-37.79442 144.92951892),,True
BUS,17607,7453,Albermarle St/Macaulay Rd (Kensington),-37.7949,144.9338,1,402,POINT (-37.79492796 144.93379716),,True
BUS,17608,7454,Macaulay Station/Macaulay Rd (North Melbourne),-37.7952,144.9363,1,402,POINT (-37.79519697 144.936288),,True
BUS,17609,7455,Boundary Rd/Canning St (North Melbourne),-37.7955,144.9392,1,402,POINT (-37.79550999 144.93924288),,True
BUS,17610,7456,Melrose St/Canning St (North Melbourne),-37.7958,144.9413,1,402,POINT (-37.79581698 144.94130208),,True
BUS,17611,7457,Dryburgh St/Haines St (North Melbourne),-37.7984,144.9446,1,402,POINT (-37.79837001 144.94459284),,True
BUS,17612,7458,Abbotsford St/Haines St (North Melbourne),-37.7986,144.9468,1,402,POINT (-37.79860698 144.94678884),,True
BUS,17613,7459,Curzon St/Haines St (North Melbourne),-37.7989,144.9492,1,402,POINT (-37.79888301 144.949212),,True
BUS,17615,7460,O'Shanassy St/Errol St (North Melbourne),-37.7999,144.9501,1,402,POINT (-37.79989902 144.95010408),,True
BUS,17616,7461,Dowling Pl/Wreckyn St (North Melbourne),-37.801,144.9534,1,402,POINT (-37.80104697 144.95342292),,True
BUS,17617,7465,Swanston St/Grattan St (Carlton),-37.8006,144.9645,1,402,POINT (-37.80057303 144.96453216),,True
BUS,17618,7466,Lygon St/Grattan St (Carlton),-37.8008,144.9665,1,402,POINT (-37.80076896 144.96651396),,True
BUS,17619,7467,Rathdowne St/Grattan St (Carlton),-37.8011,144.9694,1,402,POINT (-37.801089 144.96937884),,True
BUS,9932,51570,Melbourne University/Pelham St (Carlton),-37.802,144.9603,1,"402,403,401",POINT (-37.80204201 144.96034608),,True
BUS,9933,51572,Melbourne University/Grattan St (Carlton),-37.8001,144.9621,1,402,POINT (-37.80011601 144.96207984),,True
BUS,9934,51573,Royal Melbourne Hospital/Flemington Rd (North Melbourne),-37.8002,144.9553,1,402,POINT (-37.80017901 144.955332),,True
BUS,9941,51581,Royal Melbourne Hospital/Grattan St (Parkville),-37.7994,144.9556,1,402,POINT (-37.79940897 144.95562612),,True
BUS,9942,51582,Melbourne University/Grattan St (Parkville),-37.8001,144.9617,1,546,POINT (-37.80008199 144.96166116),,True
BUS,13922,45659,Parkville Ave/Garrard St (Parkville),-37.7789,144.9408,1,505,POINT (-37.77894801 144.94084992),,True
BUS,13924,45660,Auckland Lane/Cade Way (Parkville),-37.7784,144.9393,1,505,POINT (-37.77841602 144.93928716),,True
BUS,13925,45661,Mercy Health Aged Care/William St (Parkville),-37.7762,144.9397,1,505,POINT (-37.77616998 144.93967812),,True
BUS,17697,4880,Sardine St/Lorimer St (Port Melbourne),-37.83,144.9005,1,237,POINT (-37.82998098 144.90052884),,True
BUS,17699,4881,Canberra St/Lorimer St (Port Melbourne),-37.827,144.9029,1,237,POINT (-37.82694996 144.90287604),,True
BUS,17706,4882,Sabre Dr/Lorimer St (Port Melbourne),-37.8245,144.9065,1,237,POINT (-37.82451897 144.90653508),,True
BUS,17708,4883,DST Group/Lorimer St (Port Melbourne),-37.8219,144.9134,1,"237,606,235",POINT (-37.82187396 144.91340316),,True
BUS,17709,4884,Bayside Ave/Lorimer St (Port Melbourne),-37.8213,144.9164,1,"237,606,235",POINT (-37.82126898 144.91639692),,True
BUS,17710,4885,Westside Ave/Lorimer St (Port Melbourne),-37.8209,144.919,1,"237,606,235",POINT (-37.82087397 144.91902096),,True
BUS,17716,4886,715 Lorimer St (Port Melbourne),-37.8207,144.9247,1,237,POINT (-37.82067804 144.924741),,True
BUS,17719,4887,Hall St/Lorimer St (Port Melbourne),-37.8209,144.9271,1,237,POINT (-37.82092698 144.92713104),,True
BUS,17721,4888,Graham St/Lorimer St (Port Melbourne),-37.8215,144.9303,1,237,POINT (-37.82147904 144.93034188),,True
BUS,17724,4889,Ingles St/Lorimer St (Port Melbourne),-37.8219,144.9325,1,237,POINT (-37.82193102 144.93246516),,True
BUS,17726,4890,Rogers St/Lorimer St (Port Melbourne),-37.8227,144.9364,1,237,POINT (-37.82272896 144.93637296),,True
BUS,17727,4891,Hartley St/Lorimer St (Southbank),-37.8237,144.941,1,237,POINT (-37.82368503 144.94102704),,True
BUS,17728,4892,West Gate Fwy/Lorimer St (Southbank),-37.8251,144.9451,1,237,POINT (-37.82507103 144.94505616),,True
BUS,17729,4895,Lorimer St/Salmon St (Port Melbourne),-37.8214,144.9209,1,"606,235",POINT (-37.82142099 144.92089116),,True
BUS,17730,4896,Turner St/Salmon St (Port Melbourne),-37.8237,144.9216,1,"606,235",POINT (-37.82373201 144.92162196),,True
BUS,17731,4897,Phillip Ct/Salmon St (Port Melbourne),-37.8259,144.9223,1,"606,235",POINT (-37.82588796 144.92229984),,True
BUS,12443,5918,Moonee Ponds Creek/Footscray Rd (West Melbourne),-37.8101,144.937,1,220,POINT (-37.810125 144.93703104),,True
BUS,10185,6525,Turner St/Salmon St (Port Melbourne),-37.8237,144.9215,1,"606,235",POINT (-37.82373804 144.92145096),,True
BUS,10186,6526,Lorimer St/Salmon St (Port Melbourne),-37.8224,144.921,1,"606,235",POINT (-37.82240496 144.92102292),,True
BUS,10187,653,Clarendon St/City Rd (Southbank),-37.8282,144.9575,1,"236,234",POINT (-37.82823498 144.95751216),,True
BUS,10188,6530,West Gate Fwy/Lorimer St (Southbank),-37.8253,144.9452,1,237,POINT (-37.825308 144.94521996),,True
BUS,10189,6531,Hartley St/Lorimer St (Southbank),-37.8236,144.9395,1,237,POINT (-37.82355903 144.93946284),,True
BUS,10190,6532,Rogers St/Lorimer St (Port Melbourne),-37.8231,144.9371,1,237,POINT (-37.823121 144.93710088),,True
BUS,10191,6533,Ingles St/Lorimer St (Port Melbourne),-37.8222,144.933,1,237,POINT (-37.82222001 144.93300192),,True
BUS,10192,6534,Graham St/Lorimer St (Port Melbourne),-37.8216,144.9299,1,237,POINT (-37.82156202 144.92994192),,True
BUS,10193,6535,Hall St/Lorimer St (Port Melbourne),-37.821,144.9257,1,237,POINT (-37.82095596 144.92571012),,True
BUS,10194,6536,Salmon St/Lorimer St (Port Melbourne),-37.8209,144.9215,1,237,POINT (-37.82088999 144.921474),,True
BUS,10195,6537,Westside Ave/Lorimer St (Port Melbourne),-37.8211,144.9186,1,"237,606,235",POINT (-37.82110896 144.91856016),,True
BUS,10196,6538,Bayside Ave/Lorimer St (Port Melbourne),-37.8215,144.9162,1,"237,606,235",POINT (-37.82145501 144.91618704),,True
BUS,10197,6539,DST Group/Lorimer St (Port Melbourne),-37.8221,144.9133,1,"237,606,235",POINT (-37.82206998 144.91327284),,True
BUS,10198,654,City Rd/Queens Bridge St (Southbank),-37.8256,144.9602,1,"236,234",POINT (-37.82555199 144.96024384),,True
BUS,10204,6546,Wirraway Dr/Todd Rd (Port Melbourne),-37.8254,144.9116,1,"606,235",POINT (-37.82541096 144.91159992),,True
BUS,10207,655,Exhibition Building/Rathdowne St (Carlton),-37.8043,144.9695,1,"251,402,250",POINT (-37.80429903 144.96947208),,True
BUS,10220,657,Carlton Gardens/Rathdowne St (Carlton),-37.8015,144.9699,1,"251,402,250",POINT (-37.80147798 144.96994692),,True
BUS,10230,658,Elgin St/Rathdowne St (Carlton),-37.7979,144.9705,1,"251,250",POINT (-37.79790102 144.97053408),,True
BUS,10237,659,Pitt St/Rathdowne St (Carlton),-37.7959,144.9709,1,"251,250",POINT (-37.79587998 144.97089516),,True
BUS,10243,660,Carlton Baths/Rathdowne St (Carlton),-37.7938,144.9713,1,"251,250",POINT (-37.79381304 144.97125912),,True
BUS,10246,6608,Opp 330 Dynon Rd (West Melbourne),-37.8021,144.9201,1,216,POINT (-37.80214803 144.92008008),,True
BUS,10247,6609,Freight Terminal/Dynon Rd (West Melbourne),-37.8027,144.9251,1,216,POINT (-37.80270603 144.92514204),,True
BUS,10249,6611,Lloyd St/Dynon Rd (West Melbourne),-37.8032,144.9299,1,216,POINT (-37.80324 144.92988612),,True
BUS,10250,6612,Radcliffe St/Dynon Rd (West Melbourne),-37.8038,144.9324,1,216,POINT (-37.80383499 144.93242412),,True
BUS,10251,6617,Punt Rd/Commercial Rd (South Yarra),-37.8457,144.9846,1,"604,603",POINT (-37.84572396 144.98456508),,True
BUS,10802,41373,North Melbourne Station/Dryburgh St (West Melbourne),-37.8069,144.9427,1,401,POINT (-37.80694296 144.942651),,True
BUS,16562,51140,Melbourne Girls Grammar/Anderson St (South Yarra),-37.8322,144.9842,1,605,POINT (-37.83216402 144.98418384),,True
BUS,16563,51141,Domain Rd/Birdwood Ave (South Yarra),-37.8338,144.9826,1,605,POINT (-37.83381201 144.98257104),,True
BUS,16564,51142,Melbourne Observatory/Birdwood Ave (Melbourne City),-37.8298,144.9742,1,605,POINT (-37.82984796 144.97421508),,True
BUS,16565,51143,Little Lonsdale St/Queen St (Melbourne City),-37.8118,144.9591,1,605,POINT (-37.81178901 144.95913504),,True
BUS,16566,51145,Shrine of Remembrance/Birdwood Ave (Melbourne City),-37.8297,144.9743,1,605,POINT (-37.82969703 144.97432092),,True
BUS,16567,51146,Domain Rd/Birdwood Ave (South Yarra),-37.8338,144.9824,1,605,POINT (-37.83375603 144.98242488),,True
BUS,16568,51147,Melbourne Girls Grammar/Anderson St (South Yarra),-37.8313,144.9842,1,605,POINT (-37.83131703 144.98420688),,True
BUS,12744,50835,Carlton Gardens/Victoria St (Carlton),-37.8075,144.9712,1,402,POINT (-37.80748296 144.97117992),,True
BUS,13422,87,Melbourne University/Swanston St (Carlton),-37.8001,144.9639,1,546,POINT (-37.80012096 144.96390792),,True
BUS,15844,48555,Alfred Hospital/Commercial Rd (Prahran),-37.8453,144.9813,1,"604,603",POINT (-37.84527198 144.98132688),,True
BUS,17436,3935,Footscray Rd (West Melbourne),-37.8078,144.92,1,220,POINT (-37.80776196 144.92003688),,True
BUS,17437,3939,Moonee Ponds Creek/386 Footscray Rd (West Melbourne),-37.8098,144.9374,1,220,POINT (-37.80984303 144.93741408),,True
BUS,15207,40798,Melbourne Central/Lonsdale St (Melbourne City),-37.8116,144.9642,1,"207,250,251,350,200",POINT (-37.81159803 144.96419484),,True
BUS,15208,40799,Collins St/Queen St (Melbourne City),-37.8165,144.9616,1,"220,234,236,216",POINT (-37.81654497 144.96157116),,True
BUS,9968,46457,Morrah St/Royal Pde (Parkville),-37.7955,144.9579,1,505,POINT (-37.79552898 144.95789016),,True
BUS,9969,46458,The Avenue/Royal Pde (Parkville),-37.7918,144.9583,1,505,POINT (-37.79182296 144.95832216),,True
BUS,9971,46460,Trinity College/Royal Pde (Parkville),-37.7958,144.9582,1,"546,505",POINT (-37.79577801 144.95823612),,True
BUS,10877,41730,Queen St/Lonsdale St (Melbourne City),-37.8133,144.9592,1,"304,305,318,905,906,000,000,000",POINT (-37.81326897 144.95921892),,True
BUS,10073,5781,Flemington Racecourse/Fisher Pde (Flemington),-37.7894,144.9037,1,472,POINT (-37.78944003 144.90368712),,True
BUS,10280,7636,Perce White Reserve/Todd Rd (Port Melbourne),-37.8382,144.9151,1,236,POINT (-37.83818898 144.91514808),,True
BUS,8399,2380,Argyle Square/Lygon St (Carlton),-37.8025,144.9667,1,"207,200",POINT (-37.80251199 144.96672708),,True
BUS,8038,22928,Nicholson St/Princes St (Carlton),-37.7931,144.975,1,546,POINT (-37.79313903 144.97500204),,True
BUS,11787,44828,Melbourne University/Pelham St (Carlton),-37.802,144.9591,1,505,POINT (-37.80199296 144.95908716),,True
BUS,9529,47721,Cromwell St/Victoria Pde (East Melbourne),-37.8099,144.9893,1,"303,304,305,309,318,000,000,000,000,000,000",POINT (-37.80992997 144.98932104),,True
BUS,9530,47722,Clarendon St/Victoria Pde (East Melbourne),-37.8092,144.9829,1,"303,304,305,309,318,000,000,000,000,000,000",POINT (-37.809234 144.98292204),,True
BUS,9531,47723,Eye & Ear Hospital/Victoria Pde (East Melbourne),-37.8086,144.9772,1,"303,304,305,309,318,000,000,000,000,000,000,000",POINT (-37.80860499 144.97721496),,True
BUS,14269,43717,Elizabeth St/Lonsdale St (Melbourne City),-37.8125,144.9618,1,"207,250,251,302,303,000,000,000,000,000,000,000,000,000,000",POINT (-37.81251099 144.96178392),,True
BUS,14270,43718,King St/Lonsdale St (Melbourne City),-37.8143,144.9558,1,"304,305,318,905,906,000,000,000",POINT (-37.81425501 144.95580684),,True
BUS,14332,50837,Royal Australasian College of Surgeons/Victoria Pde (East Melbourne),-37.8081,144.9725,1,"303,304,305,309,318,000,000,000,000,000,000",POINT (-37.80809199 144.97253784),,True
BUS,17939,39650,College Cres/Royal Pde (Parkville),-37.792,144.9587,1,505,POINT (-37.79201097 144.95874804),,True
