Mode,OBJECTID,STOP_ID,STOP_NAME,LATITUDE,LONGITUDE,TICKETZONE,ROUTES_USING_STOP,SHAPE,SE_ANNO_CAD_DATA
TRAM,418,18079,38-Jacobs Reserve/Melville Rd (Brunswick West),-37.7566,144.9454,1,58,POINT (-37.75662297 144.94538484),
TRAM,419,18080,39-Mattingley Cres/Melville Rd (Brunswick West),-37.7548,144.9457,1,58,POINT (-37.75480002 144.94570812),
TRAM,420,18081,40-Moreland Rd/Melville Rd (Brunswick West),-37.7532,144.9459,1,58,POINT (-37.75316301 144.94590108),
TRAM,421,18082,41-Woodlands Ave/Melville Rd (Pascoe Vale South),-37.7493,144.9466,1,58,POINT (-37.74931704 144.94655196),
TRAM,422,18083,42-Reynard St/Melville Rd (Pascoe Vale South),-37.7464,144.9446,1,58,POINT (-37.74639897 144.94455612),
TRAM,423,18084,43-Princes Tce/Melville Rd (Pascoe Vale South),-37.7439,144.945,1,58,POINT (-37.74392802 144.94499892),
TRAM,424,18085,44-Brearley Pde/Melville Rd (Pascoe Vale South),-37.7416,144.9454,1,58,POINT (-37.74159198 144.94540392),
TRAM,425,18086,45-Bell St/Melville Rd (Pascoe Vale South),-37.7401,144.9456,1,58,POINT (-37.74011697 144.94559184),
TRAM,426,18087,3-Market St/Flinders St (Melbourne City),-37.8191,144.9618,1,"70,75,35",POINT (-37.81906299 144.96179688),
TRAM,427,18089,4-Elizabeth St/Flinders St (Melbourne City),-37.8182,144.9646,1,"70,75,35",POINT (-37.81823796 144.96462612),
TRAM,428,18090,5-Swanston St/Flinders St (Melbourne City),-37.8176,144.9671,1,"70,75,35",POINT (-37.81755999 144.96713208),
TRAM,429,18091,6-Russell St/Flinders St (Melbourne City),-37.8166,144.9705,1,"70,75,35",POINT (-37.81656396 144.97049988),
TRAM,430,18092,8-Spring St/Flinders St (Melbourne City),-37.8153,144.9746,1,"75,35",POINT (-37.81531899 144.97461216),
TRAM,431,18093,9-Lansdowne St/Wellington Pde (East Melbourne),-37.8155,144.9772,1,"75,48",POINT (-37.815453 144.97716384),
TRAM,432,18094,10-Jolimont Rd/Wellington Pde (East Melbourne),-37.8158,144.9798,1,"75,48",POINT (-37.81575 144.97979112),
TRAM,433,18095,11-Jolimont Station-MCG/Wellington Pde (East Melbourne),-37.8163,144.9848,1,"75,48",POINT (-37.81634103 144.98481888),
TRAM,434,18097,13-Simpson St/Wellington Pde (East Melbourne),-37.8165,144.987,1,"75,48",POINT (-37.81654002 144.98698284),
TRAM,435,18098,14-Punt Rd/Wellington Pde (Melbourne City),-37.8174,144.9897,1,"75,48",POINT (-37.817388 144.98967492),
TRAM,436,18099,14-Punt Rd/Bridge Rd (Richmond),-37.8175,144.9902,1,"75,48",POINT (-37.81753299 144.99021708),
TRAM,437,18100,13-Simpson St/Wellington Pde (East Melbourne),-37.8166,144.987,1,"75,48",POINT (-37.81660302 144.98696988),
TRAM,438,18102,11-Jolimont Station-MCG/Wellington Pde (East Melbourne),-37.8162,144.984,1,"75,48",POINT (-37.81624599 144.98399196),
TRAM,439,18103,10-Jolimont Rd/Wellington Pde (East Melbourne),-37.8158,144.9793,1,"75,48",POINT (-37.81576899 144.97932492),
TRAM,440,18104,9-Lansdowne St/Wellington Pde (Melbourne City),-37.8155,144.9767,1,"75,48",POINT (-37.815471 144.97666416),
TRAM,441,18105,8-Spring St/Flinders St (Melbourne City),-37.8155,144.9742,1,"75,35",POINT (-37.81553697 144.97417404),
TRAM,442,18108,7B-Rod Laver Arena/MCG Gates 1-3 (Melbourne City),-37.8196,144.9791,1,70,POINT (-37.81958697 144.97913016),
TRAM,443,18116,7C-MCG Gates 4-7/John Cain Arena (Melbourne City),-37.8224,144.9835,1,70,POINT (-37.82238399 144.98353008),
TRAM,444,18118,7D-Olympic Boulevard (Melbourne City),-37.8241,144.9869,1,70,POINT (-37.82413503 144.98685684),
TRAM,445,18155,7D-Olympic Boulevard (Melbourne City),-37.8238,144.9868,1,70,POINT (-37.82382696 144.986751),
TRAM,446,18161,7C-MCG Gates 4-7/John Cain Arena (Melbourne City),-37.8221,144.9828,1,70,POINT (-37.82213703 144.98279784),
TRAM,447,18172,7B-Rod Laver Arena/MCG Gates 1-3 (Melbourne City),-37.8193,144.9784,1,70,POINT (-37.81934901 144.97842096),
TRAM,448,18174,6-Russell St/Flinders St (Melbourne City),-37.8167,144.9702,1,"70,75,35",POINT (-37.81665702 144.97016796),
TRAM,449,18175,5-Swanston St/Flinders St (Melbourne City),-37.8178,144.9665,1,"70,75,35",POINT (-37.81775601 144.96649092),
TRAM,450,18176,4-Elizabeth St/Flinders St (Melbourne City),-37.8184,144.9643,1,"70,75,35",POINT (-37.81841202 144.96428016),
TRAM,451,18178,3-Market St/Flinders St (Melbourne City),-37.8193,144.9613,1,"70,75,35",POINT (-37.81930599 144.96127884),
TRAM,452,18179,D6-Victoria Police Centre/Flinders St (Southbank),-37.8217,144.9532,1,"70,75,35",POINT (-37.821726 144.95321484),
TRAM,453,18180,D5-South Wharf/Wurundjeri Way (Docklands),-37.822,144.9509,1,"70,75,35",POINT (-37.82200104 144.950913),
TRAM,454,18181,D4-Docklands Park/Harbour Esp (Docklands),-37.8217,144.9475,1,"70,75,35",POINT (-37.82172501 144.94750092),
TRAM,455,18182,D3-Stadium Precinct/Harbour Esp (Docklands),-37.8175,144.946,1,"70,75,35",POINT (-37.81746297 144.94596012),
TRAM,456,18183,D2-CentralPier/Harbour Esp (Docklands),-37.8142,144.9446,1,"35,70,75,86,30",POINT (-37.81424898 144.94458384),
TRAM,457,18184,125-Clarendon St/Whiteman St (Southbank),-37.8257,144.9567,1,"12,96,109",POINT (-37.82568798 144.95668416),
TRAM,458,18185,124A-Casino/MCEC/Clarendon St (Southbank),-37.8233,144.9561,1,"12,96,109",POINT (-37.82328903 144.95605704),
TRAM,459,18186,124-Batman Park/Spencer St (Melbourne City),-37.8216,144.9553,1,"12,96,109",POINT (-37.82155401 144.95526504),
TRAM,460,18187,122-Southern Cross Railway Station/Spencer St (Melbourne City),-37.8188,144.9541,1,96,POINT (-37.81876698 144.95409216),
TRAM,461,18189,120-Lonsdale St/Spencer St (Melbourne City),-37.8153,144.9524,1,86,POINT (-37.81531296 144.95238108),
TRAM,462,18190,119-La Trobe St/Spencer St (Melbourne City),-37.8134,144.9515,1,86,POINT (-37.81340496 144.95150196),
TRAM,463,18192,120-Lonsdale St/Spencer St (Melbourne City),-37.815,144.9523,1,86,POINT (-37.81495998 144.95231088),
TRAM,464,18194,122-Southern Cross Railway Station/Spencer St (Melbourne City),-37.8183,144.9537,1,96,POINT (-37.81831896 144.95371812),
TRAM,465,18196,124-Batman Park/Spencer St (Melbourne City),-37.8218,144.9554,1,"12,96,109",POINT (-37.82177298 144.95540616),
TRAM,466,18197,124A-Casino/MCEC/Clarendon St (Southbank),-37.8236,144.9563,1,"12,96,109",POINT (-37.82359098 144.95631012),
TRAM,467,18199,5-Bourke St/William St (Melbourne City),-37.8159,144.9582,1,58,POINT (-37.81587402 144.95825016),
TRAM,468,20549,64-Power St/Glenferrie Rd (Kooyong),-37.8418,145.032,1,16,POINT (-37.84184001 145.031967),
TRAM,469,20550,65-Warra St/Glenferrie Rd (Toorak),-37.84,145.0321,1,16,POINT (-37.840041 145.03214016),
TRAM,470,20551,65-Kooyong Railway Station/Glenferrie Rd (Kooyong),-37.8393,145.0324,1,16,POINT (-37.83933297 145.03243104),
TRAM,471,20552,66-Kooyong Tennis Centre/Glenferrie Rd (Toorak),-37.8385,145.0324,1,16,POINT (-37.83849399 145.03235112),
TRAM,472,20553,66-Vision Australia/Glenferrie Rd (Kooyong),-37.8383,145.0326,1,16,POINT (-37.83833604 145.03261716),
TRAM,473,20554,67-Gardiner Rd/Glenferrie Rd (Hawthorn),-37.8356,145.0329,1,16,POINT (-37.83555702 145.03294008),
TRAM,474,20555,67-Gardiner Rd/Glenferrie Rd (Hawthorn),-37.8355,145.0331,1,16,POINT (-37.835451 145.03309092),
TRAM,475,20556,68-Callantina Rd/Glenferrie Rd (Hawthorn),-37.8334,145.0333,1,16,POINT (-37.83342699 145.03330404),
TRAM,476,18201,7-Flagstaff Railway Station/William St (Melbourne City),-37.812,144.9565,1,58,POINT (-37.81199601 144.95651712),
TRAM,477,18202,8-Franklin St/William St (Melbourne City),-37.8097,144.9555,1,58,POINT (-37.80974304 144.95545404),
TRAM,478,18203,10-Victoria St/Peel St (West Melbourne),-37.8054,144.956,1,58,POINT (-37.805391 144.95602896),
TRAM,479,18204,10-Victoria St/Peel St (West Melbourne),-37.8057,144.9561,1,58,POINT (-37.80569799 144.95607684),
TRAM,480,18205,9-Queen Victoria Market/Peel St (North Melbourne),-37.8074,144.9558,1,58,POINT (-37.80744201 144.95577912),
TRAM,481,18206,9-Queen Victoria Market/39 Peel St (North Melbourne),-37.8072,144.9558,1,58,POINT (-37.80721602 144.95575104),
TRAM,482,18207,8-Franklin St/Peel St (Melbourne City),-37.8094,144.9555,1,58,POINT (-37.80942804 144.95547384),
TRAM,483,18208,7-Flagstaff Railway Station/William St (Melbourne City),-37.8125,144.9568,1,58,POINT (-37.81246104 144.956799),
TRAM,484,18210,5-Bourke St/William St (Melbourne City),-37.8154,144.9582,1,58,POINT (-37.81544004 144.95816016),
TRAM,485,18211,4-Collins St/William St (Melbourne City),-37.8175,144.9591,1,58,POINT (-37.81745703 144.95909184),
TRAM,486,18214,1-Flinders St/Queens Bridge St (Melbourne City),-37.8195,144.9612,1,58,POINT (-37.81951299 144.96123996),
TRAM,487,18215,115-Casino/Southbank/Queens Bridge St (Southbank),-37.8221,144.9612,1,58,POINT (-37.82211696 144.96122484),
TRAM,488,18217,117-York St/Kings Way (South Melbourne),-37.8296,144.9641,1,58,POINT (-37.82961 144.96407496),
TRAM,489,18218,118-Sturt St/Kings Way (Southbank),-37.8305,144.965,1,58,POINT (-37.83053601 144.96500412),
TRAM,490,18219,119-Wells St/Park St (South Melbourne),-37.8328,144.9698,1,58,POINT (-37.83279996 144.96981588),
TRAM,491,18221,119-Wells St/Park St (South Melbourne),-37.8329,144.9698,1,58,POINT (-37.83288996 144.96980184),
TRAM,492,18222,118-Sturt St/Kings Way (Southbank),-37.8311,144.9654,1,58,POINT (-37.83107403 144.96537492),
TRAM,493,18223,117-York St/Kings Way (South Melbourne),-37.8296,144.9639,1,58,POINT (-37.82957103 144.96390612),
TRAM,494,18224,20-Kings Way/Sturt St (Southbank),-37.8301,144.9653,1,1,POINT (-37.83009096 144.96533388),
TRAM,495,18225,19-Miles St/Sturt St (Southbank),-37.8284,144.9658,1,1,POINT (-37.828431 144.96575508),
TRAM,496,18226,18-Grant St/Sturt St (Southbank),-37.8258,144.9666,1,1,POINT (-37.82577897 144.96663384),
TRAM,497,18227,17-Arts Precinct/Sturt St (Southbank),-37.8238,144.9673,1,1,POINT (-37.82381598 144.96725592),
TRAM,498,18229,17-Arts Precinct/Sturt St (Southbank),-37.8241,144.9672,1,1,POINT (-37.82409399 144.96717996),
TRAM,499,18230,18-Grant St/Sturt St (Southbank),-37.8259,144.9667,1,1,POINT (-37.82592396 144.96666408),
TRAM,500,18231,19-Miles St/Sturt St (Southbank),-37.8282,144.9661,1,1,POINT (-37.82818404 144.96605712),
TRAM,501,18232,20-Kings Way/Sturt St (Southbank),-37.8301,144.9654,1,1,POINT (-37.83011904 144.96539004),
TRAM,502,18233,116-City Rd/Kings Way (Southbank),-37.8263,144.9606,1,58,POINT (-37.82626002 144.96057684),
TRAM,503,18341,24-Grattan St/Church St (Hawthorn),-37.8179,145.0186,1,48,POINT (-37.81790604 145.01860704),
TRAM,504,18342,25-Brook St/Church St (Hawthorn),-37.8159,145.0206,1,48,POINT (-37.815921 145.02060216),
TRAM,505,18343,26-Barkers Rd/Church St (Hawthorn),-37.8133,145.0233,1,48,POINT (-37.81325304 145.02325212),
TRAM,506,18347,34-Pakington St/High St (Kew),-37.8056,145.0338,1,48,POINT (-37.80561699 145.03383684),
TRAM,507,18348,35-Cobden St/High St (Kew),-37.805,145.0355,1,48,POINT (-37.80498699 145.03554612),
TRAM,508,18349,36-Parkhill Rd/High St (Kew),-37.8035,145.0398,1,48,POINT (-37.80348903 145.03975488),
TRAM,509,18350,37-Kew Cemetery/High St (Kew),-37.8025,145.0426,1,48,POINT (-37.80247302 145.04256396),
TRAM,510,18351,38-Victoria Park/High St (Kew),-37.8013,145.046,1,48,POINT (-37.80125901 145.04598108),
TRAM,511,18352,39-Harp Rd/High St (Kew),-37.7994,145.0504,1,48,POINT (-37.79941302 145.05043608),
TRAM,512,18353,40-Harp Village/High St (Kew East),-37.7986,145.052,1,48,POINT (-37.79862804 145.05202404),
TRAM,513,18354,41-Clyde St/High St (Kew East),-37.7974,145.0548,1,48,POINT (-37.79743896 145.05475788),
TRAM,514,18355,42-Irymple Ave/High St (Kew East),-37.7964,145.0572,1,48,POINT (-37.79639703 145.05715908),
TRAM,515,18356,43-Kew High School/High St (Kew East),-37.7946,145.0611,1,48,POINT (-37.79465004 145.06108884),
TRAM,516,18357,44-Burke Rd/High St (Kew),-37.7935,145.0637,1,48,POINT (-37.79352999 145.06366212),
TRAM,517,18358,45-Burke Rd/Doncaster Rd (Balwyn North),-37.7932,145.0652,1,48,POINT (-37.79316801 145.06521588),
TRAM,518,18359,46-Wattle Ave/Doncaster Rd (Balwyn North),-37.7928,145.0674,1,48,POINT (-37.79283501 145.06745004),
TRAM,519,18360,47-North Balwyn Shopping Centre/Doncaster Rd (Balwyn North),-37.7927,145.0714,1,48,POINT (-37.79271198 145.07143992),
TRAM,520,18361,48-Sunburst Ave/Doncaster Rd (Balwyn North),-37.7932,145.0743,1,48,POINT (-37.79321697 145.07426592),
TRAM,521,18362,49-Cityview Rd/Doncaster Rd (Balwyn North),-37.7938,145.0775,1,48,POINT (-37.79375598 145.07746596),
TRAM,522,18363,50-Hill Rd/Doncaster Rd (Balwyn North),-37.7943,145.0812,1,48,POINT (-37.79425899 145.08118908),
TRAM,523,18364,36-St Kilda Primary School/Brighton Rd (Elwood),-37.8701,144.9883,1,67,POINT (-37.87011999 144.98834508),
TRAM,524,18365,38-Wimbledon Ave/Brighton Rd (Elwood),-37.8729,144.9901,1,67,POINT (-37.87288101 144.99007812),
TRAM,525,18367,39-Glen Eira Rd/Brighton Rd (Elwood),-37.876,144.992,1,67,POINT (-37.87596 144.99201816),
TRAM,526,18368,40-Scott St/Brighton Rd (Elwood),-37.8789,144.9939,1,67,POINT (-37.87894701 144.99389196),
TRAM,527,18369,41-Coleridge St/Brighton Rd (Elwood),-37.8808,144.9951,1,67,POINT (-37.88084196 144.99507996),
TRAM,528,18370,42-Hotham St/Brighton Rd (St Kilda East),-37.8829,144.9963,1,67,POINT (-37.88286399 144.99634392),
TRAM,529,18371,43-Brighton Rd/Glenhuntly Rd (Elsternwick),-37.8839,144.9976,1,67,POINT (-37.88390403 144.997578),
TRAM,530,18372,44-Elsternwick Railway Station/Glenhuntly Rd (Elsternwick),-37.8843,145.0006,1,67,POINT (-37.88430597 145.000557),
TRAM,531,18373,45-Elsternwick Shopping Centre/Glenhuntly Rd (Elsternwick),-37.8848,145.0039,1,67,POINT (-37.88475102 145.00394496),
TRAM,532,18374,46-Orrong Rd/Glenhuntly Rd (Elsternwick),-37.8851,145.0062,1,67,POINT (-37.88505099 145.00621116),
TRAM,533,18375,47-Shoobra Rd/Glenhuntly Rd (Elsternwick),-37.8854,145.0091,1,67,POINT (-37.88538804 145.00911312),
TRAM,534,18376,48-Parkside St/Glenhuntly Rd (Elsternwick),-37.8858,145.0122,1,67,POINT (-37.88575596 145.01224116),
TRAM,535,18392,49-Kooyong Rd/Glenhuntly Rd (Elsternwick),-37.8861,145.0151,1,67,POINT (-37.88610201 145.01508588),
TRAM,536,18393,50-Royal Pde/Glenhuntly Rd (Caulfield),-37.8865,145.0183,1,67,POINT (-37.88649801 145.01825892),
TRAM,537,18394,51-Hawthorn Rd/Glenhuntly Rd (Caulfield),-37.887,145.0222,1,67,POINT (-37.88697798 145.02218112),
TRAM,538,18395,52-Jasmine St/Glenhuntly Rd (Caulfield),-37.8872,145.0241,1,67,POINT (-37.88721801 145.02414096),
TRAM,539,18396,53-Glenhuntly Tram Depot/Glenhuntly Rd (Caulfield),-37.8876,145.0271,1,67,POINT (-37.88761104 145.02710988),
TRAM,540,18397,54-Bambra Rd/Glenhuntly Rd (Caulfield),-37.8878,145.0289,1,67,POINT (-37.88783901 145.02890016),
TRAM,541,18398,55-Fallon St/Glenhuntly Rd (Caulfield),-37.8881,145.031,1,67,POINT (-37.88810802 145.030986),
TRAM,542,18399,56-Kean St/Glenhuntly Rd (Caulfield),-37.8884,145.0334,1,67,POINT (-37.88841897 145.03343292),
TRAM,543,18400,57-Laura St/Glenhuntly Rd (Caulfield),-37.8887,145.0355,1,67,POINT (-37.88866998 145.03548492),
TRAM,544,18401,58-Booran Rd/Glenhuntly Rd (Caulfield),-37.889,145.0378,1,67,POINT (-37.88896104 145.037808),
TRAM,545,18403,60-Glenhuntly Shops/Glenhuntly Rd (Glen Huntly),-37.8893,145.0408,1,67,POINT (-37.88930799 145.04076684),
TRAM,546,18404,61-Glenhuntly Railway Station/Glenhuntly Rd (Glen Huntly),-37.8895,145.0428,1,67,POINT (-37.88954802 145.04275008),
TRAM,547,18405,62-Grange Rd/Glenhuntly Rd (Glen Huntly),-37.8898,145.045,1,67,POINT (-37.889838 145.04504004),
TRAM,548,18406,63-Maroona Rd/Glenhuntly Rd (Carnegie),-37.8901,145.0477,1,67,POINT (-37.89014301 145.04765796),
TRAM,549,18407,64-Mernda Ave/Glenhuntly Rd (Carnegie),-37.8904,145.0499,1,67,POINT (-37.89040599 145.04990292),
TRAM,550,18408,65-Mimosa Rd/Glenhuntly Rd (Carnegie),-37.8907,145.0522,1,67,POINT (-37.89071397 145.05219216),
TRAM,551,18409,66-Glenhuntly Rd/Truganini Rd (Carnegie),-37.8911,145.054,1,67,POINT (-37.89106902 145.05404796),
TRAM,552,18410,67-Centre Rd/Truganini Rd (Carnegie),-37.8927,145.0544,1,67,POINT (-37.89269703 145.05436908),
TRAM,553,18411,68-Carnegie/Truganini Rd (Carnegie),-37.8939,145.0558,1,67,POINT (-37.89386496 145.05580512),
TRAM,554,18412,68-East Brighton/Hawthorn Rd (Brighton East),-37.9142,145.0169,1,64,POINT (-37.91422197 145.01688984),
TRAM,555,18413,67-Howell St/Hawthorn Rd (Brighton East),-37.9111,145.0174,1,64,POINT (-37.91109402 145.01739492),
TRAM,556,18414,66-Union St/Hawthorn Rd (Brighton East),-37.9087,145.0178,1,64,POINT (-37.90872999 145.017765),
TRAM,557,18415,65-Davey Ave/Hawthorn Rd (Brighton East),-37.9066,145.0181,1,64,POINT (-37.90657404 145.01814084),
TRAM,558,18416,64-Taylor St/Hawthorn Rd (Brighton East),-37.9041,145.0186,1,64,POINT (-37.904094 145.01859516),
TRAM,559,18417,63-North Rd/Hawthorn Rd (Brighton East),-37.9016,145.0191,1,64,POINT (-37.90157004 145.01907216),
TRAM,637,18730,134-Merribell Ave/Nicholson St (Coburg),-37.7444,144.9777,1,1,POINT (-37.74435903 144.97772796),
TRAM,638,18732,44-Deepdene Park/Whitehorse Rd (Balwyn),-37.8114,145.0687,1,109,POINT (-37.81137501 145.06867116),
TRAM,639,18733,45-Hardwicke St/Whitehorse Rd (Balwyn),-37.8118,145.0718,1,109,POINT (-37.81175004 145.07178516),
TRAM,640,18734,46-Balwyn Cinema/Whitehorse Rd (Balwyn),-37.8122,145.0759,1,109,POINT (-37.81224198 145.07592984),
TRAM,641,18735,47-Balwyn Rd/Whitehorse Rd (Balwyn),-37.8129,145.0815,"1,2",109,POINT (-37.81291896 145.08152388),
TRAM,642,18736,48-Balwyn Shopping Centre/Whitehorse Rd (Balwyn),-37.8132,145.0838,"1,2",109,POINT (-37.81319904 145.08378792),
TRAM,643,18737,49-Northcote Ave/Whitehorse Rd (Balwyn),-37.8137,145.088,"1,2",109,POINT (-37.81368999 145.087956),
TRAM,644,18738,51-Narrak Rd/Whitehorse Rd (Mont Albert),-37.8146,145.0952,"1,2",109,POINT (-37.81456398 145.09517004),
TRAM,645,18781,134-Orrong Rd/Toorak Rd (Toorak),-37.8418,145.014,1,58,POINT (-37.84175496 145.014048),
TRAM,646,18782,135-Woorigoleen Rd/Toorak Rd (Toorak),-37.8422,145.0176,1,58,POINT (-37.84216599 145.01758284),
TRAM,647,18783,136-Irving Rd/Toorak Rd (Toorak),-37.8425,145.0201,1,58,POINT (-37.84246101 145.02008592),
TRAM,648,18784,137-Kooyong Rd/Toorak Rd (Toorak),-37.8428,145.0231,1,58,POINT (-37.84284396 145.02306492),
TRAM,649,18785,138-Moonga Rd/Toorak Rd (Toorak),-37.8432,145.0262,1,58,POINT (-37.84323096 145.02624804),
TRAM,650,18786,139-Glenbervie Rd/Toorak Rd (Toorak),-37.8436,145.0298,1,58,POINT (-37.84361499 145.02981708),
TRAM,651,18789,112-Lygon St/Elgin St (Carlton),-37.7971,144.9672,1,"6,1",POINT (-37.79711298 144.96715908),
TRAM,652,18790,113-Lytton St/Lygon St (Carlton),-37.7941,144.968,1,"6,1",POINT (-37.79412696 144.96802488),
TRAM,653,18791,114-Princes St/Lygon St (Carlton North),-37.7927,144.9683,1,"6,1",POINT (-37.79268903 144.96826896),
TRAM,654,18792,115-Melbourne Cemetery/Lygon St (Carlton North),-37.7896,144.9688,1,"6,1",POINT (-37.78957998 144.96879708),
TRAM,655,18793,116-Fenwick St/Lygon St (Carlton North),-37.7874,144.9692,1,"6,1",POINT (-37.78737003 144.96918588),
TRAM,656,18794,117-Richardson St/Lygon St (Carlton North),-37.784,144.9697,1,"6,1",POINT (-37.78403598 144.969732),
TRAM,657,18795,118-Pigdon St/Lygon St (Carlton North),-37.7819,144.9701,1,"6,1",POINT (-37.78192404 144.970074),
TRAM,658,18899,26-Alfred Hospital/Commercial Rd (South Yarra),-37.8453,144.9822,1,72,POINT (-37.84527801 144.98222508),
TRAM,659,18918,27-Punt Rd/Commercial Rd (South Yarra),-37.8456,144.9849,1,72,POINT (-37.84563 144.98486316),
TRAM,660,18923,28-Braille Library/Commercial Rd (South Yarra),-37.8459,144.9874,1,72,POINT (-37.84589901 144.98741304),
TRAM,661,18931,29-Porter St/Commercial Rd (South Yarra),-37.8463,144.9906,1,72,POINT (-37.846314 144.99058284),
TRAM,662,18933,30-Prahran Market/Commercial Rd (South Yarra),-37.8465,144.9923,1,72,POINT (-37.84654098 144.99227088),
TRAM,663,18934,31-Chapel St/Commercial Rd (South Yarra),-37.8468,144.994,1,72,POINT (-37.84676004 144.99401508),
TRAM,664,18935,32-Surrey Rd/Malvern Rd (South Yarra),-37.8473,144.9978,1,72,POINT (-37.84729302 144.99780696),
TRAM,665,18936,33-Francis St/Malvern Rd (South Yarra),-37.8477,145.0004,1,72,POINT (-37.84765302 145.00043388),
TRAM,666,18937,34-Williams Rd/Malvern Rd (South Yarra),-37.848,145.003,1,72,POINT (-37.84800402 145.00305),
TRAM,667,18938,35-Mathoura Rd/Malvern Rd (Toorak),-37.8485,145.0067,1,72,POINT (-37.84848003 145.00668492),
TRAM,668,18939,36-A'Beckett St/Malvern Rd (Toorak),-37.8489,145.01,1,72,POINT (-37.84892301 145.00999188),
TRAM,669,18940,37-Orrong Rd/Malvern Rd (Toorak),-37.8492,145.0121,1,72,POINT (-37.84919301 145.01207592),
TRAM,670,18941,38-Clendon Rd/Malvern Rd (Toorak),-37.8496,145.0154,1,72,POINT (-37.84961799 145.01535984),
TRAM,671,18942,39-Irving Rd/Malvern Rd (Toorak),-37.8501,145.0187,1,72,POINT (-37.85005197 145.01867904),
TRAM,672,18943,40-Kooyong Rd/Malvern Rd (Toorak),-37.8504,145.0213,1,72,POINT (-37.85040297 145.02130596),
TRAM,673,18944,41-Albany Rd/Malvern Rd (Toorak),-37.8508,145.024,1,72,POINT (-37.85076297 145.02395592),
TRAM,674,18945,42-Lauriston Girls School/Malvern Rd (Toorak),-37.8511,145.0261,1,72,POINT (-37.85105196 145.02614112),
TRAM,675,18946,43-Glenferrie Rd/Malvern Rd (Toorak),-37.8515,145.0299,1,72,POINT (-37.85154696 145.02986712),
TRAM,676,18947,44-Plant St/Malvern Rd (Malvern),-37.8519,145.0325,1,72,POINT (-37.85189697 145.03249512),
TRAM,677,18948,45-Elizabeth St/Malvern Rd (Malvern),-37.8523,145.0353,1,72,POINT (-37.85225904 145.03530384),
TRAM,678,18949,46-Meredith St/Malvern Rd (Malvern),-37.8528,145.0392,1,72,POINT (-37.85278401 145.03923396),
TRAM,679,18950,47-Tooronga Rd/Malvern Rd (Malvern),-37.8531,145.042,1,72,POINT (-37.85312799 145.04198688),
TRAM,680,18951,48-Edgar St/Malvern Rd (Malvern),-37.8536,145.0456,1,72,POINT (-37.85355603 145.04555484),
TRAM,681,18952,49-Kenilworth Gr/Malvern Rd (Malvern),-37.8539,145.0483,1,72,POINT (-37.85390001 145.04832),
TRAM,682,18953,50-Burke Rd/Malvern Rd (Malvern),-37.8543,145.0515,1,72,POINT (-37.85432202 145.05149088),
TRAM,683,18954,51-Gardiner Railway Station/Burke Rd (Hawthorn East),-37.8529,145.0527,1,72,POINT (-37.85285403 145.05267708),
TRAM,684,18955,52-Harris Ave/Burke Rd (Hawthorn East),-37.8498,145.053,1,72,POINT (-37.84977801 145.05304212),
TRAM,685,18956,53-Faircroft Ave/Burke Rd (Hawthorn East),-37.8482,145.0534,1,72,POINT (-37.84817097 145.05339204),
TRAM,686,18957,54-Toorak Rd/Burke Rd (Glen Iris),-37.8458,145.0539,1,72,POINT (-37.84580001 145.05387408),
TRAM,687,18958,55-Middle Rd/Burke Rd (Hawthorn East),-37.8438,145.0542,1,72,POINT (-37.84379598 145.05424488),
TRAM,688,18959,56-Anderson Rd/Burke Rd (Hawthorn East),-37.8419,145.0546,1,72,POINT (-37.84185603 145.05462612),
TRAM,689,18960,57-Pine Ave/Burke Rd (Hawthorn East),-37.8403,145.0549,1,72,POINT (-37.840257 145.05494112),
TRAM,690,18961,58-Leura Gr/Burke Rd (Hawthorn East),-37.8382,145.0553,1,72,POINT (-37.83816396 145.05533604),
TRAM,691,18962,59-Pleasant Rd/Burke Rd (Hawthorn East),-37.8354,145.0558,1,72,POINT (-37.835415 145.05582888),
TRAM,692,18963,60-Campbell Rd/Burke Rd (Hawthorn East),-37.8337,145.0562,1,72,POINT (-37.83371697 145.05615792),
TRAM,693,18964,61-Riversdale Rd/Burke Rd (Hawthorn East),-37.8316,145.0566,1,72,POINT (-37.83157002 145.05656616),
TRAM,694,18965,62-Camberwell Shopping Centre/755 Burke Rd (Hawthorn East),-37.8302,145.0568,1,72,POINT (-37.830204 145.05681816),
TRAM,695,18966,63-Prospect Hill Rd/Burke Rd (Hawthorn East),-37.8282,145.0572,1,72,POINT (-37.82821896 145.05722208),
TRAM,696,18967,64-Camberwell Station/Burke Rd (Hawthorn East),-37.8261,145.0576,1,72,POINT (-37.82605401 145.05763104),
TRAM,697,18968,65-Victoria Rd/Burke Rd (Hawthorn East),-37.8236,145.0581,1,72,POINT (-37.82358297 145.05806016),
TRAM,698,18969,66-Rathmines Rd/Burke Rd (Hawthorn East),-37.8215,145.0585,1,72,POINT (-37.82148102 145.05846696),
TRAM,699,18970,67-Camberwell Girls Grammar/Burke Rd (Hawthorn East),-37.8186,145.0591,1,72,POINT (-37.81858896 145.05905412),
TRAM,700,18971,68-Mont Albert Rd/Burke Rd (Kew),-37.816,145.0595,1,72,POINT (-37.81599201 145.05954192),
TRAM,701,18972,69-Sackville St/Burke Rd (Kew),-37.8141,145.0599,1,72,POINT (-37.81413198 145.05987492),
TRAM,702,18973,36-St Kilda Primary School/Brighton Rd (Balaclava),-37.8701,144.9884,1,67,POINT (-37.87005897 144.98841492),
TRAM,703,18974,37-Chapel St/Brighton Rd (Balaclava),-37.8718,144.9895,1,67,POINT (-37.87177104 144.98949384),
TRAM,704,18975,38-Brunning St/Brighton Rd (Balaclava),-37.8728,144.9901,1,67,POINT (-37.87280001 144.99012492),
TRAM,705,18976,39-Glen Eira Rd/Brighton Rd (Balaclava),-37.8766,144.9925,1,67,POINT (-37.87663599 144.99254484),
TRAM,706,18977,40-Scott St/Brighton Rd (Balaclava),-37.8789,144.994,1,67,POINT (-37.87888599 144.99397296),
TRAM,707,18978,41-Coleridge St/Brighton Rd (Balaclava),-37.8808,144.9952,1,67,POINT (-37.88079804 144.99516096),
TRAM,708,18979,42-Hotham St/Brighton Rd (Balaclava),-37.883,144.9965,1,67,POINT (-37.88295696 144.99650088),
TRAM,709,18980,43-Brighton Rd/Glenhuntly Rd (Elsternwick),-37.8838,144.9978,1,67,POINT (-37.88379999 144.99784188),
TRAM,710,18981,44-Elsternwick Railway Station/Glenhuntly Rd (Elsternwick),-37.8842,145.0004,1,67,POINT (-37.88415 145.00037988),
TRAM,711,18982,45-Elsternwick Shopping Centre/Glenhuntly Rd (Elsternwick),-37.8846,145.0038,1,67,POINT (-37.88461296 145.00381212),
TRAM,712,18983,46-Orrong Rd/Glenhuntly Rd (Elsternwick),-37.8849,145.0057,1,67,POINT (-37.88486199 145.005705),
TRAM,713,18984,47-Shoobra Rd/Glenhuntly Rd (Elsternwick),-37.8853,145.0091,1,67,POINT (-37.88527104 145.00912716),
TRAM,714,18985,48-Parkside St/Glenhuntly Rd (Elsternwick),-37.8856,145.0123,1,67,POINT (-37.88564904 145.01226708),
TRAM,715,18986,49-Kooyong Rd/Glenhuntly Rd (Elsternwick),-37.886,145.0149,1,67,POINT (-37.88596296 145.01487384),
TRAM,716,18987,50-Royal Pde/Glenhuntly Rd (Caulfield),-37.8864,145.0183,1,67,POINT (-37.886391 145.01832984),
TRAM,717,19000,67-Rogers Ave/Hawthorn Rd (Brighton East),-37.9111,145.0175,1,64,POINT (-37.911078 145.017531),
TRAM,718,19001,66-Union St/Hawthorn Rd (Brighton East),-37.9085,145.018,1,64,POINT (-37.90851696 145.01796408),
TRAM,719,19002,65-Davey Ave/Hawthorn Rd (Brighton East),-37.9064,145.0183,1,64,POINT (-37.90637001 145.01832912),
TRAM,720,19003,64-Taylor St/Hawthorn Rd (Brighton East),-37.9038,145.0188,1,64,POINT (-37.90378197 145.01880792),
TRAM,721,19004,63-North Rd/Hawthorn Rd (Brighton East),-37.9012,145.0193,1,64,POINT (-37.901196 145.01933208),
TRAM,722,19005,62-Gardenvale Rd/Hawthorn Rd (Caulfield South),-37.899,145.0198,1,64,POINT (-37.89896904 145.01980116),
TRAM,723,19006,61-Stone St/Hawthorn Rd (Caulfield South),-37.8966,145.0203,1,64,POINT (-37.896552 145.02025296),
TRAM,724,19007,60-Dover St/Hawthorn Rd (Caulfield South),-37.8949,145.0205,1,64,POINT (-37.89488097 145.02054816),
TRAM,725,19008,59-Princes Park/Hawthorn Rd (Caulfield South),-37.893,145.0209,1,64,POINT (-37.89304002 145.02090384),
TRAM,726,19009,58-Sycamore St/Hawthorn Rd (Caulfield South),-37.8896,145.0216,1,64,POINT (-37.88960796 145.02155292),
TRAM,727,19010,57-Glenhuntly Rd/Hawthorn Rd (Caulfield),-37.8867,145.0221,1,64,POINT (-37.886661 145.02209796),
TRAM,728,19011,56-Briggs St/Hawthorn Rd (Caulfield),-37.8848,145.0224,1,64,POINT (-37.88483796 145.02244284),
TRAM,729,19012,55-Sylverly Gr/Hawthorn Rd (Caulfield North),-37.8824,145.0229,1,64,POINT (-37.882449 145.02291588),
TRAM,730,19013,54-Glen Eira Rd/Hawthorn Rd (Caulfield North),-37.8799,145.0234,1,64,POINT (-37.87993404 145.02340404),
TRAM,731,19014,53-Northcote Ave/Hawthorn Rd (Caulfield North),-37.8772,145.0239,1,64,POINT (-37.87721199 145.02391992),
TRAM,732,19015,52-Halstead St/Hawthorn Rd (Caulfield North),-37.8749,145.0244,1,64,POINT (-37.87493904 145.02435588),
TRAM,733,19016,51-Balaclava Rd/Hawthorn Rd (Caulfield North),-37.8724,145.0248,1,"64,16",POINT (-37.872441 145.02481992),
TRAM,734,19017,50-Inkerman Rd/Hawthorn Rd (Caulfield North),-37.8695,145.0254,1,"64,16",POINT (-37.86951402 145.02540996),
TRAM,735,19018,49-Arthur St/Hawthorn Rd (Caulfield North),-37.8677,145.0258,1,"64,16",POINT (-37.86768999 145.02575412),
TRAM,736,19019,48-Hawthorn Rd/Dandenong Rd (Caulfield North),-37.8654,145.0258,1,64,POINT (-37.86542802 145.02576888),
TRAM,737,19023,44-Bailey Ave/Dandenong Rd (Armadale),-37.8646,145.0238,1,64,POINT (-37.86455799 145.02383712),
TRAM,738,19024,43-Egerton Rd/Dandenong Rd (Armadale),-37.8638,145.022,1,64,POINT (-37.86378903 145.02205008),
TRAM,739,19025,42-Kooyong Rd/Dandenong Rd (Armadale),-37.8626,145.0192,1,64,POINT (-37.86256998 145.01921904),
TRAM,740,19026,41-Cantala Ave/Dandenong Rd (Armadale),-37.8619,145.0177,1,64,POINT (-37.86192297 145.01773512),
TRAM,741,19027,40-Wattletree Rd/Dandenong Rd (Armadale),-37.8608,145.0152,1,"64,5",POINT (-37.86082497 145.015173),
TRAM,742,19028,38-Orrong Rd/Dandenong Rd (Prahran),-37.8603,145.0111,1,"64,5",POINT (-37.86027003 145.01111904),
TRAM,743,19029,37-Lansdowne Rd/Dandenong Rd (St Kilda East),-37.8598,145.0075,1,"64,5",POINT (-37.85980401 145.00752804),
TRAM,744,19030,36-Closeburn Ave/Dandenong Rd (St Kilda East),-37.8594,145.0046,1,"64,5",POINT (-37.85939496 145.00464084),
TRAM,745,19031,35-Williams Rd/Dandenong Rd (Prahran),-37.8591,145.0021,1,"64,5",POINT (-37.85906304 145.00207008),
TRAM,746,19032,34-The Avenue/Dandenong Rd (Windsor),-37.8584,144.9972,1,"64,5",POINT (-37.85841297 144.99723384),
TRAM,747,19033,33-Hornby St/Dandenong Rd (Windsor),-37.8582,144.9957,1,"64,5",POINT (-37.85820597 144.99569412),
TRAM,748,19034,32-Chapel St/Dandenong Rd (Windsor),-37.8575,144.992,1,"64,5",POINT (-37.85749398 144.99199584),
TRAM,749,19035,31-Queens Way/Queens Way (Windsor),-37.8562,144.9874,1,"64,5",POINT (-37.85615397 144.98740584),
TRAM,750,19036,70-Cotham Rd/Burke Rd (Kew),-37.8109,145.0606,1,72,POINT (-37.81087299 145.060596),
TRAM,751,19037,69-Peverill St/Burke Rd (Balwyn),-37.8141,145.0601,1,72,POINT (-37.81410804 145.06006896),
TRAM,752,19038,68-Mont Albert Rd/Burke Rd (Camberwell),-37.8157,145.0598,1,72,POINT (-37.81574298 145.05976512),
TRAM,753,19039,67-Camberwell Girls Grammar/Burke Rd (Canterbury),-37.8185,145.0592,1,72,POINT (-37.81849203 145.05922692),
TRAM,754,19040,66-Canterbury Rd/Burke Rd (Camberwell),-37.8213,145.0587,1,72,POINT (-37.82128698 145.05872184),
TRAM,755,19041,65-Victoria Rd/Burke Rd (Camberwell),-37.8234,145.0583,1,72,POINT (-37.82343402 145.05831288),
TRAM,756,19042,64-Camberwell Station/Burke Rd (Camberwell),-37.826,145.0578,1,72,POINT (-37.82596698 145.057815),
TRAM,757,19043,63-Prospect Hill Rd/Burke Rd (Camberwell),-37.828,145.0574,1,72,POINT (-37.82802402 145.05743196),
TRAM,758,19044,61-Camberwell Junction/Burke Rd (Camberwell),-37.8311,145.0568,1,72,POINT (-37.83108798 145.05684012),
TRAM,759,19045,60-Reserve Rd/Burke Rd (Camberwell),-37.8339,145.0563,1,72,POINT (-37.83389004 145.056312),
TRAM,760,19046,59-Seymour Gr/Burke Rd (Camberwell),-37.8352,145.0561,1,72,POINT (-37.83519297 145.05607404),
TRAM,761,19047,58-Currajong Ave/Burke Rd (Camberwell),-37.8381,145.0555,1,72,POINT (-37.83808602 145.05552),
TRAM,762,19048,57-Pine Ave/Burke Rd (Camberwell),-37.8401,145.0551,1,72,POINT (-37.84006197 145.05513912),
TRAM,763,19049,56-Anderson Rd/Burke Rd (Camberwell),-37.8416,145.0548,1,72,POINT (-37.841589 145.05484896),
TRAM,764,19050,55-Middle Rd/Burke Rd (Camberwell),-37.8437,145.0545,1,72,POINT (-37.84365603 145.05445404),
TRAM,765,19051,54-Toorak Rd/Burke Rd (Camberwell),-37.8456,145.0541,1,72,POINT (-37.84561398 145.05408396),
TRAM,766,19052,53-Howitt St/Burke Rd (Glen Iris),-37.8479,145.0536,1,72,POINT (-37.84787802 145.05362712),
TRAM,767,19053,52-Bickleigh St/Burke Rd (Glen Iris),-37.8499,145.0532,1,72,POINT (-37.84988097 145.05322212),
TRAM,768,19054,51-Gardiner Station/Burke Rd (Glen Iris),-37.853,145.0527,1,72,POINT (-37.85296203 145.05266304),
TRAM,769,19056,50-Glenarm Rd/Malvern Rd (Glen Iris),-37.8544,145.0513,1,72,POINT (-37.85441796 145.05129504),
TRAM,770,19057,49-Belmont Ave/Malvern Rd (Glen Iris),-37.854,145.0484,1,72,POINT (-37.85404599 145.04841792),
TRAM,771,19058,48-Edgar St/Malvern Rd (Glen Iris),-37.8537,145.0458,1,72,POINT (-37.85373198 145.04583492),
TRAM,772,19059,47-Tooronga Rd/Malvern Rd (Glen Iris),-37.8533,145.0423,1,72,POINT (-37.85330403 145.04230008),
TRAM,773,19060,46-Shaftesbury Ave/Malvern Rd (Malvern),-37.8529,145.0388,1,72,POINT (-37.85285898 145.03882284),
TRAM,774,19061,45-Elizabeth St/Malvern Rd (Malvern),-37.8524,145.0355,1,72,POINT (-37.852434 145.035504),
TRAM,775,19062,44-Plant St/Malvern Rd (Malvern),-37.8521,145.0329,1,72,POINT (-37.85208399 145.03288788),
TRAM,776,19063,43-Glenferrie Rd/Malvern Rd (Malvern),-37.8517,145.0302,1,72,POINT (-37.851723 145.03020408),
TRAM,777,19064,42-Lauriston Girls School/Malvern Rd (Armadale),-37.8512,145.0263,1,72,POINT (-37.85119002 145.02633084),
TRAM,778,19065,41-Murray St/Malvern Rd (Malvern),-37.8509,145.0239,1,72,POINT (-37.85087898 145.02391812),
TRAM,779,19066,40-Kooyong Rd/Malvern Rd (Toorak),-37.8506,145.0216,1,72,POINT (-37.85058801 145.02159612),
TRAM,780,19067,39-Densham Rd/Malvern Rd (Toorak),-37.8502,145.0184,1,72,POINT (-37.85015601 145.01842596),
TRAM,781,19068,38-Clendon Rd/Malvern Rd (Toorak),-37.8498,145.0156,1,72,POINT (-37.84979304 145.01561688),
TRAM,782,19069,37-Orrong Rd/Malvern Rd (Toorak),-37.8494,145.0125,1,72,POINT (-37.84938003 145.01246904),
TRAM,783,19070,51-Hawthorn Rd/Glenhuntly Rd (Caulfield),-37.8868,145.0218,1,67,POINT (-37.88680896 145.02176388),
TRAM,784,19071,52-Jasmine St/Glenhuntly Rd (Caulfield),-37.8871,145.0241,1,67,POINT (-37.88711001 145.02412116),
TRAM,785,19072,53-Glenhuntly Tram Depot/Glenhuntly Rd (Caulfield),-37.8875,145.0268,1,67,POINT (-37.88745102 145.02674988),
TRAM,786,19073,54-Bambra Rd/Glenhuntly Rd (Caulfield),-37.8877,145.0287,1,67,POINT (-37.88767296 145.02868884),
TRAM,787,19074,55-Fallon St/Glenhuntly Rd (Caulfield),-37.8879,145.0306,1,67,POINT (-37.88793099 145.03061484),
TRAM,788,19075,56-Kambrook Rd/Glenhuntly Rd (Caulfield),-37.8883,145.0331,1,67,POINT (-37.88825103 145.03308516),
TRAM,789,19076,57-Clarke Ave/Glenhuntly Rd (Caulfield East),-37.8885,145.0351,1,67,POINT (-37.88850204 145.03511412),
TRAM,790,19077,58-Booran Rd/Glenhuntly Rd (Caulfield East),-37.8888,145.0375,1,67,POINT (-37.888794 145.03754016),
TRAM,791,19078,60-Glenhuntly Shops/Glenhuntly Rd (Caulfield East),-37.8891,145.0405,1,67,POINT (-37.88913204 145.04047596),
TRAM,792,19079,61-Glenhuntly Railway Station/Glenhuntly Rd (Caulfield South),-37.8893,145.0418,1,67,POINT (-37.889307 145.04182416),
TRAM,793,19081,62-Grange Rd/Glenhuntly Rd (Caulfield East),-37.8896,145.0446,1,67,POINT (-37.88963298 145.04459004),
TRAM,794,18512,34-Maribyrnong Rd/Ascot Vale Rd (Moonee Ponds),-37.7725,144.924,1,82,POINT (-37.77245199 144.92402388),
TRAM,795,18513,35-Moore St/Maribyrnong Rd (Moonee Ponds),-37.7723,144.9212,1,82,POINT (-37.77234003 144.92123388),
TRAM,796,18514,36-Bayview Tce/Maribyrnong Rd (Moonee Ponds),-37.772,144.9183,1,82,POINT (-37.77202602 144.91825704),
TRAM,797,18515,37-Union Rd/Maribyrnong Rd (Moonee Ponds),-37.7718,144.9163,1,82,POINT (-37.771812 144.91632204),
TRAM,1,18516,38-Ferguson St/Maribyrnong Rd (Ascot Vale),-37.7714,144.9128,1,"82,57",POINT (-37.77141501 144.91275696),
TRAM,2,18517,39-Bowen St/Maribyrnong Rd (Moonee Ponds),-37.771,144.9092,1,"82,57",POINT (-37.77102702 144.90918),
TRAM,3,18518,40-Epsom Rd/Maribyrnong Rd (Ascot Vale),-37.7706,144.9057,1,"82,57",POINT (-37.77063102 144.90567216),
TRAM,4,18519,37-Maribyrnong Rd/Union Rd (Ascot Vale),-37.7719,144.9161,1,57,POINT (-37.77186996 144.91607004),
TRAM,5,18520,36-St Leonards Rd/Union Rd (Ascot Vale),-37.7737,144.9158,1,57,POINT (-37.77370299 144.91577988),
TRAM,6,18521,35-Munro St/Union Rd (Ascot Vale),-37.7761,144.9154,1,57,POINT (-37.77610302 144.91539504),
TRAM,7,18522,34-Burrowes St/Union Rd (Ascot Vale),-37.7786,144.9149,1,57,POINT (-37.77862698 144.914949),
TRAM,8,18524,32-Sandown Rd/Epsom Rd (Ascot Vale),-37.7827,144.9167,1,57,POINT (-37.78266798 144.91667484),
TRAM,9,18525,31-Racing Victoria/400 Epsom Rd (Flemington),-37.7844,144.9182,1,57,POINT (-37.78442496 144.91820412),
TRAM,10,18526,30-Flemington Racecourse/Epsom Rd (Flemington),-37.7859,144.9198,1,57,POINT (-37.78591302 144.91978596),
TRAM,11,18527,29-Flemington Racecourse/Racecourse Rd (Flemington),-37.7874,144.9219,1,57,POINT (-37.78744599 144.92188908),
TRAM,12,18528,28-Smithfield Rd/Racecourse Rd (Flemington),-37.7877,144.9253,1,57,POINT (-37.78774101 144.92534508),
TRAM,13,18529,26-Newmarket Plaza/Racecourse Rd (Kensington),-37.7881,144.9284,1,57,POINT (-37.78807401 144.92838996),
TRAM,14,18530,25-Wellington St/Racecourse Rd (Flemington),-37.7884,144.9305,1,57,POINT (-37.788354 144.93045996),
TRAM,15,18531,24-Collett St/Racecourse Rd (Kensington),-37.7885,144.9335,1,57,POINT (-37.788507 144.93352212),
TRAM,16,18532,23-Stubbs St/Racecourse Rd (Flemington),-37.7887,144.9355,1,57,POINT (-37.78874901 144.93548016),
TRAM,17,18533,22-Boundary Rd/Racecourse Rd (North Melbourne),-37.7892,144.9401,1,57,POINT (-37.789209 144.94014504),
TRAM,18,18536,19-Abbotsford St Interchange/Abbotsford St (North Melbourne),-37.7937,144.9472,1,57,POINT (-37.79372898 144.94716288),
TRAM,19,18537,18-Erskine St/Abbotsford St (North Melbourne),-37.7952,144.9468,1,57,POINT (-37.79524602 144.94680288),
TRAM,20,18538,17-Canning St/Abbotsford St (North Melbourne),-37.7967,144.9465,1,57,POINT (-37.79671896 144.94653504),
TRAM,21,18539,16-Haines St/Abbotsford St (North Melbourne),-37.798,144.9463,1,57,POINT (-37.79796798 144.94631904),
TRAM,22,18540,15-Arden St/Abbotsford St (North Melbourne),-37.8007,144.9458,1,57,POINT (-37.80067203 144.94583484),
TRAM,23,18541,14-Abbotsford St/Queensberry St (North Melbourne),-37.8027,144.9458,1,57,POINT (-37.80266301 144.94580208),
TRAM,24,18543,23-Royal Park/Royal Park (Parkville),-37.7914,144.9493,1,58,POINT (-37.791414 144.94929408),
TRAM,25,18544,24-Elliott Ave/Royal Park (Parkville),-37.7879,144.9496,1,58,POINT (-37.78787799 144.94961916),
TRAM,26,18545,25-State Netball Hockey Centre/Royal Park (Parkville),-37.7844,144.9487,1,58,POINT (-37.78438302 144.94866984),
TRAM,27,18546,26-Melbourne Zoo/Royal Park (Parkville),-37.7824,144.9493,1,58,POINT (-37.78237503 144.94928184),
TRAM,28,18547,27-Royal Park Station/Royal Park (Parkville),-37.7809,144.9509,1,58,POINT (-37.78087203 144.95092488),
TRAM,29,18548,28-Park St/Royal Park (Parkville),-37.7769,144.9495,1,58,POINT (-37.77691698 144.94948992),
TRAM,30,18549,29-Brunswick Rd/Royal Park (Parkville),-37.7758,144.9487,1,58,POINT (-37.77581403 144.94874796),
TRAM,31,18550,30-Union Square Shopping Centre/Grantham St (Brunswick West),-37.7726,144.9493,1,58,POINT (-37.77256197 144.94931496),
TRAM,32,18551,31-Dawson St/Grantham St (Brunswick West),-37.7703,144.9497,1,58,POINT (-37.77029802 144.94974084),
TRAM,33,18552,32-Foden St/Dawson St (Brunswick),-37.7699,144.9474,1,58,POINT (-37.76992299 144.94735584),
TRAM,34,18553,33-Daly St/Dawson St (Brunswick),-37.7696,144.9444,1,58,POINT (-37.76959296 144.94442508),
TRAM,35,18554,34-Smith St/Melville Rd (Brunswick West),-37.7676,144.9431,1,58,POINT (-37.76761404 144.94309488),
TRAM,36,18555,35-Victoria St/Melville Rd (Brunswick West),-37.7649,144.9437,1,58,POINT (-37.76491197 144.94367988),
TRAM,37,18556,36-Hope St/Melville Rd (Brunswick West),-37.7622,144.9442,1,58,POINT (-37.76216202 144.944154),
TRAM,38,18557,37-Albion St/Melville Rd (Brunswick West),-37.7587,144.9448,1,58,POINT (-37.75874004 144.94477104),
TRAM,39,18558,38-Jacobs Reserve/Melville Rd (Brunswick West),-37.7568,144.9452,1,58,POINT (-37.756764 144.94515408),
TRAM,40,18559,39-McGregor Ave/Melville Rd (Brunswick West),-37.7548,144.9456,1,58,POINT (-37.75477896 144.94555008),
TRAM,41,18560,40-Moreland Rd/Melville Rd (Brunswick West),-37.7534,144.9457,1,58,POINT (-37.75342896 144.94565484),
TRAM,42,18561,41-Woodlands Ave/Melville Rd (Pascoe Vale South),-37.7495,144.9464,1,58,POINT (-37.74951198 144.94635396),
TRAM,43,18562,42-Reynard St/Melville Rd (Pascoe Vale South),-37.7466,144.9443,1,58,POINT (-37.74661101 144.944334),
TRAM,44,18563,43-Princes Tce/Melville Rd (Pascoe Vale South),-37.7441,144.9448,1,58,POINT (-37.74412197 144.94476708),
TRAM,45,18564,44-Brearley Pde/Melville Rd (Pascoe Vale South),-37.742,144.9451,1,58,POINT (-37.74196602 144.94513284),
TRAM,46,18566,51-Balwyn Rd/Doncaster Rd (Balwyn North),-37.7946,145.0846,1,48,POINT (-37.79464797 145.08463104),
TRAM,47,18567,50-Dight Ave/Doncaster Rd (Balwyn North),-37.7944,145.0809,1,48,POINT (-37.79437203 145.080936),
TRAM,48,18568,49-Buchanan Ave/Doncaster Rd (Balwyn North),-37.7939,145.0777,1,48,POINT (-37.79394102 145.07772192),
TRAM,49,18569,48-Osburn Ave/Doncaster Rd (Balwyn North),-37.7934,145.0746,1,48,POINT (-37.793412 145.07456688),
TRAM,50,18570,47-North Balwyn Shopping Centre/Doncaster Rd (Balwyn North),-37.7927,145.0707,1,48,POINT (-37.79272701 145.07072388),
TRAM,51,18571,46-Wattle Ave/Doncaster Rd (Balwyn North),-37.793,145.0674,1,48,POINT (-37.79300601 145.06740108),
TRAM,52,18573,26-Ferrars St/Park St (South Melbourne),-37.8366,144.9564,1,1,POINT (-37.83663198 144.95640516),
TRAM,53,18574,43-Kew High School/High St (Kew East),-37.7947,145.0613,1,48,POINT (-37.79469999 145.06134912),
TRAM,54,18575,42-Woodlands Ave/High St (Kew East),-37.7963,145.0577,1,48,POINT (-37.79632404 145.05767208),
TRAM,55,18576,41-Station St/High St (Kew East),-37.798,145.0539,1,48,POINT (-37.797966 145.053927),
TRAM,56,18577,40-Harp Village/High St (Kew East),-37.7987,145.0522,1,48,POINT (-37.79872101 145.05219216),
TRAM,57,18578,39-Harp Rd/High St (Kew East),-37.7996,145.0503,1,48,POINT (-37.79956404 145.050273),
TRAM,58,18579,38-Victoria Park/High St (Kew East),-37.8013,145.0462,1,48,POINT (-37.80131598 145.04617188),
TRAM,59,18580,37-Kew Cemetery/High St (Kew),-37.8026,145.0427,1,48,POINT (-37.80258201 145.04265216),
TRAM,60,18581,36-Gladstone St/High St (Kew),-37.8035,145.04,1,48,POINT (-37.80353898 145.04001408),
TRAM,61,18582,35-Charles St/High St (Kew),-37.805,145.036,1,48,POINT (-37.80501201 145.03597704),
TRAM,62,18583,34-Union St/High St (Kew),-37.8056,145.0342,1,48,POINT (-37.80564003 145.03416588),
TRAM,63,18584,33-Kew Shopping Centre/High St (Kew),-37.8067,145.0313,1,48,POINT (-37.80667404 145.03131108),
TRAM,64,18588,25-Brook St/Church St (Hawthorn),-37.8158,145.021,1,48,POINT (-37.81575603 145.02098196),
TRAM,65,18589,24-Hill St/Church St (Hawthorn),-37.818,145.0188,1,48,POINT (-37.81797102 145.01875284),
TRAM,66,18591,65-Victoria St/Church St (Richmond),-37.8107,145.0006,1,78,POINT (-37.81072602 145.00062396),
TRAM,67,18592,64-Elizabeth St/Church St (Richmond),-37.8126,145.0002,1,78,POINT (-37.81259199 145.00016496),
TRAM,68,18593,63-Tweedie Pl/Church St (Richmond),-37.8143,144.9999,1,78,POINT (-37.81431801 144.99987984),
TRAM,69,18594,62-Highett St/Church St (Richmond),-37.816,144.9996,1,78,POINT (-37.81596204 144.99957384),
TRAM,70,18595,61-Bridge Rd/Church St (Richmond),-37.8187,144.9991,1,78,POINT (-37.818729 144.99907884),
TRAM,71,18596,60-Abinger St/Church St (Richmond),-37.8203,144.9988,1,78,POINT (-37.82030202 144.99880992),
TRAM,72,18597,59-St Ignatius Church/Church St (Richmond),-37.8218,144.9985,1,78,POINT (-37.82183796 144.998541),
TRAM,73,18598,58-Gipps St/Church St (Richmond),-37.8241,144.9982,1,78,POINT (-37.82405799 144.998163),
TRAM,74,18599,57-Swan St/Church St (Richmond),-37.8258,144.9978,1,78,POINT (-37.82578203 144.997821),
TRAM,75,18601,55-Adelaide St/Church St (Cremorne),-37.829,144.9973,1,78,POINT (-37.82897199 144.99726912),
TRAM,76,18602,54-Cotter St/Church St (Cremorne),-37.8303,144.9972,1,78,POINT (-37.83033099 144.99718704),
TRAM,77,18603,53-Howard St/Church St (Richmond),-37.8327,144.9968,1,78,POINT (-37.83266802 144.99679392),
TRAM,78,18605,51-Malcolm St/Chapel St (South Yarra),-37.8364,144.9963,1,78,POINT (-37.83636396 144.99634212),
TRAM,79,18606,50-Toorak Rd/Chapel St (South Yarra),-37.8396,144.9955,1,78,POINT (-37.83964797 144.99550296),
TRAM,80,18607,49-Palermo St/Chapel St (South Yarra),-37.8416,144.9953,1,78,POINT (-37.84157199 144.99528012),
TRAM,81,18608,48-Cliff St/Chapel St (South Yarra),-37.8438,144.9947,1,78,POINT (-37.84383297 144.99465084),
TRAM,82,18609,47-Commercial Rd/Chapel St (Prahran),-37.847,144.994,1,78,POINT (-37.84697604 144.994032),
TRAM,83,18610,46-Chatham St/Chapel St (Prahran),-37.8491,144.9937,1,78,POINT (-37.84910598 144.99367812),
TRAM,84,18611,45-High St/Chapel St (Prahran),-37.852,144.9933,1,78,POINT (-37.85195601 144.99328284),
TRAM,85,18612,44-Duke St/Chapel St (Windsor),-37.8541,144.9928,1,78,POINT (-37.85410197 144.99282708),
TRAM,86,18613,43-Windsor Railway Station/Chapel St (Windsor),-37.8562,144.9925,1,78,POINT (-37.85624001 144.99245088),
TRAM,87,18614,42-Dandenong Rd/Chapel St (St Kilda East),-37.8579,144.9922,1,78,POINT (-37.85792103 144.99215496),
TRAM,88,18615,41-St Michaels Grammar School/Chapel St (St Kilda),-37.8595,144.9919,1,78,POINT (-37.85952897 144.99187308),
TRAM,89,18616,40-Alma Rd/Chapel St (St Kilda East),-37.8616,144.9915,1,78,POINT (-37.86157701 144.99150984),
TRAM,90,18617,39-Argyle St/Chapel St (St Kilda East),-37.8634,144.9912,1,78,POINT (-37.86339204 144.991188),
TRAM,91,18618,38-Inkerman St/Chapel St (St Kilda East),-37.8654,144.9908,1,78,POINT (-37.86543999 144.99079092),
TRAM,92,18619,37-Chapel St/Carlisle St (Balaclava),-37.8682,144.9901,1,"3/3a,16",POINT (-37.86824997 144.990135),
TRAM,93,18620,36-St Kilda Town Hall/Carlisle St (St Kilda),-37.8681,144.9887,1,"3/3a,16",POINT (-37.86809004 144.98868492),
TRAM,94,18621,37-Carlisle St/Chapel St (St Kilda),-37.8685,144.9902,1,78,POINT (-37.86847704 144.99023112),
TRAM,95,18622,36-Brighton Rd/Chapel St (St Kilda),-37.8711,144.9898,1,78,POINT (-37.871091 144.98977392),
TRAM,96,18623,35-St Kilda Rd/Carlisle St (St Kilda),-37.8678,144.9866,1,"3/3a,67,16",POINT (-37.86782796 144.98656596),
TRAM,97,18624,34-Greeves St/Carlisle St (St Kilda),-37.8675,144.984,1,"3/3a,16",POINT (-37.86747804 144.984006),
TRAM,98,18625,33-Barkly St/Carlisle St (St Kilda),-37.8671,144.9811,1,"3/3a,16",POINT (-37.86706701 144.98108496),
TRAM,99,18632,38-Balaclava Station/Carlisle St (Balaclava),-37.8688,144.9942,1,"3/3a,16",POINT (-37.86880599 144.99423504),
TRAM,100,18633,39-Orange Gr/Carlisle St (Balaclava),-37.8691,144.9965,1,"3/3a,16",POINT (-37.86906996 144.99651312),
TRAM,101,18634,40-Hotham St/Carlisle St (Balaclava),-37.8694,144.9993,1,"3/3a,16",POINT (-37.86943302 144.99928908),
TRAM,102,18635,41-Empress Rd/Balaclava Rd (St Kilda East),-37.8697,145.0016,1,"3/3a,16",POINT (-37.86970599 145.00157688),
TRAM,103,18636,42-Sidwell Ave/Balaclava Rd (Caulfield North),-37.8702,145.0053,1,"3/3a,16",POINT (-37.87016598 145.00531692),
TRAM,104,18637,43-Orrong Rd/Balaclava Rd (Caulfield North),-37.8706,145.0085,1,"3/3a,16",POINT (-37.87055298 145.00846584),
TRAM,105,18638,44-Ontario St/Balaclava Rd (Caulfield North),-37.8711,145.0124,1,"3/3a,16",POINT (-37.87106904 145.01236284),
TRAM,106,18639,45-Lumeah Rd/Balaclava Rd (Caulfield North),-37.8713,145.0147,1,"3/3a,16",POINT (-37.87134399 145.014732),
TRAM,107,18640,46-Kooyong Rd/Balaclava Rd (Caulfield North),-37.8717,145.0176,1,"3/3a,16",POINT (-37.87172604 145.017621),
TRAM,108,18641,47-Elmhurst Rd/Balaclava Rd (Caulfield North),-37.8721,145.0211,1,"3/3a,16",POINT (-37.87214499 145.02109896),
TRAM,109,18645,51-Hawthorn Rd/Balaclava Rd (Caulfield North),-37.8726,145.0244,1,"3/3a,16",POINT (-37.87256997 145.02443004),
TRAM,110,18646,52-Caulfield Park Bowling Club/Balaclava Rd (Caulfield North),-37.8731,145.0285,1,3/3a,POINT (-37.87308099 145.02854412),
TRAM,111,18647,53-Caulfield Park/Balaclava Rd (Caulfield North),-37.8734,145.0313,1,3/3a,POINT (-37.87339599 145.03125204),
TRAM,112,18648,54-Kambrook Rd/Balaclava Rd (Caulfield North),-37.874,145.0358,1,3/3a,POINT (-37.87395903 145.035819),
TRAM,113,18649,55-Normanby Rd/Balaclava Rd (Caulfield North),-37.8742,145.0377,1,3/3a,POINT (-37.87419798 145.0377),
TRAM,114,18650,56-Caulfield Racecourse/Normanby Rd (Caulfield North),-37.8754,145.0394,1,3/3a,POINT (-37.87541604 145.03939596),
TRAM,115,18651,57-Caulfield Railway Station/Derby Rd (Caulfield East),-37.8764,145.0417,1,3/3a,POINT (-37.87640001 145.04167692),
TRAM,116,18652,58-Dandenong Rd/Derby Rd (Caulfield North),-37.8757,145.0419,1,3/3a,POINT (-37.87570899 145.04186592),
TRAM,117,18653,59-Dandenong Rd/Waverley Rd (Malvern East),-37.8758,145.0449,1,3/3a,POINT (-37.87576002 145.04494608),
TRAM,118,18654,60-Burke Rd/Waverley Rd (Malvern East),-37.8759,145.048,1,3/3a,POINT (-37.87589304 145.04804604),
TRAM,119,18655,61-Tennyson St/Waverley Rd (Malvern East),-37.8762,145.0509,1,3/3a,POINT (-37.87624701 145.05093612),
TRAM,120,18656,62-The Avenue/Waverley Rd (Malvern East),-37.8767,145.0547,1,3/3a,POINT (-37.87669701 145.05468696),
TRAM,121,18657,63-Oak Gr/Waverley Rd (Malvern East),-37.8769,145.0565,1,3/3a,POINT (-37.87691697 145.056546),
TRAM,122,18658,27-Park St/Montague St (South Melbourne),-37.8375,144.9542,1,1,POINT (-37.83752199 144.95417604),
TRAM,123,18659,28-Montague St/Bridport St (Albert Park),-37.8407,144.9554,1,1,POINT (-37.84067901 144.95538384),
TRAM,124,18660,29-Bridport St/Victoria Ave (Albert Park),-37.8416,144.9533,1,1,POINT (-37.84156299 144.95333688),
TRAM,125,18661,30-Richardson St/Victoria Ave (Albert Park),-37.8439,144.9513,1,1,POINT (-37.84394196 144.95128308),
TRAM,126,18662,31-Graham St/Victoria Ave (Albert Park),-37.8457,144.9498,1,1,POINT (-37.84567401 144.94982616),
TRAM,127,18663,32-Beaconsfield Pde/Victoria Ave (Albert Park),-37.8471,144.9487,1,1,POINT (-37.847124 144.94872888),
TRAM,128,18699,124-Walsh St/Toorak Rd (South Yarra),-37.8382,144.9846,1,58,POINT (-37.83818997 144.98456508),
TRAM,129,18700,125-Punt Rd/Toorak Rd (South Yarra),-37.8384,144.9867,1,58,POINT (-37.83841704 144.98674092),
TRAM,130,18702,126-Myrtle St/Toorak Rd (South Yarra),-37.8388,144.9895,1,58,POINT (-37.83878802 144.98950392),
TRAM,131,18703,127-South Yarra Railway Station/Toorak Rd (South Yarra),-37.8391,144.9922,1,58,POINT (-37.83913101 144.99216504),
TRAM,132,18704,128-Chapel St/Toorak Rd (South Yarra),-37.8396,144.9958,1,58,POINT (-37.83958101 144.995823),
TRAM,133,18705,129-Tivoli Rd/Toorak Rd (South Yarra),-37.8399,144.9987,1,58,POINT (-37.83992697 144.99866592),
TRAM,134,18706,130-Hawksburn Rd/Toorak Rd (South Yarra),-37.8404,145.0023,1,58,POINT (-37.84036797 145.00233612),
TRAM,135,18707,131-Williams Rd/Toorak Rd (Toorak),-37.8407,145.0054,1,58,POINT (-37.840725 145.00536012),
TRAM,136,18708,132-Toorak Village/Toorak Rd (Toorak),-37.8411,145.0085,1,58,POINT (-37.84109301 145.00845216),
TRAM,137,18709,133-Canterbury Rd/Toorak Rd (Toorak),-37.8414,145.0109,1,58,POINT (-37.84138704 145.01088792),
TRAM,138,18710,43-Deepdene Shopping Centre/Whitehorse Rd (Balwyn),-37.8109,145.0649,1,109,POINT (-37.81092501 145.06487712),
TRAM,139,18711,119-Park St/Lygon St (Carlton North),-37.7794,144.9705,1,"6,1",POINT (-37.779417 144.97047108),
TRAM,140,18712,120-Brunswick Rd/Lygon St (Brunswick),-37.7785,144.9706,1,"6,1",POINT (-37.77845499 144.97063416),
TRAM,141,18713,121-Weston St/Lygon St (Brunswick East),-37.7757,144.971,1,"6,1",POINT (-37.77566697 144.97097112),
TRAM,142,18714,122-Glenlyon Rd/Lygon St (Brunswick East),-37.7727,144.9714,1,"6,1",POINT (-37.77273702 144.971415),
TRAM,143,18715,123-Albert St/Lygon St (Brunswick East),-37.7698,144.972,1,"6,1",POINT (-37.76978097 144.97194996),
TRAM,144,18716,124-Victoria St/Lygon St (Brunswick East),-37.7682,144.9722,1,"6,1",POINT (-37.76820003 144.97223112),
TRAM,145,18717,125-Blyth St/Lygon St (Brunswick East),-37.7667,144.9725,1,"6,1",POINT (-37.766664 144.97251192),
TRAM,146,18718,126-Stewart St/Lygon St (Brunswick East),-37.7644,144.9729,1,"6,1",POINT (-37.76442696 144.97290216),
TRAM,147,18719,127-Albion St/Lygon St (Brunswick East),-37.7624,144.9733,1,"6,1",POINT (-37.76236902 144.97326504),
TRAM,148,18720,128-Mitchell St/Holmes St (Brunswick East),-37.7594,144.9743,1,"6,1",POINT (-37.75938696 144.97433388),
TRAM,149,18721,129-Moreland Rd/Holmes St (Brunswick),-37.7569,144.9748,1,"6,1",POINT (-37.75688001 144.974754),
TRAM,150,18722,130-Barrow St/Moreland Rd (Coburg),-37.7562,144.9702,1,6,POINT (-37.756206 144.97015284),
TRAM,151,18723,131-De Carle St/Moreland Rd (Coburg),-37.7558,144.9665,1,6,POINT (-37.75581 144.96652008),
TRAM,152,18724,132-Sydney Rd/Moreland Rd (Coburg),-37.7556,144.9643,1,6,POINT (-37.75556403 144.96427908),
TRAM,153,18725,133-Moreland Station/Moreland Rd (Coburg),-37.7553,144.9624,1,6,POINT (-37.75526001 144.96238116),
TRAM,154,18726,130-The Avenue/Nicholson St (Coburg),-37.7536,144.9759,1,1,POINT (-37.75356603 144.97594488),
TRAM,155,10311,45-Glenferrie Rd/Wattletree Rd (Malvern),-37.8625,145.0285,1,5,POINT (-37.86245496 145.02850812),
TRAM,156,10371,44-Duncraig Ave/Wattletree Rd (Armadale),-37.8621,145.0254,1,5,POINT (-37.86206904 145.02538188),
TRAM,157,1083,42-Clyde St/Raleigh Rd (Maribyrnong),-37.7697,144.8988,1,"82,57",POINT (-37.76969898 144.89884116),
TRAM,158,11285,43-Egerton Rd/Wattletree Rd (Armadale),-37.8617,145.0228,1,5,POINT (-37.86171003 145.02275388),
TRAM,159,1185,50-Vincent St/Wattletree Rd (Malvern East),-37.8642,145.0434,1,5,POINT (-37.86422598 145.04337504),
TRAM,160,12599,42-Kooyong Rd/Wattletree Rd (Armadale),-37.8613,145.0199,1,5,POINT (-37.86134598 145.01989908),
TRAM,161,1291,51-Erica Ave/Wattletree Rd (Malvern East),-37.8646,145.0466,1,5,POINT (-37.86461298 145.04657112),
TRAM,162,1292,38-Renown St/Sydney Rd (Coburg),-37.7316,144.9643,1,19,POINT (-37.73161899 144.96426612),
TRAM,163,13401,28-Punt Rd/High St (Prahran),-37.8506,144.984,1,6,POINT (-37.85056398 144.98404704),
TRAM,164,13995,44-Barb St/Raleigh Rd (Maribyrnong),-37.7689,144.892,1,"82,57",POINT (-37.76889096 144.89198496),
TRAM,165,14033,29-Perth St/High St (Prahran),-37.851,144.9877,1,6,POINT (-37.85104998 144.98772696),
TRAM,166,14614,30-Prahran Station/High St (Prahran),-37.8513,144.9897,1,6,POINT (-37.85131899 144.98973108),
TRAM,167,14728,31-Chapel St/High St (Prahran),-37.8518,144.9932,1,6,POINT (-37.85175603 144.99320904),
TRAM,168,15559,45-Randall St/Raleigh Rd (Maribyrnong),-37.7686,144.8889,1,"82,57",POINT (-37.76862897 144.88893792),
TRAM,169,15699,32-Hornby St/High St (Prahran),-37.8522,144.9964,1,6,POINT (-37.85219901 144.99643608),
TRAM,170,1575,52-Burke Rd/Wattletree Rd (Malvern East),-37.8651,145.0501,1,5,POINT (-37.86507603 145.05007104),
TRAM,171,16610,33-The Avenue/High St (Prahran),-37.8524,144.9981,1,6,POINT (-37.852434 144.99808884),
TRAM,172,16713,34-Bell St/Sydney Rd (Coburg),-37.7415,144.9665,1,19,POINT (-37.74147102 144.96647004),
TRAM,173,16714,33-Coburg Market/Sydney Rd (Coburg),-37.7433,144.9661,1,19,POINT (-37.74325896 144.96614784),
TRAM,174,16715,32-Munro St/Sydney Rd (Coburg),-37.7451,144.9658,1,19,POINT (-37.74506499 144.96583788),
TRAM,175,16716,31-Reynard St/Sydney Rd (Coburg),-37.7487,144.9652,1,19,POINT (-37.74873996 144.96520392),
TRAM,176,16717,30-The Avenue/Sydney Rd (Coburg),-37.7521,144.9646,1,19,POINT (-37.75207302 144.96463584),
TRAM,177,16718,34-Lewisham Rd/High St (Prahran),-37.8527,144.9997,1,6,POINT (-37.85265099 144.99968508),
TRAM,178,16719,28-Moreland Rd/Sydney Rd (Brunswick),-37.7556,144.964,1,19,POINT (-37.75563999 144.96401592),
TRAM,179,16720,27-Brunswick Tram Depot/Sydney Rd (Brunswick),-37.7578,144.9636,1,19,POINT (-37.75781502 144.963639),
TRAM,180,16721,26-Albion St/Sydney Rd (Brunswick),-37.761,144.9631,1,19,POINT (-37.76095899 144.96308712),
TRAM,181,16722,25-Stewart St/Sydney Rd (Brunswick),-37.7632,144.9627,1,19,POINT (-37.76323203 144.96269508),
TRAM,182,16723,24-Brunswick Baptist Church/Sydney Rd (Brunswick),-37.7656,144.9623,1,19,POINT (-37.76557797 144.96230196),
TRAM,183,16724,23-Victoria St/Sydney Rd (Brunswick),-37.7671,144.962,1,19,POINT (-37.767141 144.96203196),
TRAM,184,16725,22-Albert St/Sydney Rd (Brunswick),-37.7689,144.9617,1,19,POINT (-37.76894703 144.96172092),
TRAM,185,16726,21-Brunswick Town Hall/Sydney Rd (Brunswick),-37.7716,144.9613,1,19,POINT (-37.77164298 144.96126084),
TRAM,186,16727,20-Barkly Square/115 Sydney Rd (Brunswick),-37.7748,144.9607,1,19,POINT (-37.77484203 144.96074208),
TRAM,187,16728,19-Brunswick Rd/Sydney Rd (Brunswick),-37.7776,144.9603,1,19,POINT (-37.77759099 144.96026904),
TRAM,188,16729,18-Princes Park/Royal Pde (Parkville),-37.7794,144.9599,1,19,POINT (-37.77937902 144.95993604),
TRAM,189,16730,17-Ievers St/Royal Pde (Parkville),-37.7819,144.9596,1,19,POINT (-37.78188804 144.95964012),
TRAM,190,16731,16-Visy Park/Royal Pde (Parkville),-37.7849,144.9593,1,19,POINT (-37.78485597 144.959274),
TRAM,191,16732,15-Leonard St/Royal Pde (Parkville),-37.7879,144.9589,1,19,POINT (-37.787931 144.95889384),
TRAM,192,16733,14-Macarthur Rd/Royal Pde (Parkville),-37.79,144.9586,1,19,POINT (-37.79001702 144.958644),
TRAM,193,16734,13-Gatehouse St/Royal Pde (Parkville),-37.7927,144.9583,1,19,POINT (-37.79267904 144.95830992),
TRAM,194,16735,12-Morrah St/Royal Pde (Parkville),-37.7957,144.9579,1,19,POINT (-37.79565597 144.95794416),
TRAM,195,16736,11-University of Melbourne/Royal Pde (Parkville),-37.7983,144.9577,1,19,POINT (-37.79827299 144.95765616),
TRAM,196,16738,35-Williams Rd/High St (Prahran),-37.853,145.0023,1,6,POINT (-37.85301099 145.00232388),
TRAM,197,16739,36-Chatsworth Rd/High St (Prahran),-37.8536,145.0063,1,6,POINT (-37.85355603 145.00627596),
TRAM,198,16740,37-Airlie Ave/High St (Prahran),-37.8539,145.0087,1,6,POINT (-37.85386599 145.00865412),
TRAM,199,16741,38-Orrong Rd/High St (Prahran),-37.8542,145.0115,1,6,POINT (-37.85421996 145.01145204),
TRAM,200,16742,39-Auburn Gr/High St (Armadale),-37.8547,145.015,1,6,POINT (-37.85468499 145.01497392),
TRAM,201,16743,40-Armadale Station/High St (Armadale),-37.8551,145.0182,1,6,POINT (-37.85511897 145.01824704),
TRAM,202,16744,41-Kooyong Rd/High St (Armadale),-37.8554,145.0206,1,6,POINT (-37.85541903 145.02058092),
TRAM,203,16745,42-Huntingtower Rd/High St (Armadale),-37.8558,145.0237,1,6,POINT (-37.85583204 145.02367296),
TRAM,204,16746,43-Mercer Rd/High St (Armadale),-37.8561,145.0259,1,6,POINT (-37.85612202 145.02593808),
TRAM,205,16747,44-Glenferrie Rd/High St (Malvern),-37.8565,145.0292,1,6,POINT (-37.85653602 145.02916584),
TRAM,206,16748,45-De La Salle College/High St (Malvern),-37.8569,145.0324,1,6,POINT (-37.85694201 145.03238316),
TRAM,207,16749,46-Fraser St/High St (Malvern),-37.8574,145.0356,1,6,POINT (-37.85738301 145.03561092),
TRAM,208,16750,47-Dixon St/High St (Malvern),-37.8577,145.038,1,6,POINT (-37.85769396 145.03801284),
TRAM,209,16751,48-Tooronga Rd/High St (Glen Iris),-37.8581,145.041,1,6,POINT (-37.85807799 145.04104908),
TRAM,210,16752,49-Harold Holt Swim Centre/High St (Glen Iris),-37.8585,145.0442,1,6,POINT (-37.85845401 145.044198),
TRAM,211,16753,50-Belmont Ave/High St (Glen Iris),-37.8589,145.0483,1,6,POINT (-37.85894496 145.04825484),
TRAM,212,16754,51-Burke Rd/High St (Glen Iris),-37.8593,145.0512,1,6,POINT (-37.85931 145.05121188),
TRAM,213,16755,52-Boyanda Rd/High St (Glen Iris),-37.8596,145.0538,1,6,POINT (-37.85961402 145.05379488),
TRAM,214,16757,53-Malvern Rd/High St (Glen Iris),-37.86,145.0563,1,6,POINT (-37.85999796 145.05633108),
TRAM,215,16758,52-Boyanda Rd/High St (Glen Iris),-37.8598,145.0542,1,6,POINT (-37.85978196 145.05418908),
TRAM,216,16759,51-Burke Rd/High St (Glen Iris),-37.8595,145.0515,1,6,POINT (-37.85948604 145.05150312),
TRAM,217,16760,50-Belmont Ave/High St (Glen Iris),-37.8591,145.0484,1,6,POINT (-37.85911002 145.04840892),
TRAM,218,16761,49-Harold Holt Swim Centre/High St (Glen Iris),-37.8587,145.0447,1,6,POINT (-37.85867001 145.04470416),
TRAM,219,16762,48-Tooronga Rd/High St (Glen Iris),-37.8583,145.0414,1,6,POINT (-37.85827203 145.04136192),
TRAM,220,16764,47-Dixon St/High St (Malvern),-37.8578,145.038,1,6,POINT (-37.85781996 145.03800888),
TRAM,221,16765,46-Fraser St/High St (Malvern),-37.8576,145.0358,1,6,POINT (-37.85755797 145.03579992),
TRAM,222,16766,45-De La Salle College/High St (Malvern),-37.8572,145.0329,1,6,POINT (-37.85715702 145.03288896),
TRAM,223,16767,44-Glenferrie Rd/High St (Malvern),-37.8567,145.0295,1,6,POINT (-37.85670396 145.02950316),
TRAM,224,16768,43-Mercer Rd/High St (Armadale),-37.8563,145.0262,1,6,POINT (-37.85628897 145.02622896),
TRAM,225,16769,42-Huntingtower Rd/High St (Armadale),-37.856,145.0238,1,6,POINT (-37.85599602 145.02382704),
TRAM,226,16770,41-Kooyong Rd/High St (Armadale),-37.8556,145.0208,1,6,POINT (-37.85558499 145.02080412),
TRAM,227,16771,40-Armadale Station/High St (Armadale),-37.8553,145.0184,1,6,POINT (-37.85527404 145.01840184),
TRAM,228,16772,39-Auburn Gr/High St (Armadale),-37.8549,145.0154,1,6,POINT (-37.85487201 145.01535588),
TRAM,229,16773,38-Orrong Rd/High St (Armadale),-37.8544,145.0117,1,6,POINT (-37.85438601 145.01170908),
TRAM,230,16774,37-Airlie Ave/High St (Prahran),-37.854,145.0087,1,6,POINT (-37.85399298 145.00868508),
TRAM,231,16775,36-Chatsworth Rd/High St (Prahran),-37.8538,145.0069,1,6,POINT (-37.85376402 145.00687284),
TRAM,232,16776,35-Williams Rd/High St (Prahran),-37.8532,145.0026,1,6,POINT (-37.85316903 145.00261512),
TRAM,233,16777,34-Lewisham Rd/High St (Prahran),-37.8528,145.0001,1,6,POINT (-37.85282901 145.00011312),
TRAM,234,16778,33-The Avenue/High St (Prahran),-37.8526,144.9986,1,6,POINT (-37.852623 144.99860688),
TRAM,235,1696,51-Nott St/Wattletree Rd (Malvern East),-37.8648,145.047,1,5,POINT (-37.864782 145.04699808),
TRAM,236,17306,40-North Coburg Terminus/Sydney Rd (Coburg North),-37.7276,144.9636,1,19,POINT (-37.72757997 144.96365016),
TRAM,237,17307,39-Mercy College/Sydney Rd (Coburg North),-37.7299,144.9639,1,19,POINT (-37.72989099 144.96385896),
TRAM,238,17308,38-Carr St/Sydney Rd (Coburg North),-37.7321,144.9646,1,19,POINT (-37.73211201 144.96462684),
TRAM,239,17309,37-Gaffney St/Sydney Rd (Coburg North),-37.7339,144.9654,1,19,POINT (-37.73385603 144.96540696),
TRAM,240,17310,36-Rogers St/Sydney Rd (Coburg),-37.7355,144.9661,1,19,POINT (-37.73553399 144.96607584),
TRAM,241,17311,35-St Pauls Catholic Church/Sydney Rd (Coburg),-37.7375,144.9669,1,19,POINT (-37.73750499 144.96693012),
TRAM,242,17312,34-Bell St/Sydney Rd (Coburg),-37.7412,144.9667,1,19,POINT (-37.74115899 144.96666012),
TRAM,243,17313,33-Coburg Market/Sydney Rd (Coburg),-37.7431,144.9664,1,19,POINT (-37.74313602 144.96635592),
TRAM,244,17314,32-Harding St/Sydney Rd (Coburg),-37.7449,144.9661,1,19,POINT (-37.74488796 144.96605784),
TRAM,245,17315,31-Edward St/Sydney Rd (Coburg),-37.7485,144.9654,1,19,POINT (-37.74847401 144.96545016),
TRAM,246,17316,30-The Avenue/Sydney Rd (Coburg),-37.7519,144.9648,1,19,POINT (-37.75186098 144.96484608),
TRAM,247,17317,29-Moore St/Sydney Rd (Coburg),-37.7535,144.9646,1,19,POINT (-37.75350501 144.96455088),
TRAM,248,17318,28-Moreland Rd/Sydney Rd (Coburg),-37.7553,144.9643,1,19,POINT (-37.75531104 144.96425208),
TRAM,249,17319,27-Brunswick Tram Depot/Sydney Rd (Brunswick),-37.7574,144.9639,1,19,POINT (-37.75742199 144.96387588),
TRAM,250,17320,26-Albion St/Sydney Rd (Brunswick),-37.7607,144.9633,1,19,POINT (-37.76073804 144.96330888),
TRAM,251,17321,25-Stewart St/Sydney Rd (Brunswick),-37.7631,144.9629,1,19,POINT (-37.76308299 144.96290388),
TRAM,252,17322,24-Blyth St/Sydney Rd (Brunswick),-37.7654,144.9625,1,19,POINT (-37.76535603 144.96251184),
TRAM,253,17323,23-Victoria St/Sydney Rd (Brunswick),-37.767,144.9622,1,19,POINT (-37.76698197 144.96222888),
TRAM,254,17324,22-Albert St/Sydney Rd (Brunswick),-37.7688,144.9619,1,19,POINT (-37.768761 144.96191892),
TRAM,255,17325,21-Glenlyon Rd/Sydney Rd (Brunswick),-37.7714,144.9615,1,19,POINT (-37.77136704 144.96147288),
TRAM,256,17327,19-Brunswick Rd/Sydney Rd (Brunswick),-37.7776,144.9604,1,19,POINT (-37.77764697 144.96039216),
TRAM,257,17328,18-Princes Park/Royal Pde (Parkville),-37.7794,144.9602,1,19,POINT (-37.77938298 144.96015204),
TRAM,258,17329,17-Ievers St/Royal Pde (Parkville),-37.7817,144.9598,1,19,POINT (-37.78168401 144.95983812),
TRAM,259,17330,16-Walker St/Royal Pde (Parkville),-37.7846,144.9595,1,19,POINT (-37.78458903 144.95950908),
TRAM,260,17331,15-Leonard St/Royal Pde (Parkville),-37.7877,144.9591,1,19,POINT (-37.78767396 144.95912892),
TRAM,261,17332,14-Cemetery Road West/Royal Pde (Parkville),-37.7897,144.9589,1,19,POINT (-37.78971498 144.95887908),
TRAM,262,17333,13-Gatehouse St/Royal Pde (Parkville),-37.7924,144.9585,1,19,POINT (-37.792422 144.95854392),
TRAM,263,17334,12-Morrah St/Royal Pde (Parkville),-37.7956,144.9582,1,19,POINT (-37.79556102 144.95817312),
TRAM,264,17335,11-University of Melbourne/Royal Pde (Parkville),-37.7981,144.9579,1,19,POINT (-37.79810496 144.95785416),
TRAM,265,17591,7-Russell St/Bourke St (Melbourne City),-37.8128,144.9684,1,"96,86",POINT (-37.81276902 144.96835392),
TRAM,266,17593,6-Swanston St/Bourke St (Melbourne City),-37.8135,144.9659,1,"96,86",POINT (-37.81348398 144.96590412),
TRAM,267,17594,5-Elizabeth St/Bourke St (Melbourne City),-37.8142,144.9635,1,"96,86",POINT (-37.81421703 144.96351012),
TRAM,268,17596,4-Queen St/Bourke St (Melbourne City),-37.8153,144.9598,1,"96,86",POINT (-37.81525302 144.95983488),
TRAM,269,17597,3-William St/Bourke St (Melbourne City),-37.8159,144.9576,1,"96,86",POINT (-37.81588203 144.95762484),
TRAM,270,17602,32-Hornby St/High St (Prahran),-37.8524,144.9965,1,6,POINT (-37.85235399 144.996534),
TRAM,271,17603,31-Chapel St/High St (Prahran),-37.852,144.9935,1,6,POINT (-37.85195097 144.99353304),
TRAM,272,17604,30-Prahran Station/High St (Windsor),-37.8514,144.9893,1,6,POINT (-37.85139198 144.989298),
TRAM,273,17605,29-Perth St/High St (Windsor),-37.8512,144.9879,1,6,POINT (-37.85120703 144.98792712),
TRAM,274,17606,28-Punt Rd/High St (Windsor),-37.8508,144.9844,1,6,POINT (-37.85075802 144.98437104),
TRAM,275,1784,37-Gaffney St/Sydney Rd (Coburg),-37.7341,144.9653,1,19,POINT (-37.73409696 144.96532092),
TRAM,276,17848,1-Spencer St/Bourke St (Melbourne City),-37.8171,144.9535,1,"96,86",POINT (-37.81706301 144.953514),
TRAM,277,17849,1-Spencer St/Bourke St (Melbourne City),-37.8168,144.954,1,"96,86",POINT (-37.81684602 144.95399712),
TRAM,278,17850,1-Flinders Street Railway Station/Elizabeth St (Melbourne City),-37.8177,144.9648,1,"57,59,19",POINT (-37.81771704 144.96476508),
TRAM,279,17851,2-Collins St/Elizabeth St (Melbourne City),-37.8154,144.9637,1,"57,59,19",POINT (-37.81542798 144.96366888),
TRAM,280,17852,3-Bourke Street Mall/Elizabeth St (Melbourne City),-37.8134,144.9628,1,"57,59,19",POINT (-37.81344699 144.96275808),
TRAM,281,17854,5-Melbourne Central Station/Elizabeth St (Melbourne City),-37.8106,144.9614,1,"57,59,19",POINT (-37.81055799 144.96142896),
TRAM,282,17856,7-Queen Victoria Market/Elizabeth St (Melbourne City),-37.8066,144.9596,1,"57,59,19",POINT (-37.806561 144.95957388),
TRAM,283,17857,8-Peel St/Victoria St (Melbourne City),-37.8059,144.9562,1,57,POINT (-37.80593496 144.95621796),
TRAM,284,17858,9-William St/Victoria St (Melbourne City),-37.8057,144.9539,1,57,POINT (-37.805688 144.95390784),
TRAM,285,17859,10-Chetwynd St/Victoria St (Melbourne City),-37.8055,144.9524,1,57,POINT (-37.805517 144.95239116),
TRAM,286,17860,11-Errol St/Victoria St (Melbourne City),-37.8052,144.9494,1,57,POINT (-37.80519597 144.949446),
TRAM,287,17861,11-Victoria St/Errol St (North Melbourne),-37.805,144.9493,1,57,POINT (-37.804959 144.94933908),
TRAM,288,17862,10-Chetwynd St/Victoria St (Melbourne City),-37.8054,144.952,1,57,POINT (-37.80540297 144.95203008),
TRAM,289,17863,9-Howard St/Victoria St (Melbourne City),-37.8056,144.9535,1,57,POINT (-37.80556398 144.95350212),
TRAM,290,17864,8-Peel St/Victoria St (Melbourne City),-37.8058,144.9557,1,57,POINT (-37.80581004 144.95574384),
TRAM,291,17866,9-Pelham St/Elizabeth St (Melbourne City),-37.8019,144.9575,1,"59,19",POINT (-37.80194697 144.95746392),
TRAM,292,17867,10-Royal Melbourne Hospital/Royal Pde (Melbourne City),-37.7999,144.9574,1,19,POINT (-37.799901 144.95744088),
TRAM,293,17868,10-Royal Melbourne Hospital/Royal Pde (Parkville),-37.7996,144.9577,1,19,POINT (-37.79957997 144.95766516),
TRAM,294,17869,9-Pelham St/Elizabeth St (Melbourne City),-37.8021,144.9577,1,"59,19",POINT (-37.80214803 144.957663),
TRAM,295,17871,7-Queen Victoria Market/Elizabeth St (Melbourne City),-37.8069,144.9598,1,"57,59,19",POINT (-37.80689004 144.95984892),
TRAM,296,17873,5-Melbourne Central Station/Elizabeth St (Melbourne City),-37.8111,144.9618,1,"57,59,19",POINT (-37.81110501 144.96177816),
TRAM,297,17875,3-Bourke Street Mall/Elizabeth St (Melbourne City),-37.814,144.9631,1,"57,59,19",POINT (-37.81403901 144.96312816),
TRAM,298,17876,2-Collins St/Elizabeth St (Melbourne City),-37.8159,144.964,1,"57,59,19",POINT (-37.81592901 144.96399612),
TRAM,299,17877,1-Flinders Street Railway Station/Elizabeth St (Melbourne City),-37.8179,144.9648,1,"57,59,19",POINT (-37.81789902 144.96483996),
TRAM,300,17878,11-Melbourne Museum/Nicholson St (Fitzroy),-37.8058,144.9736,1,"96,86",POINT (-37.80575802 144.97360092),
TRAM,301,17880,10-Albert St/Nicholson St (Fitzroy),-37.8097,144.9729,1,"86,96,35",POINT (-37.80967599 144.97294896),
TRAM,302,17882,9-Spring St/Bourke St (Melbourne City),-37.8115,144.9726,1,"96,86",POINT (-37.81154403 144.97257888),
TRAM,303,17885,3-William St/Bourke St (Melbourne City),-37.8157,144.9579,1,"96,86",POINT (-37.81570599 144.95791392),
TRAM,304,17886,4-Queen St/Bourke St (Melbourne City),-37.8151,144.9601,1,"96,86",POINT (-37.81512198 144.96005412),
TRAM,305,17887,5-Elizabeth St/Bourke St (Melbourne City),-37.814,144.9637,1,"96,86",POINT (-37.814031 144.96368508),
TRAM,306,17888,6-Swanston St/Bourke St (Melbourne City),-37.8133,144.9664,1,"96,86",POINT (-37.813266 144.96637608),
TRAM,307,17889,7-Russell St/Bourke St (Melbourne City),-37.8125,144.9692,1,"96,86",POINT (-37.81246797 144.96916896),
TRAM,308,1789,50-Anderson St/Wattletree Rd (Malvern East),-37.8644,145.0437,1,5,POINT (-37.86438501 145.043712),
TRAM,309,17891,9-Spring St/Bourke St (Melbourne City),-37.8115,144.9724,1,"96,86",POINT (-37.81152297 144.97241004),
TRAM,310,17892,10-Albert St/Nicholson St (East Melbourne),-37.8094,144.9729,1,"86,96,35",POINT (-37.809423 144.97289892),
TRAM,311,17894,11-Melbourne Museum/Nicholson St (Fitzroy),-37.8057,144.9735,1,"96,86",POINT (-37.80567603 144.97354584),
TRAM,312,17895,12-St Vincents Plaza/Victoria Pde (East Melbourne),-37.8083,144.9761,1,"11,12,30,109",POINT (-37.80828 144.97613316),
TRAM,313,17896,11-Albert St/Gisborne St (East Melbourne),-37.8094,144.9757,1,"11,12,109",POINT (-37.80938997 144.97572816),
TRAM,314,17897,10-Parliament Railway Station/Macarthur St (East Melbourne),-37.8124,144.9745,1,"11,12,109",POINT (-37.81237896 144.97448796),
TRAM,315,17898,8-Spring St/Collins St (Melbourne City),-37.8136,144.9733,1,"11,12,48,109",POINT (-37.81355697 144.97328484),
TRAM,316,17901,6-Melbourne Town Hall/Collins St (Melbourne City),-37.8157,144.966,1,"11,12,48,109",POINT (-37.81567404 144.96595704),
TRAM,317,17902,5-Elizabeth St/Collins St (Melbourne City),-37.8164,144.9634,1,"11,12,48,109",POINT (-37.81642302 144.96340392),
TRAM,318,17903,3-William St/Collins St (Melbourne City),-37.8176,144.9594,1,"11,12,48,109",POINT (-37.81760697 144.95942916),
TRAM,319,17905,1-Spencer St/Collins St (Melbourne City),-37.8188,144.9551,1,"11,12,48,109",POINT (-37.81884699 144.95505516),
TRAM,320,17906,1-Spencer St/Collins St (Melbourne City),-37.8187,144.9552,1,"11,12,48,109",POINT (-37.81874097 144.95518296),
TRAM,321,17908,3-William St/Collins St (Melbourne City),-37.8174,144.9599,1,"11,12,48,109",POINT (-37.81737198 144.959913),
TRAM,322,17910,5-Elizabeth St/Collins St (Melbourne City),-37.8162,144.9639,1,"11,12,48,109",POINT (-37.81620603 144.963864),
TRAM,323,17911,6-Melbourne Town Hall/Collins St (Melbourne City),-37.8155,144.9663,1,"11,12,48,109",POINT (-37.81551798 144.96627996),
TRAM,324,17914,8-Spring St/Collins St (Melbourne City),-37.8134,144.9735,1,"11,12,48,109",POINT (-37.81341603 144.97348212),
TRAM,325,17915,10-Parliament Railway Station/Macarthur St (East Melbourne),-37.8122,144.9744,1,"11,12,109",POINT (-37.81216998 144.97436808),
TRAM,326,17917,46-Rosamond Rd/Raleigh Rd (Maribyrnong),-37.7689,144.8867,1,"82,57",POINT (-37.768887 144.88672896),
TRAM,327,17918,48-Raleigh Rd/Wests Rd (Maribyrnong),-37.7696,144.8828,1,82,POINT (-37.76963697 144.88281288),
TRAM,328,17919,49-Highpoint Shopping Centre/Wests Rd (Maribyrnong),-37.7731,144.8822,1,82,POINT (-37.77310404 144.88218108),
TRAM,329,17920,50-Wests Rd/Williamson Rd (Maribyrnong),-37.7752,144.8821,1,82,POINT (-37.77521202 144.88214292),
TRAM,330,17921,51-Williamson Rd/Rosamond Rd (Maidstone),-37.776,144.8856,1,82,POINT (-37.77604002 144.88557084),
TRAM,331,17922,52-Rosamond Rd/River St (Maribyrnong),-37.7793,144.8858,1,82,POINT (-37.77933204 144.88575012),
TRAM,332,17923,53-Maribyrnong College/River St (Maribyrnong),-37.7796,144.8878,1,82,POINT (-37.77959403 144.88778592),
TRAM,333,17924,54-Gordon St/River St (Maribyrnong),-37.78,144.8909,1,82,POINT (-37.780002 144.89093088),
TRAM,334,17925,55-Lyric St/Gordon St (Maribyrnong),-37.7822,144.8912,1,82,POINT (-37.78224102 144.89115084),
TRAM,335,17926,56-Edgewater Square/Gordon St (Maribyrnong),-37.7849,144.8906,1,82,POINT (-37.784898 144.89059896),
TRAM,336,17927,57-Titch St/Gordon St (Footscray),-37.7886,144.8899,1,82,POINT (-37.78864398 144.88992396),
TRAM,337,17928,58-Ballarat Rd/Gordon St (Footscray),-37.7905,144.8896,1,82,POINT (-37.79047602 144.88955388),
TRAM,338,17929,59-Droop St/Ballarat Rd (Footscray),-37.7926,144.8936,1,82,POINT (-37.792584 144.89357112),
TRAM,339,17930,60-Tiernan St/Droop St (Footscray),-37.7949,144.8955,1,82,POINT (-37.79488998 144.89551584),
TRAM,340,17931,61-Geelong Rd/Droop St (Footscray),-37.7968,144.8971,1,82,POINT (-37.79679303 144.89713116),
TRAM,341,17932,62-Nicholson St/Hopkins St (Footscray),-37.7998,144.8997,1,82,POINT (-37.79984097 144.89973612),
TRAM,342,17933,63-Footscray Market/Leeds St (Footscray),-37.8001,144.9011,1,82,POINT (-37.800081 144.90105804),
TRAM,343,17934,64-Footscray Station/Leeds St (Footscray),-37.8014,144.9009,1,82,POINT (-37.80136701 144.90092016),
TRAM,344,17935,40-Epsom Rd/Maribyrnong Rd (Moonee Ponds),-37.7704,144.9051,1,"82,57",POINT (-37.77043203 144.905121),
TRAM,345,17936,39-Bowen St/Maribyrnong Rd (Moonee Ponds),-37.7709,144.909,1,"82,57",POINT (-37.77086196 144.90900288),
TRAM,346,17937,38-Hotham St/Maribyrnong Rd (Moonee Ponds),-37.7712,144.9123,1,"82,57",POINT (-37.771236 144.91233),
TRAM,347,17938,37-Union Rd/Maribyrnong Rd (Moonee Ponds),-37.7716,144.916,1,"82,57",POINT (-37.77164397 144.91599696),
TRAM,348,17939,36-86 Maribyrnong Rd (Moonee Ponds),-37.7719,144.9183,1,82,POINT (-37.77189102 144.91829484),
TRAM,349,17940,35-Moore St/Maribyrnong Rd (Moonee Ponds),-37.7722,144.9211,1,82,POINT (-37.77221196 144.92113488),
TRAM,350,17941,34-Ascot Vale Rd/Maribyrnong Rd (Moonee Ponds),-37.7725,144.9237,1,82,POINT (-37.77247404 144.92370492),
TRAM,351,17942,33-Chaucer St/Ascot Vale Rd (Moonee Ponds),-37.7701,144.9243,1,82,POINT (-37.77005097 144.92428416),
TRAM,352,17944,49-Central Park Ave/Cordite Ave (Maribyrnong),-37.7689,144.878,1,57,POINT (-37.76885604 144.877977),
TRAM,353,17945,36-St Leonards Rd/Union Rd (Ascot Vale),-37.7736,144.9159,1,57,POINT (-37.77357096 144.91594296),
TRAM,354,17946,35-Bloomfield Rd/Union Rd (Ascot Vale),-37.7759,144.9156,1,57,POINT (-37.775889 144.91555992),
TRAM,355,17947,34-Burrowes St/Union Rd (Ascot Vale),-37.7785,144.9152,1,57,POINT (-37.77853302 144.91522512),
TRAM,356,17948,33-Melbourne Showgrounds/Union Rd (Ascot Vale),-37.7804,144.9148,1,57,POINT (-37.78035498 144.914787),
TRAM,357,17949,32-Sandown Rd/Epsom Rd (Ascot Vale),-37.7826,144.9167,1,57,POINT (-37.78258698 144.91671192),
TRAM,358,17950,31-Racing Victoria/161 Epsom Rd (Ascot Vale),-37.784,144.9181,1,57,POINT (-37.78401798 144.91812492),
TRAM,359,17951,30-Flemington Racecourse/Epsom Rd (Ascot Vale),-37.786,144.92,1,57,POINT (-37.78604298 144.91998684),
TRAM,360,17952,29-Flemington Racecourse/Racecourse Rd (Flemington),-37.7873,144.922,1,57,POINT (-37.78734897 144.92200608),
TRAM,361,17953,28-Smithfield Rd/Racecourse Rd (Flemington),-37.7876,144.925,1,57,POINT (-37.78762599 144.92495016),
TRAM,362,17954,26-Newmarket Plaza/Racecourse Rd (Flemington),-37.788,144.9282,1,57,POINT (-37.78797096 144.92815416),
TRAM,363,17955,25-Wellington St/Racecourse Rd (Flemington),-37.7882,144.9312,1,57,POINT (-37.78824096 144.93123504),
TRAM,364,17956,24-Victoria St/Racecourse Rd (Flemington),-37.7884,144.9335,1,57,POINT (-37.78844301 144.93349008),
TRAM,365,17957,23-Stubbs St/Racecourse Rd (Flemington),-37.7888,144.9366,1,57,POINT (-37.788768 144.93658104),
TRAM,366,17958,22-Boundary Rd/Racecourse Rd (North Melbourne),-37.7891,144.9399,1,57,POINT (-37.78913097 144.939852),
TRAM,367,17959,20-Melrose St/Flemington Rd (North Melbourne),-37.7904,144.9435,1,"59,57",POINT (-37.79039403 144.94348512),
TRAM,368,17961,19-Abbotsford St Interchange/Abbotsford St (North Melbourne),-37.7941,144.9471,1,57,POINT (-37.79410599 144.94709592),
TRAM,369,18006,11-Albert St/Gisborne St (East Melbourne),-37.8097,144.9756,1,"11,12,109",POINT (-37.80969498 144.97560612),
TRAM,370,18009,10-Nicholson St/Victoria Pde (East Melbourne),-37.808,144.9736,1,30,POINT (-37.808019 144.97356204),
TRAM,371,18010,9-La Trobe St/Victoria St (Melbourne City),-37.8076,144.971,1,"35,30",POINT (-37.807614 144.97097184),
TRAM,372,18011,8-Exhibition St/La Trobe St (Melbourne City),-37.8081,144.969,1,"35,30",POINT (-37.80810297 144.96902712),
TRAM,373,18030,6-Swanston St/La Trobe St (Melbourne City),-37.8096,144.9641,1,"35,30",POINT (-37.80954999 144.96408108),
TRAM,374,18031,5-Elizabeth St/La Trobe St (Melbourne City),-37.8103,144.9616,1,"35,30",POINT (-37.81029096 144.961596),
TRAM,375,18032,4-Queen St/La Trobe St (Melbourne City),-37.811,144.9591,1,"35,30",POINT (-37.81100502 144.95912208),
TRAM,376,18033,3-William St/La Trobe St (Melbourne City),-37.8117,144.9567,1,"35,30",POINT (-37.81171098 144.956718),
TRAM,377,18035,1-Spencer St/La Trobe St (Melbourne City),-37.8131,144.9518,1,"35,30",POINT (-37.81311201 144.95176008),
TRAM,378,18037,D10-New Quay Prom/Docklands Dr (Docklands),-37.8138,144.9405,1,"70,86,35",POINT (-37.81378098 144.94050792),
TRAM,379,18038,D11-Waterfront City/Docklands Dr (Docklands),-37.8143,144.9388,1,"70,86,35",POINT (-37.81434501 144.938754),
TRAM,380,18039,D10-NewQuay Prom/Docklands Dr (Docklands),-37.8133,144.9415,1,"70,86,35",POINT (-37.81331199 144.94150908),
TRAM,381,18040,D1-Stadium Precinct/La Trobe St (Docklands),-37.8146,144.9464,1,"35,86,30",POINT (-37.81457802 144.946404),
TRAM,382,18041,119-Spencer St/La Trobe St (Melbourne City),-37.8132,144.9512,1,"35,86,30",POINT (-37.81321101 144.951201),
TRAM,383,18042,2-King St/La Trobe St (Melbourne City),-37.8125,144.9537,1,"35,30",POINT (-37.81248003 144.95373216),
TRAM,384,18043,3-William St/La Trobe St (Melbourne City),-37.8118,144.9561,1,"35,30",POINT (-37.81179099 144.95613588),
TRAM,385,18044,4-Queen St/La Trobe St (Melbourne City),-37.8111,144.9587,1,"35,30",POINT (-37.811061 144.95871204),
TRAM,386,18045,5-Elizabeth St/La Trobe St (Melbourne City),-37.8104,144.9611,1,"35,30",POINT (-37.81035504 144.96111684),
TRAM,387,18046,6-Swanston St/La Trobe St (Melbourne City),-37.8096,144.9635,1,"35,30",POINT (-37.80964701 144.96346512),
TRAM,388,18047,7-Russell St/La Trobe St (Melbourne City),-37.8089,144.9661,1,"35,30",POINT (-37.80890901 144.96609816),
TRAM,389,18048,8-Exhibition St/La Trobe St (Melbourne City),-37.8082,144.9685,1,"35,30",POINT (-37.80818496 144.96853716),
TRAM,390,18049,9-Victoria St/La Trobe St (Melbourne City),-37.8077,144.9703,1,"35,30",POINT (-37.80765603 144.97026588),
TRAM,391,18050,10-Nicholson St/Victoria Pde (Carlton),-37.8078,144.9728,1,"35,30",POINT (-37.80783603 144.97283988),
TRAM,392,18051,12-St Vincents Plaza/Victoria Pde (Fitzroy),-37.8082,144.9765,1,"11,12,30,109",POINT (-37.80823104 144.97645212),
TRAM,393,18052,D2-Central Pier/Harbour Esp (Docklands),-37.8147,144.9449,1,"35,70,75,86,30",POINT (-37.81470501 144.944901),
TRAM,394,18053,D3-Stadium Precinct/Harbour Esp (Docklands),-37.8178,144.9462,1,"70,75,35",POINT (-37.81781901 144.94624596),
TRAM,395,18054,D4-Docklands Park/Harbour Esp (Docklands),-37.8215,144.9476,1,"70,75,35",POINT (-37.82146599 144.94761),
TRAM,396,18055,D5-South Wharf/Wurundjeri Way (Docklands),-37.8218,144.9512,1,"70,75,35",POINT (-37.82183499 144.95121288),
TRAM,397,18056,D6-Flinders Street West/Flinders St (Docklands),-37.8215,144.9536,1,"70,75,35",POINT (-37.82147103 144.95360796),
TRAM,398,18057,18-Chapman St/Abbotsford St (North Melbourne),-37.795,144.9469,1,57,POINT (-37.79496 144.94694688),
TRAM,399,18058,17-Molesworth St/Abbotsford St (North Melbourne),-37.7963,144.9467,1,57,POINT (-37.79630703 144.94669416),
TRAM,400,18059,16-Haines St/Abbotsford St (North Melbourne),-37.7983,144.9463,1,57,POINT (-37.79828397 144.94634388),
TRAM,401,18060,15-Arden St/Abbotsford St (North Melbourne),-37.801,144.9458,1,57,POINT (-37.80099702 144.94584888),
TRAM,402,18061,14-Queensberry St/Abbotsford St (North Melbourne),-37.8024,144.9456,1,57,POINT (-37.80239004 144.94562784),
TRAM,403,18063,23-Royal Park/Royal Park (Parkville),-37.7914,144.9494,1,58,POINT (-37.79137998 144.94939704),
TRAM,404,18064,24-Elliott Ave/Royal Park (Parkville),-37.788,144.9498,1,58,POINT (-37.78801596 144.94975092),
TRAM,405,18065,25-State Netball Hockey Centre/Royal Park (Parkville),-37.7845,144.9488,1,58,POINT (-37.78453899 144.94884804),
TRAM,406,18066,26-Melbourne Zoo/Royal Park (Parkville),-37.7826,144.9492,1,58,POINT (-37.78261704 144.94921884),
TRAM,407,18067,27-Royal Park Station/Royal Park (Parkville),-37.7808,144.9514,1,58,POINT (-37.78075296 144.95136012),
TRAM,408,18068,28-Park St/Royal Park (Parkville),-37.7772,144.95,1,58,POINT (-37.77724098 144.94996908),
TRAM,409,18069,29-Brunswick Rd/Grantham St (Brunswick West),-37.7755,144.9489,1,58,POINT (-37.775538 144.948915),
TRAM,410,18071,30-Union Square Shopping Centre/Grantham St (Brunswick West),-37.7724,144.9495,1,58,POINT (-37.77236703 144.94952484),
TRAM,411,18072,31-Grantham St/Dawson St (Brunswick West),-37.7701,144.9495,1,58,POINT (-37.77005097 144.94953204),
TRAM,412,18073,32-Foden St/Dawson St (Brunswick),-37.7698,144.9474,1,58,POINT (-37.76978898 144.94738212),
TRAM,413,18074,33-South Daly St/Dawson St (Brunswick West),-37.7694,144.9442,1,58,POINT (-37.76939901 144.94416912),
TRAM,414,18075,34-Smith St/Melville Rd (Brunswick),-37.7673,144.9433,1,58,POINT (-37.76731101 144.94331916),
TRAM,415,18076,35-Victoria St/Melville Rd (Brunswick West),-37.7647,144.9439,1,58,POINT (-37.76470803 144.94389012),
TRAM,416,18077,36-Hope St/Melville Rd (Brunswick West),-37.762,144.9444,1,58,POINT (-37.76203998 144.94438404),
TRAM,417,18078,37-Albion St/Melville Rd (Brunswick West),-37.7586,144.945,1,58,POINT (-37.75856301 144.944991),
TRAM,1175,19765,47-Willow Gr/Riversdale Rd (Camberwell),-37.8333,145.0727,1,70,POINT (-37.83327597 145.07266788),
TRAM,1176,19766,48-Cooloongatta Rd/Riversdale Rd (Camberwell),-37.8338,145.0772,1,70,POINT (-37.83379302 145.07724492),
TRAM,1177,19767,49-Glyndon Rd/Riversdale Rd (Camberwell),-37.8341,145.0796,1,70,POINT (-37.83408399 145.07964612),
TRAM,1178,19768,50-Wattle Valley Rd/Riversdale Rd (Canterbury),-37.8343,145.0815,1,70,POINT (-37.83429504 145.08151596),
TRAM,1179,19769,51-Highfield Rd/Riversdale Rd (Camberwell),-37.8345,145.0851,1,70,POINT (-37.83453399 145.08514512),
TRAM,1180,19770,52-Lockhart St/Riversdale Rd (Camberwell),-37.8349,145.0885,1,70,POINT (-37.83492297 145.08853308),
TRAM,1181,19771,53-Essex Rd/Riversdale Rd (Camberwell),-37.8352,145.091,1,70,POINT (-37.83521502 145.09096812),
TRAM,1182,19772,54-Through Rd/Riversdale Rd (Camberwell),-37.8355,145.0938,1,70,POINT (-37.83553101 145.09380096),
TRAM,1183,19773,55-Union Rd/Riversdale Rd (Canterbury),-37.8358,145.0958,1,70,POINT (-37.83576204 145.09581804),
TRAM,1184,19774,56-Warrigal Rd/Riversdale Rd (Surrey Hills),-37.8361,145.0984,1,70,POINT (-37.83606498 145.09838916),
TRAM,1185,19775,57-Glendale St/Riversdale Rd (Surrey Hills),-37.8363,145.1,1,70,POINT (-37.83627099 145.10001996),
TRAM,1186,19776,58-Wattle Park/1013 Riversdale Rd (Surrey Hills),-37.8368,145.1026,1,70,POINT (-37.83675501 145.10261016),
TRAM,1187,19777,59-Alandale St/Riversdale Rd (Surrey Hills),-37.837,145.1048,1,70,POINT (-37.83699702 145.10480796),
TRAM,1188,19778,42-Burke Rd/Whitehorse Rd (Balwyn),-37.8104,145.0609,1,109,POINT (-37.81044396 145.060857),
TRAM,1189,19779,60-Ferndale St/Riversdale Rd (Surrey Hills),-37.8372,145.1067,1,70,POINT (-37.83720798 145.10668896),
TRAM,1190,19781,58-Box Hill Central/Whitehorse Rd (Box Hill),-37.8179,145.1223,"1,2",109,POINT (-37.81787598 145.12234896),
TRAM,1191,19782,57-Nelson Rd/Whitehorse Rd (Box Hill),-37.8174,145.1187,"1,2",109,POINT (-37.81742103 145.11871404),
TRAM,1192,19783,56-Elgar Rd/Whitehorse Rd (Box Hill),-37.8169,145.1144,"1,2",109,POINT (-37.816884 145.114434),
TRAM,1193,19784,55-Hood St/Whitehorse Rd (Mont Albert),-37.8163,145.1098,"1,2",109,POINT (-37.81634103 145.10982384),
TRAM,1194,19785,54-Inglisby Rd/Whitehorse Rd (Mont Albert),-37.8155,145.1028,"1,2",109,POINT (-37.81548 145.10275704),
TRAM,1195,19786,53-Union Rd/Whitehorse Rd (Surrey Hills),-37.8151,145.0995,"1,2",109,POINT (-37.81511199 145.09951812),
TRAM,1196,20482,15-Murphy St/Flemington Rd (North Melbourne),-37.7975,144.9524,1,"59,58",POINT (-37.79748801 144.95238504),
TRAM,1197,20490,12-Flemington Rd/Peel St (North Melbourne),-37.8014,144.9567,1,58,POINT (-37.80138402 144.95672988),
TRAM,1198,20491,12-Flemington Rd/Peel St (North Melbourne),-37.8015,144.9568,1,58,POINT (-37.801548 144.95680512),
TRAM,1199,20492,11-Queensberry St/Peel St (North Melbourne),-37.8036,144.9564,1,58,POINT (-37.80362304 144.95644116),
TRAM,1200,20493,11-Queensberry St/Peel St (North Melbourne),-37.8033,144.9564,1,58,POINT (-37.80330696 144.95639292),
TRAM,1201,20494,126-City Rd/Light Rail (South Melbourne),-37.8296,144.9544,1,96,POINT (-37.82955096 144.95444208),
TRAM,1202,20495,126-City Rd/Light Rail (South Melbourne),-37.8292,144.9544,1,96,POINT (-37.82918898 144.95437188),
TRAM,1203,20496,127-South Melbourne Station/Light Rail (South Melbourne),-37.8332,144.9555,1,96,POINT (-37.833156 144.95549004),
TRAM,1204,20497,127-South Melbourne Station/Light Rail (South Melbourne),-37.833,144.9553,1,96,POINT (-37.83303504 144.95528916),
TRAM,1205,20498,128-Albert Park Station/Light Rail (South Melbourne),-37.8402,144.9587,1,96,POINT (-37.84023297 144.95874912),
TRAM,1206,20499,128-Albert Park Station/Light Rail (South Melbourne),-37.8401,144.9586,1,96,POINT (-37.84007601 144.95857092),
TRAM,1207,20500,129-Melbourne Sports and Aquatic Centre/Light Rail (Middle Park),-37.8453,144.9617,1,96,POINT (-37.84526703 144.96166692),
TRAM,1208,20501,129-Melbourne Sports and Aquatic Centre/Light Rail (Middle Park),-37.8455,144.9617,1,96,POINT (-37.84548303 144.96167196),
TRAM,1209,20502,130-Middle Park Station/Light Rail (Middle Park),-37.8496,144.9657,1,96,POINT (-37.849626 144.96568416),
TRAM,1210,20503,130-Middle Park Station/Light Rail (Middle Park),-37.8496,144.9654,1,96,POINT (-37.84958496 144.96540084),
TRAM,1211,20504,131-Fraser St/Light Rail (Middle Park),-37.8538,144.971,1,96,POINT (-37.85376402 144.97102584),
TRAM,1212,20505,131-Fraser St/Light Rail (Middle Park),-37.854,144.9712,1,96,POINT (-37.85398299 144.97116696),
TRAM,1213,20506,132-St Kilda Station/Fitzroy St (St Kilda),-37.8593,144.9776,1,96,POINT (-37.85928498 144.97763688),
TRAM,1214,20507,132-St Kilda Station/Fitzroy St (St Kilda),-37.859,144.9773,1,96,POINT (-37.85904396 144.97725708),
TRAM,1215,20508,133-Canterbury Rd/Fitzroy St (St Kilda),-37.8602,144.9768,1,"3/3a,96,16",POINT (-37.86018003 144.97677216),
TRAM,1216,20509,133-Canterbury Rd/Fitzroy St (St Kilda),-37.8599,144.977,1,"3/3a,96,16",POINT (-37.85993199 144.97701696),
TRAM,1217,20510,134-Park St/Fitzroy St (St Kilda),-37.8611,144.9753,1,"3/3a,96,16",POINT (-37.861083 144.975258),
TRAM,1218,20511,134-Park St/Fitzroy St (St Kilda),-37.861,144.9753,1,"3/3a,96,16",POINT (-37.860957 144.97527312),
TRAM,1219,20512,135-Acland St/Fitzroy St (St Kilda),-37.8621,144.9734,1,"3/3a,96,16",POINT (-37.86205104 144.973413),
TRAM,1220,20513,135-Jacka Bvd/Fitzroy St (St Kilda),-37.8624,144.973,1,"3/3a,96,16",POINT (-37.86241401 144.97300512),
TRAM,1221,20514,136-Alfred Square/The Esplanade (St Kilda),-37.8652,144.9735,1,"3/3a,96,16",POINT (-37.86519699 144.97348608),
TRAM,1222,20515,136-Alfred Square/The Esplanade (St Kilda),-37.8653,144.9738,1,"3/3a,96,16",POINT (-37.86529302 144.97377912),
TRAM,1223,20518,138-Luna Park/The Esplanade (St Kilda),-37.867,144.9768,1,"3/3a,96,16",POINT (-37.86698502 144.97683516),
TRAM,1224,20519,138-Luna Park/The Esplanade (St Kilda),-37.867,144.9772,1,"3/3a,96,16",POINT (-37.86700104 144.97720992),
TRAM,1225,20520,139-Belford St/Acland St (St Kilda),-37.8689,144.9799,1,96,POINT (-37.868877 144.97994412),
TRAM,1226,20522,139-Belford St/Acland St (St Kilda),-37.8688,144.9801,1,96,POINT (-37.86880698 144.98007084),
TRAM,1227,20523,48-Hawthorn Rd/Dandenong Rd (Malvern),-37.8658,145.0264,1,16,POINT (-37.86583599 145.02643992),
TRAM,1228,20524,48-Dandenong Rd/Glenferrie Rd (Malvern),-37.8661,145.0278,1,16,POINT (-37.86605703 145.02781008),
TRAM,1229,20525,52-Dandenong Rd/Glenferrie Rd (Malvern),-37.8661,145.0278,1,16,POINT (-37.86605703 145.02781008),
TRAM,1230,20526,53-Malvern Railway Station/Glenferrie Rd (Malvern),-37.8653,145.0278,1,16,POINT (-37.86526404 145.02777408),
TRAM,1231,20527,53-Malvern Railway Station/Glenferrie Rd (Malvern),-37.8642,145.0282,1,16,POINT (-37.86417999 145.02815604),
TRAM,1232,20528,54-Wattletree Rd/Glenferrie Rd (Malvern),-37.8625,145.0283,1,16,POINT (-37.862478 145.02825792),
TRAM,1233,20529,54-Wattletree Rd/Glenferrie Rd (Malvern),-37.8622,145.0285,1,16,POINT (-37.86215796 145.02850488),
TRAM,1234,20530,55-Llaneast St/Glenferrie Rd (Malvern),-37.8611,145.0285,1,16,POINT (-37.86114798 145.02846384),
TRAM,1235,20531,55-Edsall St/Glenferrie Rd (Malvern),-37.861,145.0287,1,16,POINT (-37.86103404 145.02867084),
TRAM,1236,20532,56-Malvern Tram Depot/Glenferrie Rd (Malvern),-37.859,145.0288,1,16,POINT (-37.85900004 145.02882816),
TRAM,1237,20533,56-Malvern Tram Depot/Glenferrie Rd (Malvern),-37.8588,145.029,1,16,POINT (-37.85884101 145.02904812),
TRAM,1238,20534,57-High St/Glenferrie Rd (Malvern),-37.8568,145.0292,1,16,POINT (-37.85682501 145.02918096),
TRAM,1239,20535,57-High St/Glenferrie Rd (Malvern),-37.8565,145.0294,1,16,POINT (-37.85649597 145.029429),
TRAM,1240,20536,58-Bell St/Glenferrie Rd (Malvern),-37.8541,145.0296,1,16,POINT (-37.85407398 145.02958416),
TRAM,1241,20537,58-Sorrett Ave/Glenferrie Rd (Malvern),-37.8541,145.0298,1,16,POINT (-37.85409504 145.02977712),
TRAM,1242,20538,59-Malvern Rd/Glenferrie Rd (Malvern),-37.8518,145.0299,1,16,POINT (-37.85183604 145.02993912),
TRAM,1243,20539,59-Malvern Rd/Glenferrie Rd (Malvern),-37.8515,145.0302,1,16,POINT (-37.851525 145.03018608),
TRAM,1244,20540,60-Stonnington Pl/Glenferrie Rd (Malvern),-37.8497,145.0304,1,16,POINT (-37.849662 145.03036104),
TRAM,1245,20541,60-Stonnington Pl/Glenferrie Rd (Malvern),-37.8497,145.0305,1,16,POINT (-37.84967397 145.03050792),
TRAM,1246,20542,61-Moorakyne Ave/Glenferrie Rd (Malvern),-37.8477,145.0307,1,16,POINT (-37.84770396 145.03073112),
TRAM,1247,20543,61-Moorakyne Ave/Glenferrie Rd (Malvern),-37.8477,145.0309,1,16,POINT (-37.84773402 145.030878),
TRAM,1248,20544,62-Mayfield Ave/Glenferrie Rd (Malvern),-37.8457,145.0311,1,16,POINT (-37.84573701 145.03110192),
TRAM,1249,20545,62-Mayfield Ave/Glenferrie Rd (Malvern),-37.8454,145.0313,1,16,POINT (-37.84536198 145.031328),
TRAM,1250,20546,63-Toorak Rd/Glenferrie Rd (Malvern),-37.8439,145.0314,1,16,POINT (-37.84393998 145.03143384),
TRAM,1251,20547,63-Toorak Rd/Glenferrie Rd (Kooyong),-37.8436,145.0317,1,16,POINT (-37.84364604 145.03165704),
TRAM,1252,20548,64-Mernda Rd/Glenferrie Rd (Kooyong),-37.8425,145.0317,1,16,POINT (-37.84247496 145.03166604),
TRAM,1253,4124,127-York St/Clarendon St (South Melbourne),-37.831,144.9595,1,12,POINT (-37.83098196 144.959526),
TRAM,1254,4125,126-City Rd/Clarendon St (South Melbourne),-37.8272,144.9579,1,12,POINT (-37.82722302 144.95786892),
TRAM,1255,4126,130a-Raglan St/Clarendon St (South Melbourne),-37.8376,144.9626,1,12,POINT (-37.83761397 144.96258204),
TRAM,1256,4127,130-Clarendon St/Albert Rd (South Melbourne),-37.8395,144.9629,1,12,POINT (-37.83951999 144.96287112),
TRAM,1257,4128,131-Melbourne Sports & Aquatic Centre/Albert Rd (Albert Park),-37.8407,144.9611,1,12,POINT (-37.84068801 144.96111108),
TRAM,1258,4129,132-Kerferd Rd/Canterbury Rd (Albert Park),-37.8425,144.9593,1,12,POINT (-37.84245102 144.95934708),
TRAM,1259,4130,133-Canterbury Rd/Mills St (Middle Park),-37.8441,144.9601,1,12,POINT (-37.84406904 144.96013188),
TRAM,1260,4131,134-Carter St/Mills St (Middle Park),-37.8456,144.9589,1,12,POINT (-37.84559697 144.95887404),
TRAM,1261,4132,135-Richardson St/Mills St (Middle Park),-37.8474,144.9574,1,12,POINT (-37.84741002 144.95740308),
TRAM,1262,4133,136-Mills St/Danks St (Middle Park),-37.8497,144.9561,1,12,POINT (-37.84973904 144.95607684),
TRAM,1263,4134,137-Harold St/Danks St (Middle Park),-37.8514,144.9592,1,12,POINT (-37.85136102 144.95918112),
TRAM,1264,4135,143-Fitzroy St/Park St (St Kilda),-37.861,144.9745,1,12,POINT (-37.86098796 144.97445304),
TRAM,1265,4136,142-Mary St/Park St (St Kilda West),-37.8598,144.9732,1,12,POINT (-37.85979402 144.97319016),
TRAM,1266,4137,141-Deakin St/Park St (St Kilda West),-37.8575,144.9708,1,12,POINT (-37.85749101 144.97078716),
TRAM,1267,20557,68-Callantina Rd/Glenferrie Rd (Hawthorn),-37.8332,145.0335,1,16,POINT (-37.83322296 145.03350204),
TRAM,1268,20558,69-South St/Glenferrie Rd (Hawthorn),-37.8314,145.0337,1,16,POINT (-37.83138804 145.03366512),
TRAM,1269,20559,69-South St/Glenferrie Rd (Hawthorn),-37.8311,145.0339,1,16,POINT (-37.83111201 145.03387716),
TRAM,1270,20560,70-Riversdale Rd/Glenferrie Rd (Hawthorn),-37.8289,145.0341,1,16,POINT (-37.828899 145.03409388),
TRAM,1271,20561,70-Riversdale Rd/Glenferrie Rd (Hawthorn),-37.8286,145.0343,1,16,POINT (-37.82863197 145.03432896),
TRAM,1272,20562,71-Urquhart St/Glenferrie Rd (Hawthorn),-37.826,145.0346,1,16,POINT (-37.82604096 145.034613),
TRAM,1273,20563,71-Urquhart St/Glenferrie Rd (Hawthorn),-37.826,145.0348,1,16,POINT (-37.82597301 145.03484196),
TRAM,1274,20564,72-Manningtree Rd/Glenferrie Rd (Hawthorn),-37.8242,145.035,1,16,POINT (-37.82415501 145.03497012),
TRAM,1275,20565,72-Manningtree Rd/Glenferrie Rd (Hawthorn),-37.824,145.0352,1,16,POINT (-37.82402298 145.03519008),
TRAM,1276,20566,73-Burwood Rd/Glenferrie Rd (Hawthorn),-37.8227,145.0353,1,16,POINT (-37.82270898 145.03527),
TRAM,1277,20567,73-Burwood Rd/Glenferrie Rd (Hawthorn),-37.8225,145.0354,1,16,POINT (-37.82249604 145.03544604),
TRAM,1278,20568,74-Glenferrie Railway Station/Glenferrie Rd (Hawthorn),-37.8205,145.0357,1,16,POINT (-37.82053503 145.03566816),
TRAM,1279,20569,74-Glenferrie Station/Glenferrie Rd (Hawthorn),-37.8205,145.0357,1,16,POINT (-37.82053503 145.03566816),
TRAM,1280,20570,75-Chrystobel Cres/Glenferrie Rd (Hawthorn),-37.8189,145.036,1,16,POINT (-37.81888101 145.03596192),
TRAM,1281,20571,75-Liddiard St/Glenferrie Rd (Hawthorn),-37.8186,145.0362,1,16,POINT (-37.81860597 145.03621896),
TRAM,1282,20572,76-Johnson St/Glenferrie Rd (Hawthorn),-37.8169,145.0363,1,16,POINT (-37.81685097 145.03631112),
TRAM,1283,20573,76-Johnson St/Glenferrie Rd (Hawthorn),-37.8168,145.0366,1,16,POINT (-37.81677402 145.03658616),
TRAM,1284,20584,77-Barkers Rd/Glenferrie Rd (Hawthorn),-37.8148,145.0367,1,16,POINT (-37.81481202 145.03671684),
TRAM,1285,20589,77-Barkers Rd/Glenferrie Rd (Hawthorn),-37.8146,145.0369,1,16,POINT (-37.81461699 145.03692708),
TRAM,1286,20590,78-Fitzwilliam St/Glenferrie Rd (Hawthorn),-37.8121,145.0372,1,16,POINT (-37.81211598 145.03720896),
TRAM,1287,20591,78-Fitzwilliam St/Glenferrie Rd (Hawthorn),-37.812,145.0375,1,16,POINT (-37.81202103 145.03746204),
TRAM,1288,20592,79-Wellington St/Glenferrie Rd (Hawthorn),-37.8101,145.0376,1,16,POINT (-37.81008702 145.03763808),
TRAM,1289,20593,79-Wellington St/Glenferrie Rd (Hawthorn),-37.8099,145.0378,1,16,POINT (-37.80990099 145.03782384),
TRAM,1290,20594,80-Cotham Rd/Glenferrie Rd (Kew),-37.8079,145.0381,1,16,POINT (-37.80792297 145.03811508),
TRAM,1291,20595,80-Cotham Rd/Glenferrie Rd (Kew),-37.8079,145.0381,1,16,POINT (-37.80789597 145.03812696),
TRAM,1292,20597,37-Chapel St/Carlisle St (St Kilda),-37.8684,144.9905,1,"3/3a,16",POINT (-37.868445 144.99049392),
TRAM,1293,20598,38-Balaclava Station/Carlisle St (Balaclava),-37.8689,144.9938,1,"3/3a,16",POINT (-37.86886197 144.99381312),
TRAM,1294,20599,39-Carlisle Ave/Carlisle St (St Kilda),-37.8692,144.9967,1,"3/3a,16",POINT (-37.86924501 144.99673596),
TRAM,1295,20647,40-Hotham St/Balaclava Rd (St Kilda East),-37.8696,144.9996,1,"3/3a,16",POINT (-37.86960996 144.99962496),
TRAM,1296,20648,41-Vadlure Ave/Balaclava Rd (St Kilda East),-37.87,145.0026,1,"3/3a,16",POINT (-37.869984 145.002582),
TRAM,1297,20774,52-Hoffmans Rd/Keilor Rd (Essendon),-37.7375,144.8925,1,59,POINT (-37.737477 144.89254692),
TRAM,1298,20775,37-Buckley St/Pascoe Vale Rd (Essendon),-37.7579,144.9265,1,59,POINT (-37.75793202 144.92646108),
TRAM,1299,20778,25-St James Park/Burwood Rd (Hawthorn),-37.8209,145.021,1,75,POINT (-37.82088396 145.02102696),
TRAM,1300,20779,25-St James Park/Burwood Rd (Hawthorn),-37.821,145.0211,1,75,POINT (-37.82095803 145.02111516),
TRAM,1301,20780,26-Hawthorn Railway Station/Burwood Rd (Hawthorn),-37.8215,145.0248,1,75,POINT (-37.82145303 145.02481704),
TRAM,1302,20781,26-Hawthorn Railway Station/Burwood Rd (Hawthorn),-37.8213,145.0246,1,75,POINT (-37.82128698 145.02458304),
TRAM,1303,20782,27-Burwood Rd/Power St (Hawthorn),-37.8217,145.0263,1,75,POINT (-37.82174697 145.02627504),
TRAM,1304,20783,27-Power St/Burwood Rd (Hawthorn),-37.8215,145.0263,1,75,POINT (-37.82146797 145.02628188),
TRAM,1305,20784,28-Wattle Rd/Power St (Hawthorn),-37.8248,145.0259,1,75,POINT (-37.82477799 145.025865),
TRAM,1306,20785,28-Wattle Rd/Power St (Hawthorn),-37.8249,145.0257,1,75,POINT (-37.82491002 145.02571308),
TRAM,1307,20895,44-Burke Rd/Doncaster Rd (Balwyn North),-37.7935,145.0643,1,48,POINT (-37.79346798 145.06426512),
TRAM,1308,20979,0-Bourke St/Spring St (Melbourne City),-37.8117,144.9732,1,35,POINT (-37.811664 144.97324596),
TRAM,1309,20980,38-Normanby Ave/High St (Thornbury),-37.7597,145.0003,1,86,POINT (-37.75965102 145.00032084),
TRAM,1310,20981,D1-Stadium Precinct/La Trobe St (Docklands),-37.8146,144.9467,1,"35,86,30",POINT (-37.81456596 144.94674492),
TRAM,1311,21042,42-Allan Rd/Balaclava Rd (Caulfield North),-37.8703,145.0056,1,"3/3a,16",POINT (-37.87034202 145.00558512),
TRAM,1312,21057,43-Orrong Rd/Balaclava Rd (Caulfield North),-37.8707,145.0088,1,"3/3a,16",POINT (-37.87074801 145.00879092),
TRAM,1313,21058,44-Otira Rd/Balaclava Rd (Caulfield North),-37.8712,145.0124,1,"3/3a,16",POINT (-37.87117803 145.012383),
TRAM,1314,21059,45-Kent Gr/Balaclava Rd (Caulfield North),-37.8716,145.0151,1,"3/3a,16",POINT (-37.87155702 145.015101),
TRAM,1315,21060,46-Kooyong Rd/Balaclava Rd (Caulfield North),-37.8719,145.018,1,"3/3a,16",POINT (-37.87189398 145.01795688),
TRAM,1316,21061,41-Burke Rd/Camberwell Rd (Camberwell),-37.8321,145.0577,"1,2",75,POINT (-37.83208401 145.05772284),
TRAM,833,19133,26-Alfred Hospital/Commercial Rd (Prahran),-37.8454,144.9823,1,72,POINT (-37.84536099 144.98231292),
