[{"business_status": "OPERATIONAL", "geometry": {"location": {"lat": -37.81551990000001, "lng": 144.9594411}, "viewport": {"northeast": {"lat": -37.81438191970851, "lng": 144.9610494302915}, "southwest": {"lat": -37.8170798802915, "lng": 144.9583514697085}}}, "icon": "https://maps.gstatic.com/mapfiles/place_api/icons/v1/png_71/generic_business-71.png", "icon_background_color": "#7B9EB0", "icon_mask_base_uri": "https://maps.gstatic.com/mapfiles/place_api/icons/v2/generic_pinlet", "name": "RACV City Club", "opening_hours": {"open_now": true}, "photos": [{"height": 3217, "html_attributions": ["<a href=\"https://maps.google.com/maps/contrib/114146756944366754648\">RACV City Club</a>"], "photo_reference": "AcYSjRgvSU7U1e8U0C5ag-QL2-0o5-Efc6aT3EB6YoG23i89OlaUshZ81yL6IEJKcs4tL23wp6yNAvL2n80kgMajIOphymRrKFu3eAwC0c25bSFB8YE38hcdLb8Gf_feLsdnev9hnSV1m94aSkUEB0H3KVr0rJh_PwKIFORPURly-p1od0mf", "width": 4772}], "place_id": "ChIJ_xrZZEtd1moRxb9el7EM1TA", "plus_code": {"compound_code": "5XM5+QQ Melbourne VIC, Australia", "global_code": "4RJ65XM5+QQ"}, "rating": 4.4, "reference": "ChIJ_xrZZEtd1moRxb9el7EM1TA", "scope": "GOOGLE", "types": ["library", "gym", "bar", "health", "lodging", "restaurant", "food", "point_of_interest", "establishment"], "user_ratings_total": 1514, "vicinity": "501 Bourke Street, Melbourne", "primary_type": "Bar/Nightlife", "types str": "library, gym, bar, health, lodging, restaurant", "ratings_star": "\u2605\u2605\u2605\u2605\u2606", "popup": "<img src=\"https://maps.googleapis.com/maps/api/place/photo?maxwidth=300&photo_reference=AcYSjRgvSU7U1e8U0C5ag-QL2-0o5-Efc6aT3EB6YoG23i89OlaUshZ81yL6IEJKcs4tL23wp6yNAvL2n80kgMajIOphymRrKFu3eAwC0c25bSFB8YE38hcdLb8Gf_feLsdnev9hnSV1m94aSkUEB0H3KVr0rJh_PwKIFORPURly-p1od0mf&key=AIzaSyAlEl7yt8E7Y7tuui21xhJr-UPIqxrW67M\" width=\"100%\" maxwidth=300></img><br><h4><b>RACV City Club</b></h4><font color=\"gray\"><b>4.4\u2605\u2605\u2605\u2605\u2606</b> (1514)</font><br>501 Bourke Street, Melbourne<br><br>&#x1F50D; <i>library, gym, bar, health, lodging, restaurant</i>", "long": 144.9594411, "lat": -37.81551990000001, "photo": "https://maps.googleapis.com/maps/api/place/photo?maxwidth=300&photo_reference=AcYSjRgvSU7U1e8U0C5ag-QL2-0o5-Efc6aT3EB6YoG23i89OlaUshZ81yL6IEJKcs4tL23wp6yNAvL2n80kgMajIOphymRrKFu3eAwC0c25bSFB8YE38hcdLb8Gf_feLsdnev9hnSV1m94aSkUEB0H3KVr0rJh_PwKIFORPURly-p1od0mf&key=AIzaSyAlEl7yt8E7Y7tuui21xhJr-UPIqxrW67M", "category_name": "Gym", "iconpath": "img/gym-green.png"}, {"business_status": "OPERATIONAL", "geometry": {"location": {"lat": -37.81551990000001, "lng": 144.9594411}, "viewport": {"northeast": {"lat": -37.81438191970851, "lng": 144.9610494302915}, "southwest": {"lat": -37.8170798802915, "lng": 144.9583514697085}}}, "icon": "https://maps.gstatic.com/mapfiles/place_api/icons/v1/png_71/generic_business-71.png", "icon_background_color": "#7B9EB0", "icon_mask_base_uri": "https://maps.gstatic.com/mapfiles/place_api/icons/v2/generic_pinlet", "name": "RACV City Club", "opening_hours": {"open_now": true}, "photos": [{"height": 3217, "html_attributions": ["<a href=\"https://maps.google.com/maps/contrib/114146756944366754648\">RACV City Club</a>"], "photo_reference": "AcYSjRjEpJ6Oo5gWJ3ajN-ApkYVDBGQMSjgtosNu8neEaCLvosCcW4fY7UVpo_QXTjNZSwMTSID53IHT2bhTQ3g6InObsVxbr4PDHMTAOQceXMk6sFITbgoBcpIVRUt7lxto25tVoyjfdH6IhctVCYZyFKuUJ12Jq2Q30xfCFUgmIC78L8j5", "width": 4772}], "place_id": "ChIJ_xrZZEtd1moRxb9el7EM1TA", "plus_code": {"compound_code": "5XM5+QQ Melbourne VIC, Australia", "global_code": "4RJ65XM5+QQ"}, "rating": 4.4, "reference": "ChIJ_xrZZEtd1moRxb9el7EM1TA", "scope": "GOOGLE", "types": ["library", "gym", "lodging", "bar", "health", "restaurant", "point_of_interest", "food", "establishment"], "user_ratings_total": 1514, "vicinity": "501 Bourke Street, Melbourne", "primary_type": "Bar/Nightlife", "types str": "library, gym, lodging, bar, health, restaurant", "ratings_star": "\u2605\u2605\u2605\u2605\u2606", "popup": "<img src=\"https://maps.googleapis.com/maps/api/place/photo?maxwidth=300&photo_reference=AcYSjRjEpJ6Oo5gWJ3ajN-ApkYVDBGQMSjgtosNu8neEaCLvosCcW4fY7UVpo_QXTjNZSwMTSID53IHT2bhTQ3g6InObsVxbr4PDHMTAOQceXMk6sFITbgoBcpIVRUt7lxto25tVoyjfdH6IhctVCYZyFKuUJ12Jq2Q30xfCFUgmIC78L8j5&key=AIzaSyAlEl7yt8E7Y7tuui21xhJr-UPIqxrW67M\" width=\"100%\" maxwidth=300></img><br><h4><b>RACV City Club</b></h4><font color=\"gray\"><b>4.4\u2605\u2605\u2605\u2605\u2606</b> (1514)</font><br>501 Bourke Street, Melbourne<br><br>&#x1F50D; <i>library, gym, lodging, bar, health, restaurant</i>", "long": 144.9594411, "lat": -37.81551990000001, "photo": "https://maps.googleapis.com/maps/api/place/photo?maxwidth=300&photo_reference=AcYSjRjEpJ6Oo5gWJ3ajN-ApkYVDBGQMSjgtosNu8neEaCLvosCcW4fY7UVpo_QXTjNZSwMTSID53IHT2bhTQ3g6InObsVxbr4PDHMTAOQceXMk6sFITbgoBcpIVRUt7lxto25tVoyjfdH6IhctVCYZyFKuUJ12Jq2Q30xfCFUgmIC78L8j5&key=AIzaSyAlEl7yt8E7Y7tuui21xhJr-UPIqxrW67M", "category_name": "Gym", "iconpath": "img/gym-green.png"}, {"business_status": "OPERATIONAL", "geometry": {"location": {"lat": -37.8383896, "lng": 144.9899354}, "viewport": {"northeast": {"lat": -37.83722436970849, "lng": 144.9912416802915}, "southwest": {"lat": -37.83992233029149, "lng": 144.9885437197085}}}, "icon": "https://maps.gstatic.com/mapfiles/place_api/icons/v1/png_71/school-71.png", "icon_background_color": "#7B9EB0", "icon_mask_base_uri": "https://maps.gstatic.com/mapfiles/place_api/icons/v2/school_pinlet", "name": "Fluid Movements Triathlon Coaching", "opening_hours": {"open_now": true}, "photos": [{"height": 1000, "html_attributions": ["<a href=\"https://maps.google.com/maps/contrib/111686883000914879884\">Fluid Movements Triathlon Coaching</a>"], "photo_reference": "AcYSjRhd7sXFAK4Sa-AnTze4wg2kDPGvhBQbysZ_bgZDmjqnMv4EvqneK2kn-ezrIqx6KF99AmCvVrlt5Ge0Z1mHco7PHg_o1IK06_7GuolO55cM_dgESzVYJm-fXr7s4asjvJvDjo4Y1cARGtT3WK_5w8quU8fdwB1Eh3nuDSfL1X699HM", "width": 1000}], "place_id": "ChIJhwyw4oRC1moRKf7VrVgqnpU", "plus_code": {"compound_code": "5X6Q+JX South Yarra VIC, Australia", "global_code": "4RJ65X6Q+JX"}, "rating": 4.3, "reference": "ChIJhwyw4oRC1moRKf7VrVgqnpU", "scope": "GOOGLE", "types": ["gym", "school", "health", "point_of_interest", "establishment"], "user_ratings_total": 4, "vicinity": "Shop 10/101-105 Toorak Road, South Yarra", "primary_type": "Gym", "types str": "gym, school, health", "ratings_star": "\u2605\u2605\u2605\u2605\u2606", "popup": "<img src=\"https://maps.googleapis.com/maps/api/place/photo?maxwidth=300&photo_reference=AcYSjRhd7sXFAK4Sa-AnTze4wg2kDPGvhBQbysZ_bgZDmjqnMv4EvqneK2kn-ezrIqx6KF99AmCvVrlt5Ge0Z1mHco7PHg_o1IK06_7GuolO55cM_dgESzVYJm-fXr7s4asjvJvDjo4Y1cARGtT3WK_5w8quU8fdwB1Eh3nuDSfL1X699HM&key=AIzaSyAlEl7yt8E7Y7tuui21xhJr-UPIqxrW67M\" width=\"100%\" maxwidth=300></img><br><h4><b>Fluid Movements Triathlon Coaching</b></h4><font color=\"gray\"><b>4.3\u2605\u2605\u2605\u2605\u2606</b> (4)</font><br>Shop 10/101-105 Toorak Road, South Yarra<br><br>&#x1F50D; <i>gym, school, health</i>", "long": 144.9899354, "lat": -37.8383896, "photo": "https://maps.googleapis.com/maps/api/place/photo?maxwidth=300&photo_reference=AcYSjRhd7sXFAK4Sa-AnTze4wg2kDPGvhBQbysZ_bgZDmjqnMv4EvqneK2kn-ezrIqx6KF99AmCvVrlt5Ge0Z1mHco7PHg_o1IK06_7GuolO55cM_dgESzVYJm-fXr7s4asjvJvDjo4Y1cARGtT3WK_5w8quU8fdwB1Eh3nuDSfL1X699HM&key=AIzaSyAlEl7yt8E7Y7tuui21xhJr-UPIqxrW67M", "category_name": "Gym", "iconpath": "img/gym-green.png"}, {"business_status": "OPERATIONAL", "geometry": {"location": {"lat": -37.8342725, "lng": 144.9821392}, "viewport": {"northeast": {"lat": -37.8328314197085, "lng": 144.9835081802915}, "southwest": {"lat": -37.8355293802915, "lng": 144.9808102197085}}}, "icon": "https://maps.gstatic.com/mapfiles/place_api/icons/v1/png_71/school-71.png", "icon_background_color": "#7B9EB0", "icon_mask_base_uri": "https://maps.gstatic.com/mapfiles/place_api/icons/v2/school_pinlet", "name": "Melbourne Altitude Training PTY LTD", "opening_hours": {"open_now": false}, "photos": [{"height": 1702, "html_attributions": ["<a href=\"https://maps.google.com/maps/contrib/114602957221243758298\">Melbourne Altitude Training PTY LTD</a>"], "photo_reference": "AcYSjRgzm5RvAN5KMW0mkyXoh044dQr4avkApqciqiHF5GbhR4LrSDoyQo1kpMpX6S0ek7DQZZRxQD-aRfvvRvHcjG3ukjZcb_C1_zlY9PyO1EY1-hAgaSm9oqkeYhLSg9806U16T9i8frx1dDCsziahPdy-dIihZThD-3_0guHeDu6B1qHt", "width": 3024}], "place_id": "ChIJ2aeLLFVd1moRaI0gaqHAQKc", "plus_code": {"compound_code": "5X8J+7V South Yarra VIC, Australia", "global_code": "4RJ65X8J+7V"}, "rating": 5, "reference": "ChIJ2aeLLFVd1moRaI0gaqHAQKc", "scope": "GOOGLE", "types": ["physiotherapist", "gym", "school", "health", "point_of_interest", "establishment"], "user_ratings_total": 14, "vicinity": "183A Domain Road, South Yarra", "primary_type": "Gym", "types str": "physiotherapist, gym, school, health", "ratings_star": "\u2605\u2605\u2605\u2605\u2605", "popup": "<img src=\"https://maps.googleapis.com/maps/api/place/photo?maxwidth=300&photo_reference=AcYSjRgzm5RvAN5KMW0mkyXoh044dQr4avkApqciqiHF5GbhR4LrSDoyQo1kpMpX6S0ek7DQZZRxQD-aRfvvRvHcjG3ukjZcb_C1_zlY9PyO1EY1-hAgaSm9oqkeYhLSg9806U16T9i8frx1dDCsziahPdy-dIihZThD-3_0guHeDu6B1qHt&key=AIzaSyAlEl7yt8E7Y7tuui21xhJr-UPIqxrW67M\" width=\"100%\" maxwidth=300></img><br><h4><b>Melbourne Altitude Training PTY LTD</b></h4><font color=\"gray\"><b>5\u2605\u2605\u2605\u2605\u2605</b> (14)</font><br>183A Domain Road, South Yarra<br><br>&#x1F50D; <i>physiotherapist, gym, school, health</i>", "long": 144.9821392, "lat": -37.8342725, "photo": "https://maps.googleapis.com/maps/api/place/photo?maxwidth=300&photo_reference=AcYSjRgzm5RvAN5KMW0mkyXoh044dQr4avkApqciqiHF5GbhR4LrSDoyQo1kpMpX6S0ek7DQZZRxQD-aRfvvRvHcjG3ukjZcb_C1_zlY9PyO1EY1-hAgaSm9oqkeYhLSg9806U16T9i8frx1dDCsziahPdy-dIihZThD-3_0guHeDu6B1qHt&key=AIzaSyAlEl7yt8E7Y7tuui21xhJr-UPIqxrW67M", "category_name": "Gym", "iconpath": "img/gym-green.png"}, {"business_status": "OPERATIONAL", "geometry": {"location": {"lat": -37.838896, "lng": 144.9895395}, "viewport": {"northeast": {"lat": -37.8375248697085, "lng": 144.9909747802915}, "southwest": {"lat": -37.84022283029149, "lng": 144.9882768197085}}}, "icon": "https://maps.gstatic.com/mapfiles/place_api/icons/v1/png_71/generic_business-71.png", "icon_background_color": "#7B9EB0", "icon_mask_base_uri": "https://maps.gstatic.com/mapfiles/place_api/icons/v2/generic_pinlet", "name": "F45 Training South Yarra", "opening_hours": {"open_now": true}, "photos": [{"height": 3024, "html_attributions": ["<a href=\"https://maps.google.com/maps/contrib/106141361263637285453\">Emma Gray</a>"], "photo_reference": "AcYSjRhTfiPlkHHhvNhd8mv3wZUryNZU4FL5wxlEnrSp_Vy78BGXt6Q8xrh3VYmujlNkWjejtewle-xCZDZ0DIrbJgwhQBIkyAkmaPatkyscamrMHeA5WXuE1PYIqjIIcxzbVvp4qZxpmTq11Jy7FqiXy2655Zyy2guWEUuaMdTzmm3VZ2GP", "width": 4032}], "place_id": "ChIJT_9wo5xC1moR2aD_p9gEVU8", "plus_code": {"compound_code": "5X6Q+CR South Yarra VIC, Australia", "global_code": "4RJ65X6Q+CR"}, "rating": 4.8, "reference": "ChIJT_9wo5xC1moR2aD_p9gEVU8", "scope": "GOOGLE", "types": ["gym", "health", "point_of_interest", "establishment"], "user_ratings_total": 56, "vicinity": "LEVEL 1/100 Toorak Road, South Yarra", "primary_type": "Gym", "types str": "gym, health", "ratings_star": "\u2605\u2605\u2605\u2605\u2606", "popup": "<img src=\"https://maps.googleapis.com/maps/api/place/photo?maxwidth=300&photo_reference=AcYSjRhTfiPlkHHhvNhd8mv3wZUryNZU4FL5wxlEnrSp_Vy78BGXt6Q8xrh3VYmujlNkWjejtewle-xCZDZ0DIrbJgwhQBIkyAkmaPatkyscamrMHeA5WXuE1PYIqjIIcxzbVvp4qZxpmTq11Jy7FqiXy2655Zyy2guWEUuaMdTzmm3VZ2GP&key=AIzaSyAlEl7yt8E7Y7tuui21xhJr-UPIqxrW67M\" width=\"100%\" maxwidth=300></img><br><h4><b>F45 Training South Yarra</b></h4><font color=\"gray\"><b>4.8\u2605\u2605\u2605\u2605\u2606</b> (56)</font><br>LEVEL 1/100 Toorak Road, South Yarra<br><br>&#x1F50D; <i>gym, health</i>", "long": 144.9895395, "lat": -37.838896, "photo": "https://maps.googleapis.com/maps/api/place/photo?maxwidth=300&photo_reference=AcYSjRhTfiPlkHHhvNhd8mv3wZUryNZU4FL5wxlEnrSp_Vy78BGXt6Q8xrh3VYmujlNkWjejtewle-xCZDZ0DIrbJgwhQBIkyAkmaPatkyscamrMHeA5WXuE1PYIqjIIcxzbVvp4qZxpmTq11Jy7FqiXy2655Zyy2guWEUuaMdTzmm3VZ2GP&key=AIzaSyAlEl7yt8E7Y7tuui21xhJr-UPIqxrW67M", "category_name": "Gym", "iconpath": "img/gym-green.png"}, {"business_status": "OPERATIONAL", "geometry": {"location": {"lat": -37.8390358, "lng": 144.9899332}, "viewport": {"northeast": {"lat": -37.8376675697085, "lng": 144.9911634802915}, "southwest": {"lat": -37.84036553029149, "lng": 144.9884655197085}}}, "icon": "https://maps.gstatic.com/mapfiles/place_api/icons/v1/png_71/generic_business-71.png", "icon_background_color": "#7B9EB0", "icon_mask_base_uri": "https://maps.gstatic.com/mapfiles/place_api/icons/v2/generic_pinlet", "name": "Capital Physiotherapy - South Yarra Clinic", "opening_hours": {"open_now": true}, "photos": [{"height": 700, "html_attributions": ["<a href=\"https://maps.google.com/maps/contrib/100879939841161836200\">Capital Physiotherapy - South Yarra Clinic</a>"], "photo_reference": "AcYSjRhOgGBil-F-ZHPP4ugc0EJipBtfqrbXAzvrk1EpQ2r94sKwQeqxAetV2SIBgRGKZUSxMnxUlit83ArKdHstNzJ9MeHMhIxr1I8sOdk0nLSmzhuOWNclG3hs93o_ImbBKjRoB01_Volkezomu0HO6JP9IeFQqXaVMb7keML0g2EfBgfS", "width": 1366}], "place_id": "ChIJSQvIxp1C1moRc_CCB2TIDVM", "plus_code": {"compound_code": "5X6Q+9X South Yarra VIC, Australia", "global_code": "4RJ65X6Q+9X"}, "rating": 4.9, "reference": "ChIJSQvIxp1C1moRc_CCB2TIDVM", "scope": "GOOGLE", "types": ["physiotherapist", "gym", "health", "point_of_interest", "establishment"], "user_ratings_total": 207, "vicinity": "Level 1/102 Toorak Road, South Yarra", "primary_type": "Gym", "types str": "physiotherapist, gym, health", "ratings_star": "\u2605\u2605\u2605\u2605\u2606", "popup": "<img src=\"https://maps.googleapis.com/maps/api/place/photo?maxwidth=300&photo_reference=AcYSjRhOgGBil-F-ZHPP4ugc0EJipBtfqrbXAzvrk1EpQ2r94sKwQeqxAetV2SIBgRGKZUSxMnxUlit83ArKdHstNzJ9MeHMhIxr1I8sOdk0nLSmzhuOWNclG3hs93o_ImbBKjRoB01_Volkezomu0HO6JP9IeFQqXaVMb7keML0g2EfBgfS&key=AIzaSyAlEl7yt8E7Y7tuui21xhJr-UPIqxrW67M\" width=\"100%\" maxwidth=300></img><br><h4><b>Capital Physiotherapy - South Yarra Clinic</b></h4><font color=\"gray\"><b>4.9\u2605\u2605\u2605\u2605\u2606</b> (207)</font><br>Level 1/102 Toorak Road, South Yarra<br><br>&#x1F50D; <i>physiotherapist, gym, health</i>", "long": 144.9899332, "lat": -37.8390358, "photo": "https://maps.googleapis.com/maps/api/place/photo?maxwidth=300&photo_reference=AcYSjRhOgGBil-F-ZHPP4ugc0EJipBtfqrbXAzvrk1EpQ2r94sKwQeqxAetV2SIBgRGKZUSxMnxUlit83ArKdHstNzJ9MeHMhIxr1I8sOdk0nLSmzhuOWNclG3hs93o_ImbBKjRoB01_Volkezomu0HO6JP9IeFQqXaVMb7keML0g2EfBgfS&key=AIzaSyAlEl7yt8E7Y7tuui21xhJr-UPIqxrW67M", "category_name": "Gym", "iconpath": "img/gym-green.png"}, {"business_status": "OPERATIONAL", "geometry": {"location": {"lat": -37.8386267, "lng": 144.9899777}, "viewport": {"northeast": {"lat": -37.8373492697085, "lng": 144.9912960802915}, "southwest": {"lat": -37.8400472302915, "lng": 144.9885981197085}}}, "icon": "https://maps.gstatic.com/mapfiles/place_api/icons/v1/png_71/generic_business-71.png", "icon_background_color": "#7B9EB0", "icon_mask_base_uri": "https://maps.gstatic.com/mapfiles/place_api/icons/v2/generic_pinlet", "name": "MFW Fitness Studio", "opening_hours": {"open_now": true}, "photos": [{"height": 890, "html_attributions": ["<a href=\"https://maps.google.com/maps/contrib/111650022207839590186\">MFW Fitness Studio</a>"], "photo_reference": "AcYSjRjwHvoVJ0SswQKMcGwcQUmWhQyTR0B9UiA_Yk2JpQf9Y8mXx56SUsTfvhiv7sg885KX7-ElFel5RZ5jzkYw0ZQoN-SOYfMHWT5YlU5q6Wi0jLGQPaARGPt2SIXwHn5KBL1D0p6eGq2Sr0oteLm3QUQopydMYMsAmiizgPHj7oAec4tS", "width": 1600}], "place_id": "ChIJlR2hU0No1moR_gBNlvfwXkU", "plus_code": {"compound_code": "5X6Q+GX South Yarra VIC, Australia", "global_code": "4RJ65X6Q+GX"}, "rating": 4.9, "reference": "ChIJlR2hU0No1moR_gBNlvfwXkU", "scope": "GOOGLE", "types": ["gym", "health", "point_of_interest", "establishment"], "user_ratings_total": 36, "vicinity": "107 Toorak Road, South Yarra", "primary_type": "Gym", "types str": "gym, health", "ratings_star": "\u2605\u2605\u2605\u2605\u2606", "popup": "<img src=\"https://maps.googleapis.com/maps/api/place/photo?maxwidth=300&photo_reference=AcYSjRjwHvoVJ0SswQKMcGwcQUmWhQyTR0B9UiA_Yk2JpQf9Y8mXx56SUsTfvhiv7sg885KX7-ElFel5RZ5jzkYw0ZQoN-SOYfMHWT5YlU5q6Wi0jLGQPaARGPt2SIXwHn5KBL1D0p6eGq2Sr0oteLm3QUQopydMYMsAmiizgPHj7oAec4tS&key=AIzaSyAlEl7yt8E7Y7tuui21xhJr-UPIqxrW67M\" width=\"100%\" maxwidth=300></img><br><h4><b>MFW Fitness Studio</b></h4><font color=\"gray\"><b>4.9\u2605\u2605\u2605\u2605\u2606</b> (36)</font><br>107 Toorak Road, South Yarra<br><br>&#x1F50D; <i>gym, health</i>", "long": 144.9899777, "lat": -37.8386267, "photo": "https://maps.googleapis.com/maps/api/place/photo?maxwidth=300&photo_reference=AcYSjRjwHvoVJ0SswQKMcGwcQUmWhQyTR0B9UiA_Yk2JpQf9Y8mXx56SUsTfvhiv7sg885KX7-ElFel5RZ5jzkYw0ZQoN-SOYfMHWT5YlU5q6Wi0jLGQPaARGPt2SIXwHn5KBL1D0p6eGq2Sr0oteLm3QUQopydMYMsAmiizgPHj7oAec4tS&key=AIzaSyAlEl7yt8E7Y7tuui21xhJr-UPIqxrW67M", "category_name": "Gym", "iconpath": "img/gym-green.png"}, {"business_status": "OPERATIONAL", "geometry": {"location": {"lat": -37.8440266, "lng": 144.9775847}, "viewport": {"northeast": {"lat": -37.8427740697085, "lng": 144.9789397802915}, "southwest": {"lat": -37.8454720302915, "lng": 144.9762418197085}}}, "icon": "https://maps.gstatic.com/mapfiles/place_api/icons/v1/png_71/generic_business-71.png", "icon_background_color": "#7B9EB0", "icon_mask_base_uri": "https://maps.gstatic.com/mapfiles/place_api/icons/v2/generic_pinlet", "name": "Evolve Physio Group St Kilda Road", "opening_hours": {"open_now": true}, "photos": [{"height": 500, "html_attributions": ["<a href=\"https://maps.google.com/maps/contrib/115386823486801352422\">The Victorian Podiatry Group @ Evolve Physiotherapy</a>"], "photo_reference": "AcYSjRiwq-DmRtwxheythJ2fJiDFsMfaa7FpnOeqEBMZn48J8sJLnEtHmDewua_el2w_BMMf08gkRMvAkQp3satQeX0sO5BOVVi2gnrJaoGGL_mYKVps0urG6tSOG97_lMsnSXvcce4ooCB6VUsANVQOvRs7T8ZmAWHW3JhfXNZoI6lLotXD", "width": 1000}], "place_id": "ChIJ8WPohx1o1moRmdIjESVdPqY", "plus_code": {"compound_code": "5X4H+92 Melbourne VIC, Australia", "global_code": "4RJ65X4H+92"}, "rating": 4.9, "reference": "ChIJ8WPohx1o1moRmdIjESVdPqY", "scope": "GOOGLE", "types": ["physiotherapist", "gym", "doctor", "health", "point_of_interest", "establishment"], "user_ratings_total": 150, "vicinity": "Ground Floor/Suite 1/492 Saint Kilda Road, Melbourne", "primary_type": "Gym", "types str": "physiotherapist, gym, doctor, health", "ratings_star": "\u2605\u2605\u2605\u2605\u2606", "popup": "<img src=\"https://maps.googleapis.com/maps/api/place/photo?maxwidth=300&photo_reference=AcYSjRiwq-DmRtwxheythJ2fJiDFsMfaa7FpnOeqEBMZn48J8sJLnEtHmDewua_el2w_BMMf08gkRMvAkQp3satQeX0sO5BOVVi2gnrJaoGGL_mYKVps0urG6tSOG97_lMsnSXvcce4ooCB6VUsANVQOvRs7T8ZmAWHW3JhfXNZoI6lLotXD&key=AIzaSyAlEl7yt8E7Y7tuui21xhJr-UPIqxrW67M\" width=\"100%\" maxwidth=300></img><br><h4><b>Evolve Physio Group St Kilda Road</b></h4><font color=\"gray\"><b>4.9\u2605\u2605\u2605\u2605\u2606</b> (150)</font><br>Ground Floor/Suite 1/492 Saint Kilda Road, Melbourne<br><br>&#x1F50D; <i>physiotherapist, gym, doctor, health</i>", "long": 144.9775847, "lat": -37.8440266, "photo": "https://maps.googleapis.com/maps/api/place/photo?maxwidth=300&photo_reference=AcYSjRiwq-DmRtwxheythJ2fJiDFsMfaa7FpnOeqEBMZn48J8sJLnEtHmDewua_el2w_BMMf08gkRMvAkQp3satQeX0sO5BOVVi2gnrJaoGGL_mYKVps0urG6tSOG97_lMsnSXvcce4ooCB6VUsANVQOvRs7T8ZmAWHW3JhfXNZoI6lLotXD&key=AIzaSyAlEl7yt8E7Y7tuui21xhJr-UPIqxrW67M", "category_name": "Gym", "iconpath": "img/gym-green.png"}, {"business_status": "CLOSED_TEMPORARILY", "geometry": {"location": {"lat": -37.8460614, "lng": 144.9892138}, "viewport": {"northeast": {"lat": -37.8447879697085, "lng": 144.9905156302915}, "southwest": {"lat": -37.8474859302915, "lng": 144.9878176697085}}}, "icon": "https://maps.gstatic.com/mapfiles/place_api/icons/v1/png_71/generic_business-71.png", "icon_background_color": "#7B9EB0", "icon_mask_base_uri": "https://maps.gstatic.com/mapfiles/place_api/icons/v2/generic_pinlet", "name": "Juniper Health", "permanently_closed": true, "place_id": "ChIJoeLViCNo1moREk13lSaVifs", "plus_code": {"compound_code": "5X3Q+HM Prahran VIC, Australia", "global_code": "4RJ65X3Q+HM"}, "reference": "ChIJoeLViCNo1moREk13lSaVifs", "scope": "GOOGLE", "types": ["gym", "health", "point_of_interest", "establishment"], "vicinity": "70-72 Commercial Road, Prahran", "primary_type": "Gym", "types str": "gym, health", "popup": "<h4><b>Juniper Health</b></h4><br>70-72 Commercial Road, Prahran<br><br>&#x1F50D; <i>gym, health</i>", "long": 144.9892138, "lat": -37.8460614, "category_name": "Gym", "iconpath": "img/gym-yellow.png"}, {"business_status": "OPERATIONAL", "geometry": {"location": {"lat": -37.8383896, "lng": 144.9899354}, "viewport": {"northeast": {"lat": -37.83722436970849, "lng": 144.9912416802915}, "southwest": {"lat": -37.83992233029149, "lng": 144.9885437197085}}}, "icon": "https://maps.gstatic.com/mapfiles/place_api/icons/v1/png_71/school-71.png", "icon_background_color": "#7B9EB0", "icon_mask_base_uri": "https://maps.gstatic.com/mapfiles/place_api/icons/v2/school_pinlet", "name": "Master Pilates", "opening_hours": {"open_now": true}, "photos": [{"height": 3333, "html_attributions": ["<a href=\"https://maps.google.com/maps/contrib/114583122975913092456\">Master Pilates</a>"], "photo_reference": "AcYSjRg-HsskEFOKjwjYOATyEJ8QzifFilmrfyn4vec3SACfiywgx8AidlEvpqY7jWMdBHa8ZvMnG06AGdicTDqwMU29BA2w4gkncMRhlrMS9YkzeDDVRBscwrvCZqylOAEcnv54q4mQOvJyTG64dRwLG18S6I3tf28IQ_wc337GfOzWagj4", "width": 5000}], "place_id": "ChIJvXJBx4JC1moR6MIrzzg4tNg", "plus_code": {"compound_code": "5X6Q+JX South Yarra VIC, Australia", "global_code": "4RJ65X6Q+JX"}, "rating": 5, "reference": "ChIJvXJBx4JC1moR6MIrzzg4tNg", "scope": "GOOGLE", "types": ["gym", "health", "point_of_interest", "establishment"], "user_ratings_total": 19, "vicinity": "Unit 2 B/101-105 Toorak Road, South Yarra", "primary_type": "Gym", "types str": "gym, health", "ratings_star": "\u2605\u2605\u2605\u2605\u2605", "popup": "<img src=\"https://maps.googleapis.com/maps/api/place/photo?maxwidth=300&photo_reference=AcYSjRg-HsskEFOKjwjYOATyEJ8QzifFilmrfyn4vec3SACfiywgx8AidlEvpqY7jWMdBHa8ZvMnG06AGdicTDqwMU29BA2w4gkncMRhlrMS9YkzeDDVRBscwrvCZqylOAEcnv54q4mQOvJyTG64dRwLG18S6I3tf28IQ_wc337GfOzWagj4&key=AIzaSyAlEl7yt8E7Y7tuui21xhJr-UPIqxrW67M\" width=\"100%\" maxwidth=300></img><br><h4><b>Master Pilates</b></h4><font color=\"gray\"><b>5\u2605\u2605\u2605\u2605\u2605</b> (19)</font><br>Unit 2 B/101-105 Toorak Road, South Yarra<br><br>&#x1F50D; <i>gym, health</i>", "long": 144.9899354, "lat": -37.8383896, "photo": "https://maps.googleapis.com/maps/api/place/photo?maxwidth=300&photo_reference=AcYSjRg-HsskEFOKjwjYOATyEJ8QzifFilmrfyn4vec3SACfiywgx8AidlEvpqY7jWMdBHa8ZvMnG06AGdicTDqwMU29BA2w4gkncMRhlrMS9YkzeDDVRBscwrvCZqylOAEcnv54q4mQOvJyTG64dRwLG18S6I3tf28IQ_wc337GfOzWagj4&key=AIzaSyAlEl7yt8E7Y7tuui21xhJr-UPIqxrW67M", "category_name": "Gym", "iconpath": "img/gym-green.png"}, {"business_status": "OPERATIONAL", "geometry": {"location": {"lat": -37.8387565, "lng": 144.9882869}, "viewport": {"northeast": {"lat": -37.8373091697085, "lng": 144.9896567302915}, "southwest": {"lat": -37.8400071302915, "lng": 144.9869587697085}}}, "icon": "https://maps.gstatic.com/mapfiles/place_api/icons/v1/png_71/school-71.png", "icon_background_color": "#7B9EB0", "icon_mask_base_uri": "https://maps.gstatic.com/mapfiles/place_api/icons/v2/school_pinlet", "name": "Pilates International Melbourne", "opening_hours": {"open_now": true}, "place_id": "ChIJv2SVrpxC1moRdewWFuuiiKk", "plus_code": {"compound_code": "5X6Q+F8 South Yarra VIC, Australia", "global_code": "4RJ65X6Q+F8"}, "rating": 4.3, "reference": "ChIJv2SVrpxC1moRdewWFuuiiKk", "scope": "GOOGLE", "types": ["gym", "health", "point_of_interest", "establishment"], "user_ratings_total": 6, "vicinity": "Level 1/54 A Toorak Road, South Yarra", "primary_type": "Gym", "types str": "gym, health", "ratings_star": "\u2605\u2605\u2605\u2605\u2606", "popup": "<h4><b>Pilates International Melbourne</b></h4><font color=\"gray\"><b>4.3\u2605\u2605\u2605\u2605\u2606</b> (6)</font><br>Level 1/54 A Toorak Road, South Yarra<br><br>&#x1F50D; <i>gym, health</i>", "long": 144.9882869, "lat": -37.8387565, "category_name": "Gym", "iconpath": "img/gym-green.png"}, {"business_status": "CLOSED_TEMPORARILY", "geometry": {"location": {"lat": -37.83806870000001, "lng": 144.980015}, "viewport": {"northeast": {"lat": -37.83668436970851, "lng": 144.9814577302915}, "southwest": {"lat": -37.83938233029151, "lng": 144.9787597697085}}}, "icon": "https://maps.gstatic.com/mapfiles/place_api/icons/v1/png_71/school-71.png", "icon_background_color": "#7B9EB0", "icon_mask_base_uri": "https://maps.gstatic.com/mapfiles/place_api/icons/v2/school_pinlet", "name": "Yoga Concepts Studio", "permanently_closed": true, "place_id": "ChIJvwNKOB5o1moRkvrnYhCjngk", "plus_code": {"compound_code": "5X6J+Q2 South Yarra VIC, Australia", "global_code": "4RJ65X6J+Q2"}, "reference": "ChIJvwNKOB5o1moRkvrnYhCjngk", "scope": "GOOGLE", "types": ["gym", "health", "point_of_interest", "establishment"], "vicinity": "Fawkner Park Tennis Club, 65 Toorak Road West, South Yarra", "primary_type": "Gym", "types str": "gym, health", "popup": "<h4><b>Yoga Concepts Studio</b></h4><br>Fawkner Park Tennis Club, 65 Toorak Road West, South Yarra<br><br>&#x1F50D; <i>gym, health</i>", "long": 144.980015, "lat": -37.83806870000001, "category_name": "Gym", "iconpath": "img/gym-yellow.png"}, {"business_status": "OPERATIONAL", "geometry": {"location": {"lat": -37.8386714, "lng": 144.9874941}, "viewport": {"northeast": {"lat": -37.83721061970849, "lng": 144.9887677302915}, "southwest": {"lat": -37.83990858029149, "lng": 144.9860697697085}}}, "icon": "https://maps.gstatic.com/mapfiles/place_api/icons/v1/png_71/generic_business-71.png", "icon_background_color": "#7B9EB0", "icon_mask_base_uri": "https://maps.gstatic.com/mapfiles/place_api/icons/v2/generic_pinlet", "name": "UBX South Yarra", "opening_hours": {"open_now": true}, "photos": [{"height": 683, "html_attributions": ["<a href=\"https://maps.google.com/maps/contrib/112437709191860618983\">UBX South Yarra</a>"], "photo_reference": "AcYSjRi549oTgDkhEvDJesjz8z04Tzsj_3yLYSt-dRjMWmHltS4OAFGcHsGJtoPDsoTHxN3Hi0a87MIjBCt82Jkw5RXI3PbTSba27RmR_BpO3DWbQElx5SWUgOGjUp-n-cYBk-IkqktbfccTz-ujp_izMN5Ko5XgGr7pBLBYx338dSr8g5BR", "width": 1024}], "place_id": "ChIJa6TbIp5C1moR9YDBHweORX8", "plus_code": {"compound_code": "5X6P+GX South Yarra VIC, Australia", "global_code": "4RJ65X6P+GX"}, "rating": 5, "reference": "ChIJa6TbIp5C1moR9YDBHweORX8", "scope": "GOOGLE", "types": ["gym", "health", "point_of_interest", "establishment"], "user_ratings_total": 59, "vicinity": "26 Toorak Road, South Yarra", "primary_type": "Gym", "types str": "gym, health", "ratings_star": "\u2605\u2605\u2605\u2605\u2605", "popup": "<img src=\"https://maps.googleapis.com/maps/api/place/photo?maxwidth=300&photo_reference=AcYSjRi549oTgDkhEvDJesjz8z04Tzsj_3yLYSt-dRjMWmHltS4OAFGcHsGJtoPDsoTHxN3Hi0a87MIjBCt82Jkw5RXI3PbTSba27RmR_BpO3DWbQElx5SWUgOGjUp-n-cYBk-IkqktbfccTz-ujp_izMN5Ko5XgGr7pBLBYx338dSr8g5BR&key=AIzaSyAlEl7yt8E7Y7tuui21xhJr-UPIqxrW67M\" width=\"100%\" maxwidth=300></img><br><h4><b>UBX South Yarra</b></h4><font color=\"gray\"><b>5\u2605\u2605\u2605\u2605\u2605</b> (59)</font><br>26 Toorak Road, South Yarra<br><br>&#x1F50D; <i>gym, health</i>", "long": 144.9874941, "lat": -37.8386714, "photo": "https://maps.googleapis.com/maps/api/place/photo?maxwidth=300&photo_reference=AcYSjRi549oTgDkhEvDJesjz8z04Tzsj_3yLYSt-dRjMWmHltS4OAFGcHsGJtoPDsoTHxN3Hi0a87MIjBCt82Jkw5RXI3PbTSba27RmR_BpO3DWbQElx5SWUgOGjUp-n-cYBk-IkqktbfccTz-ujp_izMN5Ko5XgGr7pBLBYx338dSr8g5BR&key=AIzaSyAlEl7yt8E7Y7tuui21xhJr-UPIqxrW67M", "category_name": "Gym", "iconpath": "img/gym-green.png"}, {"business_status": "OPERATIONAL", "geometry": {"location": {"lat": -37.8462012, "lng": 144.9816806}, "viewport": {"northeast": {"lat": -37.8450029697085, "lng": 144.9829966302915}, "southwest": {"lat": -37.8477009302915, "lng": 144.9802986697085}}}, "icon": "https://maps.gstatic.com/mapfiles/place_api/icons/v1/png_71/generic_business-71.png", "icon_background_color": "#7B9EB0", "icon_mask_base_uri": "https://maps.gstatic.com/mapfiles/place_api/icons/v2/generic_pinlet", "name": "ProSport Health & Fitness", "place_id": "ChIJIebTGrVp1moRXCcx_obJJSM", "plus_code": {"compound_code": "5X3J+GM South Yarra VIC, Australia", "global_code": "4RJ65X3J+GM"}, "rating": 5, "reference": "ChIJIebTGrVp1moRXCcx_obJJSM", "scope": "GOOGLE", "types": ["gym", "health", "point_of_interest", "establishment"], "user_ratings_total": 1, "vicinity": "55 Commercial Road, South Yarra", "primary_type": "Gym", "types str": "gym, health", "ratings_star": "\u2605\u2605\u2605\u2605\u2605", "popup": "<h4><b>ProSport Health & Fitness</b></h4><font color=\"gray\"><b>5\u2605\u2605\u2605\u2605\u2605</b> (1)</font><br>55 Commercial Road, South Yarra<br><br>&#x1F50D; <i>gym, health</i>", "long": 144.9816806, "lat": -37.8462012, "category_name": "Gym", "iconpath": "img/gym-green.png"}, {"business_status": "OPERATIONAL", "geometry": {"location": {"lat": -37.83856229999999, "lng": 144.9874904}, "viewport": {"northeast": {"lat": -37.8371548697085, "lng": 144.9888531802915}, "southwest": {"lat": -37.8398528302915, "lng": 144.9861552197085}}}, "icon": "https://maps.gstatic.com/mapfiles/place_api/icons/v1/png_71/generic_business-71.png", "icon_background_color": "#7B9EB0", "icon_mask_base_uri": "https://maps.gstatic.com/mapfiles/place_api/icons/v2/generic_pinlet", "name": "QuickFit Health Club - South Yarra", "opening_hours": {"open_now": true}, "photos": [{"height": 810, "html_attributions": ["<a href=\"https://maps.google.com/maps/contrib/107167353978252476866\">QuickFit Health Club - South Yarra</a>"], "photo_reference": "AcYSjRgMqDg9jxEuiXYCBhlbNGF38aAcE5NcCJKnWPGTzNy1lt_zBDHyhWLXLb5Z8DXai3eFtGD_Yq4EqKIr1PVVa4FW_tp8zucjg4BCkTtqtNSZ-wNDQIOIkMlC_6Xq4vlS0ALynep-9HH9UdBlRi7f-XSyDUixUvFHVry5M8dBRsubWbUg", "width": 1440}], "place_id": "ChIJI1v__htD1moRESQK_HbvMPU", "plus_code": {"compound_code": "5X6P+HX South Yarra VIC, Australia", "global_code": "4RJ65X6P+HX"}, "rating": 4.8, "reference": "ChIJI1v__htD1moRESQK_HbvMPU", "scope": "GOOGLE", "types": ["gym", "health", "point_of_interest", "establishment"], "user_ratings_total": 33, "vicinity": "22 Toorak Road, South Yarra", "primary_type": "Gym", "types str": "gym, health", "ratings_star": "\u2605\u2605\u2605\u2605\u2606", "popup": "<img src=\"https://maps.googleapis.com/maps/api/place/photo?maxwidth=300&photo_reference=AcYSjRgMqDg9jxEuiXYCBhlbNGF38aAcE5NcCJKnWPGTzNy1lt_zBDHyhWLXLb5Z8DXai3eFtGD_Yq4EqKIr1PVVa4FW_tp8zucjg4BCkTtqtNSZ-wNDQIOIkMlC_6Xq4vlS0ALynep-9HH9UdBlRi7f-XSyDUixUvFHVry5M8dBRsubWbUg&key=AIzaSyAlEl7yt8E7Y7tuui21xhJr-UPIqxrW67M\" width=\"100%\" maxwidth=300></img><br><h4><b>QuickFit Health Club - South Yarra</b></h4><font color=\"gray\"><b>4.8\u2605\u2605\u2605\u2605\u2606</b> (33)</font><br>22 Toorak Road, South Yarra<br><br>&#x1F50D; <i>gym, health</i>", "long": 144.9874904, "lat": -37.83856229999999, "photo": "https://maps.googleapis.com/maps/api/place/photo?maxwidth=300&photo_reference=AcYSjRgMqDg9jxEuiXYCBhlbNGF38aAcE5NcCJKnWPGTzNy1lt_zBDHyhWLXLb5Z8DXai3eFtGD_Yq4EqKIr1PVVa4FW_tp8zucjg4BCkTtqtNSZ-wNDQIOIkMlC_6Xq4vlS0ALynep-9HH9UdBlRi7f-XSyDUixUvFHVry5M8dBRsubWbUg&key=AIzaSyAlEl7yt8E7Y7tuui21xhJr-UPIqxrW67M", "category_name": "Gym", "iconpath": "img/gym-green.png"}, {"business_status": "OPERATIONAL", "geometry": {"location": {"lat": -37.8388028, "lng": 144.9888879}, "viewport": {"northeast": {"lat": -37.8373708697085, "lng": 144.9902565302915}, "southwest": {"lat": -37.8400688302915, "lng": 144.9875585697085}}}, "icon": "https://maps.gstatic.com/mapfiles/place_api/icons/v1/png_71/school-71.png", "icon_background_color": "#7B9EB0", "icon_mask_base_uri": "https://maps.gstatic.com/mapfiles/place_api/icons/v2/school_pinlet", "name": "Pilates Bodyworks", "opening_hours": {"open_now": true}, "photos": [{"height": 3024, "html_attributions": ["<a href=\"https://maps.google.com/maps/contrib/106518326793458840531\">Pilates Bodyworks South Yarra</a>"], "photo_reference": "AcYSjRgpADeNrDXtZUN5ZJhroLXU80wvsCmVk5g_KpCOCp1NnarhUnoEEkOuaS2yHvjEHFBnsH1_5d0qk0p833uOY00x9moG02PteaOGiCgO3ZW3O17ovTFeYb5ZUIohZg_LVCN1ALFwTvV7wTRIaQNlrorQU3nWB1WZ65dSSip1vY4Mc5g", "width": 4032}], "place_id": "ChIJh6QV4J1C1moRUZ-1tvHWgqQ", "plus_code": {"compound_code": "5X6Q+FH South Yarra VIC, Australia", "global_code": "4RJ65X6Q+FH"}, "rating": 5, "reference": "ChIJh6QV4J1C1moRUZ-1tvHWgqQ", "scope": "GOOGLE", "types": ["gym", "health", "point_of_interest", "establishment"], "user_ratings_total": 6, "vicinity": "Level 1/72 Toorak Road, South Yarra", "primary_type": "Gym", "types str": "gym, health", "ratings_star": "\u2605\u2605\u2605\u2605\u2605", "popup": "<img src=\"https://maps.googleapis.com/maps/api/place/photo?maxwidth=300&photo_reference=AcYSjRgpADeNrDXtZUN5ZJhroLXU80wvsCmVk5g_KpCOCp1NnarhUnoEEkOuaS2yHvjEHFBnsH1_5d0qk0p833uOY00x9moG02PteaOGiCgO3ZW3O17ovTFeYb5ZUIohZg_LVCN1ALFwTvV7wTRIaQNlrorQU3nWB1WZ65dSSip1vY4Mc5g&key=AIzaSyAlEl7yt8E7Y7tuui21xhJr-UPIqxrW67M\" width=\"100%\" maxwidth=300></img><br><h4><b>Pilates Bodyworks</b></h4><font color=\"gray\"><b>5\u2605\u2605\u2605\u2605\u2605</b> (6)</font><br>Level 1/72 Toorak Road, South Yarra<br><br>&#x1F50D; <i>gym, health</i>", "long": 144.9888879, "lat": -37.8388028, "photo": "https://maps.googleapis.com/maps/api/place/photo?maxwidth=300&photo_reference=AcYSjRgpADeNrDXtZUN5ZJhroLXU80wvsCmVk5g_KpCOCp1NnarhUnoEEkOuaS2yHvjEHFBnsH1_5d0qk0p833uOY00x9moG02PteaOGiCgO3ZW3O17ovTFeYb5ZUIohZg_LVCN1ALFwTvV7wTRIaQNlrorQU3nWB1WZ65dSSip1vY4Mc5g&key=AIzaSyAlEl7yt8E7Y7tuui21xhJr-UPIqxrW67M", "category_name": "Gym", "iconpath": "img/gym-green.png"}, {"business_status": "OPERATIONAL", "geometry": {"location": {"lat": -37.8355104, "lng": 144.974613}, "viewport": {"northeast": {"lat": -37.83409631970851, "lng": 144.9761008802915}, "southwest": {"lat": -37.8367942802915, "lng": 144.9734029197085}}}, "icon": "https://maps.gstatic.com/mapfiles/place_api/icons/v1/png_71/school-71.png", "icon_background_color": "#7B9EB0", "icon_mask_base_uri": "https://maps.gstatic.com/mapfiles/place_api/icons/v2/school_pinlet", "name": "Kala Yoga Academy", "opening_hours": {"open_now": true}, "place_id": "ChIJFXPeyghp1moRxs8BPZOi5GY", "plus_code": {"compound_code": "5X7F+QR Melbourne VIC, Australia", "global_code": "4RJ65X7F+QR"}, "reference": "ChIJFXPeyghp1moRxs8BPZOi5GY", "scope": "GOOGLE", "types": ["gym", "health", "point_of_interest", "establishment"], "vicinity": "65/416 Saint Kilda Road, Melbourne", "primary_type": "Gym", "types str": "gym, health", "popup": "<h4><b>Kala Yoga Academy</b></h4><br>65/416 Saint Kilda Road, Melbourne<br><br>&#x1F50D; <i>gym, health</i>", "long": 144.974613, "lat": -37.8355104, "category_name": "Gym", "iconpath": "img/gym-yellow.png"}, {"business_status": "CLOSED_TEMPORARILY", "geometry": {"location": {"lat": -37.8485104, "lng": 144.9763679}, "viewport": {"northeast": {"lat": -37.8471255697085, "lng": 144.9777943802915}, "southwest": {"lat": -37.8498235302915, "lng": 144.9750964197085}}}, "icon": "https://maps.gstatic.com/mapfiles/place_api/icons/v1/png_71/generic_business-71.png", "icon_background_color": "#7B9EB0", "icon_mask_base_uri": "https://maps.gstatic.com/mapfiles/place_api/icons/v2/generic_pinlet", "name": "Albert Park Pull Up Station", "permanently_closed": true, "place_id": "ChIJszm3aBFo1moRrXM_g032P-w", "plus_code": {"compound_code": "5X2G+HG Melbourne VIC, Australia", "global_code": "4RJ65X2G+HG"}, "reference": "ChIJszm3aBFo1moRrXM_g032P-w", "scope": "GOOGLE", "types": ["gym", "health", "point_of_interest", "establishment"], "vicinity": "35 Lakeside Drive, Melbourne", "primary_type": "Gym", "types str": "gym, health", "popup": "<h4><b>Albert Park Pull Up Station</b></h4><br>35 Lakeside Drive, Melbourne<br><br>&#x1F50D; <i>gym, health</i>", "long": 144.9763679, "lat": -37.8485104, "category_name": "Gym", "iconpath": "img/gym-yellow.png"}, {"business_status": "CLOSED_TEMPORARILY", "geometry": {"location": {"lat": -37.8365288, "lng": 144.9686481}, "viewport": {"northeast": {"lat": -37.8352897697085, "lng": 144.9700880302915}, "southwest": {"lat": -37.83798773029149, "lng": 144.9673900697085}}}, "icon": "https://maps.gstatic.com/mapfiles/place_api/icons/v1/png_71/school-71.png", "icon_background_color": "#7B9EB0", "icon_mask_base_uri": "https://maps.gstatic.com/mapfiles/place_api/icons/v2/school_pinlet", "name": "Pilates Based Physicalmind Studio", "permanently_closed": true, "place_id": "ChIJEwwU2QFo1moR8iStn10hPhk", "plus_code": {"compound_code": "5X79+9F South Melbourne VIC, Australia", "global_code": "4RJ65X79+9F"}, "reference": "ChIJEwwU2QFo1moR8iStn10hPhk", "scope": "GOOGLE", "types": ["gym", "health", "point_of_interest", "establishment"], "vicinity": "4/162 Albert Road, South Melbourne", "primary_type": "Gym", "types str": "gym, health", "popup": "<h4><b>Pilates Based Physicalmind Studio</b></h4><br>4/162 Albert Road, South Melbourne<br><br>&#x1F50D; <i>gym, health</i>", "long": 144.9686481, "lat": -37.8365288, "category_name": "Gym", "iconpath": "img/gym-yellow.png"}, {"business_status": "OPERATIONAL", "geometry": {"location": {"lat": -37.8440266, "lng": 144.9775847}, "viewport": {"northeast": {"lat": -37.8427740697085, "lng": 144.9789397802915}, "southwest": {"lat": -37.8454720302915, "lng": 144.9762418197085}}}, "icon": "https://maps.gstatic.com/mapfiles/place_api/icons/v1/png_71/generic_business-71.png", "icon_background_color": "#7B9EB0", "icon_mask_base_uri": "https://maps.gstatic.com/mapfiles/place_api/icons/v2/generic_pinlet", "name": "Evolve Physio Group St Kilda Road", "opening_hours": {"open_now": true}, "photos": [{"height": 500, "html_attributions": ["<a href=\"https://maps.google.com/maps/contrib/115386823486801352422\">The Victorian Podiatry Group @ Evolve Physiotherapy</a>"], "photo_reference": "AcYSjRgX4DBHfCU6dmxRsL2aY5yJ3tBSNiC-DnjsG71vIJ9yCI6anAvEZZK71m465yGM7GieObO7p_yQaKi-_-zXkrTYz1-m0XOVj_dEnplVN-GT2wZ3-wTZ3dgVQFvNa47iTFQaoc2jGJo8mEeYudM7QBG3nobVw-vawXepzFaxpUUR0Fyh", "width": 1000}], "place_id": "ChIJ8WPohx1o1moRmdIjESVdPqY", "plus_code": {"compound_code": "5X4H+92 Melbourne VIC, Australia", "global_code": "4RJ65X4H+92"}, "rating": 4.9, "reference": "ChIJ8WPohx1o1moRmdIjESVdPqY", "scope": "GOOGLE", "types": ["physiotherapist", "gym", "doctor", "health", "point_of_interest", "establishment"], "user_ratings_total": 150, "vicinity": "Ground Floor/Suite 1/492 Saint Kilda Road, Melbourne", "primary_type": "Gym", "types str": "physiotherapist, gym, doctor, health", "ratings_star": "\u2605\u2605\u2605\u2605\u2606", "popup": "<img src=\"https://maps.googleapis.com/maps/api/place/photo?maxwidth=300&photo_reference=AcYSjRgX4DBHfCU6dmxRsL2aY5yJ3tBSNiC-DnjsG71vIJ9yCI6anAvEZZK71m465yGM7GieObO7p_yQaKi-_-zXkrTYz1-m0XOVj_dEnplVN-GT2wZ3-wTZ3dgVQFvNa47iTFQaoc2jGJo8mEeYudM7QBG3nobVw-vawXepzFaxpUUR0Fyh&key=AIzaSyAlEl7yt8E7Y7tuui21xhJr-UPIqxrW67M\" width=\"100%\" maxwidth=300></img><br><h4><b>Evolve Physio Group St Kilda Road</b></h4><font color=\"gray\"><b>4.9\u2605\u2605\u2605\u2605\u2606</b> (150)</font><br>Ground Floor/Suite 1/492 Saint Kilda Road, Melbourne<br><br>&#x1F50D; <i>physiotherapist, gym, doctor, health</i>", "long": 144.9775847, "lat": -37.8440266, "photo": "https://maps.googleapis.com/maps/api/place/photo?maxwidth=300&photo_reference=AcYSjRgX4DBHfCU6dmxRsL2aY5yJ3tBSNiC-DnjsG71vIJ9yCI6anAvEZZK71m465yGM7GieObO7p_yQaKi-_-zXkrTYz1-m0XOVj_dEnplVN-GT2wZ3-wTZ3dgVQFvNa47iTFQaoc2jGJo8mEeYudM7QBG3nobVw-vawXepzFaxpUUR0Fyh&key=AIzaSyAlEl7yt8E7Y7tuui21xhJr-UPIqxrW67M", "category_name": "Gym", "iconpath": "img/gym-green.png"}, {"business_status": "OPERATIONAL", "geometry": {"location": {"lat": -37.8352707, "lng": 144.9702616}, "viewport": {"northeast": {"lat": -37.8339217197085, "lng": 144.9716105802915}, "southwest": {"lat": -37.8366196802915, "lng": 144.9689126197085}}}, "icon": "https://maps.gstatic.com/mapfiles/place_api/icons/v1/png_71/school-71.png", "icon_background_color": "#7B9EB0", "icon_mask_base_uri": "https://maps.gstatic.com/mapfiles/place_api/icons/v2/school_pinlet", "name": "Gymnastics Australia", "opening_hours": {"open_now": true}, "place_id": "ChIJD2g9Y-Jn1moRSNTSUP-1nBU", "plus_code": {"compound_code": "5X7C+V4 South Melbourne VIC, Australia", "global_code": "4RJ65X7C+V4"}, "rating": 2.9, "reference": "ChIJD2g9Y-Jn1moRSNTSUP-1nBU", "scope": "GOOGLE", "types": ["gym", "health", "point_of_interest", "establishment"], "user_ratings_total": 11, "vicinity": "3/100 Albert Road, South Melbourne", "primary_type": "Gym", "types str": "gym, health", "ratings_star": "\u2605\u2605\u2606\u2606\u2606", "popup": "<h4><b>Gymnastics Australia</b></h4><font color=\"gray\"><b>2.9\u2605\u2605\u2606\u2606\u2606</b> (11)</font><br>3/100 Albert Road, South Melbourne<br><br>&#x1F50D; <i>gym, health</i>", "long": 144.9702616, "lat": -37.8352707, "category_name": "Gym", "iconpath": "img/gym-yellow.png"}, {"business_status": "CLOSED_TEMPORARILY", "geometry": {"location": {"lat": -37.8485104, "lng": 144.9763679}, "viewport": {"northeast": {"lat": -37.8471255697085, "lng": 144.9777943802915}, "southwest": {"lat": -37.8498235302915, "lng": 144.9750964197085}}}, "icon": "https://maps.gstatic.com/mapfiles/place_api/icons/v1/png_71/generic_business-71.png", "icon_background_color": "#7B9EB0", "icon_mask_base_uri": "https://maps.gstatic.com/mapfiles/place_api/icons/v2/generic_pinlet", "name": "Albert Park Pull Up Station", "permanently_closed": true, "place_id": "ChIJszm3aBFo1moRrXM_g032P-w", "plus_code": {"compound_code": "5X2G+HG Melbourne VIC, Australia", "global_code": "4RJ65X2G+HG"}, "reference": "ChIJszm3aBFo1moRrXM_g032P-w", "scope": "GOOGLE", "types": ["gym", "health", "point_of_interest", "establishment"], "vicinity": "35 Lakeside Drive, Melbourne", "primary_type": "Gym", "types str": "gym, health", "popup": "<h4><b>Albert Park Pull Up Station</b></h4><br>35 Lakeside Drive, Melbourne<br><br>&#x1F50D; <i>gym, health</i>", "long": 144.9763679, "lat": -37.8485104, "category_name": "Gym", "iconpath": "img/gym-yellow.png"}, {"business_status": "OPERATIONAL", "geometry": {"location": {"lat": -37.8462012, "lng": 144.9816806}, "viewport": {"northeast": {"lat": -37.8450029697085, "lng": 144.9829966302915}, "southwest": {"lat": -37.8477009302915, "lng": 144.9802986697085}}}, "icon": "https://maps.gstatic.com/mapfiles/place_api/icons/v1/png_71/generic_business-71.png", "icon_background_color": "#7B9EB0", "icon_mask_base_uri": "https://maps.gstatic.com/mapfiles/place_api/icons/v2/generic_pinlet", "name": "ProSport Health & Fitness", "place_id": "ChIJIebTGrVp1moRXCcx_obJJSM", "plus_code": {"compound_code": "5X3J+GM South Yarra VIC, Australia", "global_code": "4RJ65X3J+GM"}, "rating": 5, "reference": "ChIJIebTGrVp1moRXCcx_obJJSM", "scope": "GOOGLE", "types": ["gym", "health", "point_of_interest", "establishment"], "user_ratings_total": 1, "vicinity": "55 Commercial Road, South Yarra", "primary_type": "Gym", "types str": "gym, health", "ratings_star": "\u2605\u2605\u2605\u2605\u2605", "popup": "<h4><b>ProSport Health & Fitness</b></h4><font color=\"gray\"><b>5\u2605\u2605\u2605\u2605\u2605</b> (1)</font><br>55 Commercial Road, South Yarra<br><br>&#x1F50D; <i>gym, health</i>", "long": 144.9816806, "lat": -37.8462012, "category_name": "Gym", "iconpath": "img/gym-green.png"}, {"business_status": "CLOSED_TEMPORARILY", "geometry": {"location": {"lat": -37.83806870000001, "lng": 144.980015}, "viewport": {"northeast": {"lat": -37.83668436970851, "lng": 144.9814577302915}, "southwest": {"lat": -37.83938233029151, "lng": 144.9787597697085}}}, "icon": "https://maps.gstatic.com/mapfiles/place_api/icons/v1/png_71/school-71.png", "icon_background_color": "#7B9EB0", "icon_mask_base_uri": "https://maps.gstatic.com/mapfiles/place_api/icons/v2/school_pinlet", "name": "Yoga Concepts Studio", "permanently_closed": true, "place_id": "ChIJvwNKOB5o1moRkvrnYhCjngk", "plus_code": {"compound_code": "5X6J+Q2 South Yarra VIC, Australia", "global_code": "4RJ65X6J+Q2"}, "reference": "ChIJvwNKOB5o1moRkvrnYhCjngk", "scope": "GOOGLE", "types": ["gym", "health", "point_of_interest", "establishment"], "vicinity": "Fawkner Park Tennis Club, 65 Toorak Road West, South Yarra", "primary_type": "Gym", "types str": "gym, health", "popup": "<h4><b>Yoga Concepts Studio</b></h4><br>Fawkner Park Tennis Club, 65 Toorak Road West, South Yarra<br><br>&#x1F50D; <i>gym, health</i>", "long": 144.980015, "lat": -37.83806870000001, "category_name": "Gym", "iconpath": "img/gym-yellow.png"}, {"business_status": "OPERATIONAL", "geometry": {"location": {"lat": -37.8355104, "lng": 144.974613}, "viewport": {"northeast": {"lat": -37.83409631970851, "lng": 144.9761008802915}, "southwest": {"lat": -37.8367942802915, "lng": 144.9734029197085}}}, "icon": "https://maps.gstatic.com/mapfiles/place_api/icons/v1/png_71/school-71.png", "icon_background_color": "#7B9EB0", "icon_mask_base_uri": "https://maps.gstatic.com/mapfiles/place_api/icons/v2/school_pinlet", "name": "Kala Yoga Academy", "opening_hours": {"open_now": true}, "place_id": "ChIJFXPeyghp1moRxs8BPZOi5GY", "plus_code": {"compound_code": "5X7F+QR Melbourne VIC, Australia", "global_code": "4RJ65X7F+QR"}, "reference": "ChIJFXPeyghp1moRxs8BPZOi5GY", "scope": "GOOGLE", "types": ["gym", "health", "point_of_interest", "establishment"], "vicinity": "65/416 Saint Kilda Road, Melbourne", "primary_type": "Gym", "types str": "gym, health", "popup": "<h4><b>Kala Yoga Academy</b></h4><br>65/416 Saint Kilda Road, Melbourne<br><br>&#x1F50D; <i>gym, health</i>", "long": 144.974613, "lat": -37.8355104, "category_name": "Gym", "iconpath": "img/gym-yellow.png"}, {"business_status": "OPERATIONAL", "geometry": {"location": {"lat": -37.849915, "lng": 144.9694977}, "viewport": {"northeast": {"lat": -37.84856601970849, "lng": 144.9708466802915}, "southwest": {"lat": -37.85126398029149, "lng": 144.9681487197085}}}, "icon": "https://maps.gstatic.com/mapfiles/place_api/icons/v1/png_71/generic_business-71.png", "icon_background_color": "#7B9EB0", "icon_mask_base_uri": "https://maps.gstatic.com/mapfiles/place_api/icons/v2/generic_pinlet", "name": "Albert Park Fitness", "opening_hours": {"open_now": true}, "photos": [{"height": 3024, "html_attributions": ["<a href=\"https://maps.google.com/maps/contrib/115409861654024747402\">Albert Park Fitness</a>"], "photo_reference": "AcYSjRgqkQI73a_kWxezjq2euZphpVsrH9DB4g4tNGV98qh-GXFOj4_Z8BgUM-qWsnW3vhGI1y7fD1tmn_0FL8wze5qVZu1SHo1BBnm4MWkWaEFfx6rLAyDTVmJ972VI1OgTU94Mn7Ede5ftpZa07QyD7USJl0WamPK-KbYCn4XM_8-uFvY", "width": 4032}], "place_id": "ChIJV3gzDN5n1moRJP_dx6yOvsY", "plus_code": {"compound_code": "5X29+2Q Albert Park VIC, Australia", "global_code": "4RJ65X29+2Q"}, "rating": 5, "reference": "ChIJV3gzDN5n1moRJP_dx6yOvsY", "scope": "GOOGLE", "types": ["gym", "health", "point_of_interest", "establishment"], "user_ratings_total": 1, "vicinity": "Pitt Building 2, 12 Aughtie Drive, Albert Park", "primary_type": "Gym", "types str": "gym, health", "ratings_star": "\u2605\u2605\u2605\u2605\u2605", "popup": "<img src=\"https://maps.googleapis.com/maps/api/place/photo?maxwidth=300&photo_reference=AcYSjRgqkQI73a_kWxezjq2euZphpVsrH9DB4g4tNGV98qh-GXFOj4_Z8BgUM-qWsnW3vhGI1y7fD1tmn_0FL8wze5qVZu1SHo1BBnm4MWkWaEFfx6rLAyDTVmJ972VI1OgTU94Mn7Ede5ftpZa07QyD7USJl0WamPK-KbYCn4XM_8-uFvY&key=AIzaSyAlEl7yt8E7Y7tuui21xhJr-UPIqxrW67M\" width=\"100%\" maxwidth=300></img><br><h4><b>Albert Park Fitness</b></h4><font color=\"gray\"><b>5\u2605\u2605\u2605\u2605\u2605</b> (1)</font><br>Pitt Building 2, 12 Aughtie Drive, Albert Park<br><br>&#x1F50D; <i>gym, health</i>", "long": 144.9694977, "lat": -37.849915, "photo": "https://maps.googleapis.com/maps/api/place/photo?maxwidth=300&photo_reference=AcYSjRgqkQI73a_kWxezjq2euZphpVsrH9DB4g4tNGV98qh-GXFOj4_Z8BgUM-qWsnW3vhGI1y7fD1tmn_0FL8wze5qVZu1SHo1BBnm4MWkWaEFfx6rLAyDTVmJ972VI1OgTU94Mn7Ede5ftpZa07QyD7USJl0WamPK-KbYCn4XM_8-uFvY&key=AIzaSyAlEl7yt8E7Y7tuui21xhJr-UPIqxrW67M", "category_name": "Gym", "iconpath": "img/gym-green.png"}, {"business_status": "CLOSED_TEMPORARILY", "geometry": {"location": {"lat": -37.841174, "lng": 144.9647448}, "viewport": {"northeast": {"lat": -37.8398250197085, "lng": 144.9660937802915}, "southwest": {"lat": -37.8425229802915, "lng": 144.9633958197085}}}, "icon": "https://maps.gstatic.com/mapfiles/place_api/icons/v1/png_71/generic_business-71.png", "icon_background_color": "#7B9EB0", "icon_mask_base_uri": "https://maps.gstatic.com/mapfiles/place_api/icons/v2/generic_pinlet", "name": "Australian Taekwondo High Performance Training Centre", "permanently_closed": true, "place_id": "ChIJJ8E9kKtp1moReonSl09uP8c", "plus_code": {"compound_code": "5X57+GV Albert Park VIC, Australia", "global_code": "4RJ65X57+GV"}, "reference": "ChIJJ8E9kKtp1moReonSl09uP8c", "scope": "GOOGLE", "types": ["gym", "health", "point_of_interest", "establishment"], "vicinity": "Albert Park", "primary_type": "Gym", "types str": "gym, health", "popup": "<h4><b>Australian Taekwondo High Performance Training Centre</b></h4><br>Albert Park<br><br>&#x1F50D; <i>gym, health</i>", "long": 144.9647448, "lat": -37.841174, "category_name": "Gym", "iconpath": "img/gym-yellow.png"}, {"business_status": "OPERATIONAL", "geometry": {"location": {"lat": -37.8493096, "lng": 144.9834046}, "viewport": {"northeast": {"lat": -37.8480005197085, "lng": 144.9847472802915}, "southwest": {"lat": -37.8506984802915, "lng": 144.9820493197085}}}, "icon": "https://maps.gstatic.com/mapfiles/place_api/icons/v1/png_71/school-71.png", "icon_background_color": "#7B9EB0", "icon_mask_base_uri": "https://maps.gstatic.com/mapfiles/place_api/icons/v2/school_pinlet", "name": "Melbourne Gymnastics Centre (Melbourne Centre)", "opening_hours": {"open_now": true}, "place_id": "ChIJOYJyWC1p1moRPS2euq3vK74", "plus_code": {"compound_code": "5X2M+79 Melbourne VIC, Australia", "global_code": "4RJ65X2M+79"}, "reference": "ChIJOYJyWC1p1moRPS2euq3vK74", "scope": "GOOGLE", "types": ["gym", "health", "point_of_interest", "establishment"], "vicinity": "577 Saint Kilda Road, Melbourne", "primary_type": "Gym", "types str": "gym, health", "popup": "<h4><b>Melbourne Gymnastics Centre (Melbourne Centre)</b></h4><br>577 Saint Kilda Road, Melbourne<br><br>&#x1F50D; <i>gym, health</i>", "long": 144.9834046, "lat": -37.8493096, "category_name": "Gym", "iconpath": "img/gym-yellow.png"}, {"business_status": "CLOSED_TEMPORARILY", "geometry": {"location": {"lat": -37.8410688, "lng": 144.9647271}, "viewport": {"northeast": {"lat": -37.8397198197085, "lng": 144.9660760802915}, "southwest": {"lat": -37.84241778029149, "lng": 144.9633781197085}}}, "icon": "https://maps.gstatic.com/mapfiles/place_api/icons/v1/png_71/generic_business-71.png", "icon_background_color": "#7B9EB0", "icon_mask_base_uri": "https://maps.gstatic.com/mapfiles/place_api/icons/v2/generic_pinlet", "name": "level 1 31 Aughtie drive", "permanently_closed": true, "place_id": "ChIJvTe5JwZo1moR2VSjRlZs8rs", "plus_code": {"compound_code": "5X57+HV Albert Park VIC, Australia", "global_code": "4RJ65X57+HV"}, "reference": "ChIJvTe5JwZo1moR2VSjRlZs8rs", "scope": "GOOGLE", "types": ["gym", "health", "point_of_interest", "establishment"], "vicinity": "1/31 Aughtie Drive, Albert Park", "primary_type": "Gym", "types str": "gym, health", "popup": "<h4><b>level 1 31 Aughtie drive</b></h4><br>1/31 Aughtie Drive, Albert Park<br><br>&#x1F50D; <i>gym, health</i>", "long": 144.9647271, "lat": -37.8410688, "category_name": "Gym", "iconpath": "img/gym-yellow.png"}, {"business_status": "CLOSED_TEMPORARILY", "geometry": {"location": {"lat": -37.8372051, "lng": 144.9668528}, "viewport": {"northeast": {"lat": -37.8359703197085, "lng": 144.9682558302915}, "southwest": {"lat": -37.83866828029149, "lng": 144.9655578697085}}}, "icon": "https://maps.gstatic.com/mapfiles/place_api/icons/v1/png_71/shopping-71.png", "icon_background_color": "#4B96F3", "icon_mask_base_uri": "https://maps.gstatic.com/mapfiles/place_api/icons/v2/shopping_pinlet", "name": "Sport Towels - RealX Cooling Towels", "permanently_closed": true, "place_id": "ChIJz0F8AARo1moRpFnFV32dK8Q", "plus_code": {"compound_code": "5X78+4P South Melbourne VIC, Australia", "global_code": "4RJ65X78+4P"}, "reference": "ChIJz0F8AARo1moRpFnFV32dK8Q", "scope": "GOOGLE", "types": ["gym", "health", "point_of_interest", "store", "establishment"], "vicinity": "210 Albert Road, South Melbourne", "primary_type": "Gym", "types str": "gym, health, store", "popup": "<h4><b>Sport Towels - RealX Cooling Towels</b></h4><br>210 Albert Road, South Melbourne<br><br>&#x1F50D; <i>gym, health, store</i>", "long": 144.9668528, "lat": -37.8372051, "category_name": "Gym", "iconpath": "img/gym-yellow.png"}, {"business_status": "OPERATIONAL", "geometry": {"location": {"lat": -37.8335474, "lng": 144.9704188}, "viewport": {"northeast": {"lat": -37.8322396697085, "lng": 144.9716577802915}, "southwest": {"lat": -37.8349376302915, "lng": 144.9689598197085}}}, "icon": "https://maps.gstatic.com/mapfiles/place_api/icons/v1/png_71/generic_business-71.png", "icon_background_color": "#7B9EB0", "icon_mask_base_uri": "https://maps.gstatic.com/mapfiles/place_api/icons/v2/generic_pinlet", "name": "Next Level Gym South Melbourne", "opening_hours": {"open_now": true}, "photos": [{"height": 720, "html_attributions": ["<a href=\"https://maps.google.com/maps/contrib/110439427820622487909\">Next Level Gym South Melbourne</a>"], "photo_reference": "AcYSjRiMWq_MgaNP2PJO4dF_xqRUQLnqJLmV8FClZ6bk-p25ghx_oisY3qYcckUID-IedQbm4XEuTbJoTxj1QPxHbgh1058J_Zc4yn6ylPJolT0RdJdmeUvtBK9pTBTZNXFxsfR5XCG6zeDG3LO_QFbNhSR9Avfc2lsOwESIC-tD01DE5HXM", "width": 960}], "place_id": "ChIJ6UA-J6hC1moRM6lBQda60S8", "plus_code": {"compound_code": "5X8C+H5 South Melbourne VIC, Australia", "global_code": "4RJ65X8C+H5"}, "rating": 4.3, "reference": "ChIJ6UA-J6hC1moRM6lBQda60S8", "scope": "GOOGLE", "types": ["gym", "health", "point_of_interest", "establishment"], "user_ratings_total": 30, "vicinity": "13/21 Palmerston Crescent, South Melbourne", "primary_type": "Gym", "types str": "gym, health", "ratings_star": "\u2605\u2605\u2605\u2605\u2606", "popup": "<img src=\"https://maps.googleapis.com/maps/api/place/photo?maxwidth=300&photo_reference=AcYSjRiMWq_MgaNP2PJO4dF_xqRUQLnqJLmV8FClZ6bk-p25ghx_oisY3qYcckUID-IedQbm4XEuTbJoTxj1QPxHbgh1058J_Zc4yn6ylPJolT0RdJdmeUvtBK9pTBTZNXFxsfR5XCG6zeDG3LO_QFbNhSR9Avfc2lsOwESIC-tD01DE5HXM&key=AIzaSyAlEl7yt8E7Y7tuui21xhJr-UPIqxrW67M\" width=\"100%\" maxwidth=300></img><br><h4><b>Next Level Gym South Melbourne</b></h4><font color=\"gray\"><b>4.3\u2605\u2605\u2605\u2605\u2606</b> (30)</font><br>13/21 Palmerston Crescent, South Melbourne<br><br>&#x1F50D; <i>gym, health</i>", "long": 144.9704188, "lat": -37.8335474, "photo": "https://maps.googleapis.com/maps/api/place/photo?maxwidth=300&photo_reference=AcYSjRiMWq_MgaNP2PJO4dF_xqRUQLnqJLmV8FClZ6bk-p25ghx_oisY3qYcckUID-IedQbm4XEuTbJoTxj1QPxHbgh1058J_Zc4yn6ylPJolT0RdJdmeUvtBK9pTBTZNXFxsfR5XCG6zeDG3LO_QFbNhSR9Avfc2lsOwESIC-tD01DE5HXM&key=AIzaSyAlEl7yt8E7Y7tuui21xhJr-UPIqxrW67M", "category_name": "Gym", "iconpath": "img/gym-green.png"}, {"business_status": "CLOSED_TEMPORARILY", "geometry": {"location": {"lat": -37.8365288, "lng": 144.9686481}, "viewport": {"northeast": {"lat": -37.8352897697085, "lng": 144.9700880302915}, "southwest": {"lat": -37.83798773029149, "lng": 144.9673900697085}}}, "icon": "https://maps.gstatic.com/mapfiles/place_api/icons/v1/png_71/school-71.png", "icon_background_color": "#7B9EB0", "icon_mask_base_uri": "https://maps.gstatic.com/mapfiles/place_api/icons/v2/school_pinlet", "name": "Pilates Based Physicalmind Studio", "permanently_closed": true, "place_id": "ChIJEwwU2QFo1moR8iStn10hPhk", "plus_code": {"compound_code": "5X79+9F South Melbourne VIC, Australia", "global_code": "4RJ65X79+9F"}, "reference": "ChIJEwwU2QFo1moR8iStn10hPhk", "scope": "GOOGLE", "types": ["gym", "health", "point_of_interest", "establishment"], "vicinity": "4/162 Albert Road, South Melbourne", "primary_type": "Gym", "types str": "gym, health", "popup": "<h4><b>Pilates Based Physicalmind Studio</b></h4><br>4/162 Albert Road, South Melbourne<br><br>&#x1F50D; <i>gym, health</i>", "long": 144.9686481, "lat": -37.8365288, "category_name": "Gym", "iconpath": "img/gym-yellow.png"}, {"business_status": "OPERATIONAL", "geometry": {"location": {"lat": -37.8352707, "lng": 144.9702616}, "viewport": {"northeast": {"lat": -37.8339217197085, "lng": 144.9716105802915}, "southwest": {"lat": -37.8366196802915, "lng": 144.9689126197085}}}, "icon": "https://maps.gstatic.com/mapfiles/place_api/icons/v1/png_71/school-71.png", "icon_background_color": "#7B9EB0", "icon_mask_base_uri": "https://maps.gstatic.com/mapfiles/place_api/icons/v2/school_pinlet", "name": "Gymnastics Australia", "opening_hours": {"open_now": true}, "place_id": "ChIJD2g9Y-Jn1moRSNTSUP-1nBU", "plus_code": {"compound_code": "5X7C+V4 South Melbourne VIC, Australia", "global_code": "4RJ65X7C+V4"}, "rating": 2.9, "reference": "ChIJD2g9Y-Jn1moRSNTSUP-1nBU", "scope": "GOOGLE", "types": ["gym", "health", "point_of_interest", "establishment"], "user_ratings_total": 11, "vicinity": "3/100 Albert Road, South Melbourne", "primary_type": "Gym", "types str": "gym, health", "ratings_star": "\u2605\u2605\u2606\u2606\u2606", "popup": "<h4><b>Gymnastics Australia</b></h4><font color=\"gray\"><b>2.9\u2605\u2605\u2606\u2606\u2606</b> (11)</font><br>3/100 Albert Road, South Melbourne<br><br>&#x1F50D; <i>gym, health</i>", "long": 144.9702616, "lat": -37.8352707, "category_name": "Gym", "iconpath": "img/gym-yellow.png"}, {"business_status": "OPERATIONAL", "geometry": {"location": {"lat": -37.8318463, "lng": 144.9700173}, "viewport": {"northeast": {"lat": -37.8305390697085, "lng": 144.9712974802915}, "southwest": {"lat": -37.83323703029149, "lng": 144.9685995197085}}}, "icon": "https://maps.gstatic.com/mapfiles/place_api/icons/v1/png_71/generic_business-71.png", "icon_background_color": "#7B9EB0", "icon_mask_base_uri": "https://maps.gstatic.com/mapfiles/place_api/icons/v2/generic_pinlet", "name": "Domain Health - South Melbourne", "opening_hours": {"open_now": true}, "photos": [{"height": 1000, "html_attributions": ["<a href=\"https://maps.google.com/maps/contrib/111219403315079661403\">Domain Health - South Melbourne</a>"], "photo_reference": "AcYSjRgY_BNwWWOtVsR355lwvj8ycCR5AzhTRbW2GUgdKKZI6LtbR9BMF47CFmrL4k3yP8i8uUdc1uC9MCFzX0e0_3BJxbFElgru_d-5a7_ysmWnR7sBR7DS9Lz1dZGGMYGehla1MsEv7SxvRryWeBYm8pk7XDzZV_FC_6jZfx29uyp7-ccq", "width": 1500}], "place_id": "ChIJ27iLWqhC1moR22MMcprYZ1E", "plus_code": {"compound_code": "5X9C+72 South Melbourne VIC, Australia", "global_code": "4RJ65X9C+72"}, "rating": 4.9, "reference": "ChIJ27iLWqhC1moR22MMcprYZ1E", "scope": "GOOGLE", "types": ["physiotherapist", "gym", "health", "point_of_interest", "establishment"], "user_ratings_total": 16, "vicinity": "175 Wells Street, South Melbourne", "primary_type": "Gym", "types str": "physiotherapist, gym, health", "ratings_star": "\u2605\u2605\u2605\u2605\u2606", "popup": "<img src=\"https://maps.googleapis.com/maps/api/place/photo?maxwidth=300&photo_reference=AcYSjRgY_BNwWWOtVsR355lwvj8ycCR5AzhTRbW2GUgdKKZI6LtbR9BMF47CFmrL4k3yP8i8uUdc1uC9MCFzX0e0_3BJxbFElgru_d-5a7_ysmWnR7sBR7DS9Lz1dZGGMYGehla1MsEv7SxvRryWeBYm8pk7XDzZV_FC_6jZfx29uyp7-ccq&key=AIzaSyAlEl7yt8E7Y7tuui21xhJr-UPIqxrW67M\" width=\"100%\" maxwidth=300></img><br><h4><b>Domain Health - South Melbourne</b></h4><font color=\"gray\"><b>4.9\u2605\u2605\u2605\u2605\u2606</b> (16)</font><br>175 Wells Street, South Melbourne<br><br>&#x1F50D; <i>physiotherapist, gym, health</i>", "long": 144.9700173, "lat": -37.8318463, "photo": "https://maps.googleapis.com/maps/api/place/photo?maxwidth=300&photo_reference=AcYSjRgY_BNwWWOtVsR355lwvj8ycCR5AzhTRbW2GUgdKKZI6LtbR9BMF47CFmrL4k3yP8i8uUdc1uC9MCFzX0e0_3BJxbFElgru_d-5a7_ysmWnR7sBR7DS9Lz1dZGGMYGehla1MsEv7SxvRryWeBYm8pk7XDzZV_FC_6jZfx29uyp7-ccq&key=AIzaSyAlEl7yt8E7Y7tuui21xhJr-UPIqxrW67M", "category_name": "Gym", "iconpath": "img/gym-green.png"}, {"business_status": "CLOSED_TEMPORARILY", "geometry": {"location": {"lat": -37.8376904, "lng": 144.9656112}, "viewport": {"northeast": {"lat": -37.83635281970849, "lng": 144.9669212802915}, "southwest": {"lat": -37.83905078029149, "lng": 144.9642233197085}}}, "icon": "https://maps.gstatic.com/mapfiles/place_api/icons/v1/png_71/generic_business-71.png", "icon_background_color": "#7B9EB0", "icon_mask_base_uri": "https://maps.gstatic.com/mapfiles/place_api/icons/v2/generic_pinlet", "name": "Fitness 4 Free", "permanently_closed": true, "place_id": "ChIJi2SivgZo1moR-jwiYa4xV8s", "plus_code": {"compound_code": "5X68+W6 South Melbourne VIC, Australia", "global_code": "4RJ65X68+W6"}, "reference": "ChIJi2SivgZo1moR-jwiYa4xV8s", "scope": "GOOGLE", "types": ["gym", "health", "point_of_interest", "establishment"], "vicinity": "Albert Road, South Melbourne", "primary_type": "Gym", "types str": "gym, health", "popup": "<h4><b>Fitness 4 Free</b></h4><br>Albert Road, South Melbourne<br><br>&#x1F50D; <i>gym, health</i>", "long": 144.9656112, "lat": -37.8376904, "category_name": "Gym", "iconpath": "img/gym-yellow.png"}, {"business_status": "OPERATIONAL", "geometry": {"location": {"lat": -37.836914, "lng": 144.965883}, "viewport": {"northeast": {"lat": -37.8356446697085, "lng": 144.9672685302915}, "southwest": {"lat": -37.8383426302915, "lng": 144.9645705697085}}}, "icon": "https://maps.gstatic.com/mapfiles/place_api/icons/v1/png_71/school-71.png", "icon_background_color": "#7B9EB0", "icon_mask_base_uri": "https://maps.gstatic.com/mapfiles/place_api/icons/v2/school_pinlet", "name": "KX Pilates South Melbourne", "photos": [{"height": 613, "html_attributions": ["<a href=\"https://maps.google.com/maps/contrib/107191514739523281868\">KX Pilates South Melbourne</a>"], "photo_reference": "AcYSjRhhiJQftXwnAAVnaZFC3dR7aBD6BpXaFmFnJPZ-arD_frmkC8GowQEoeaoOt00xrhGzcfUqj95wfbs3ov-Am3P13G5dFU6instvPVsP-yRuALxQ5jL1w4ZCnQbwE4Lj2V1sdROKqzTcqXNxDgxGaN5vI-nq1wViWn1x8JNY88D3Fy2h", "width": 1600}], "place_id": "ChIJ_ajPsgZo1moR84tuZyM3g14", "plus_code": {"compound_code": "5X78+69 South Melbourne VIC, Australia", "global_code": "4RJ65X78+69"}, "rating": 4.8, "reference": "ChIJ_ajPsgZo1moR84tuZyM3g14", "scope": "GOOGLE", "types": ["gym", "health", "point_of_interest", "establishment"], "user_ratings_total": 17, "vicinity": "26 Thomson Street, South Melbourne", "primary_type": "Gym", "types str": "gym, health", "ratings_star": "\u2605\u2605\u2605\u2605\u2606", "popup": "<img src=\"https://maps.googleapis.com/maps/api/place/photo?maxwidth=300&photo_reference=AcYSjRhhiJQftXwnAAVnaZFC3dR7aBD6BpXaFmFnJPZ-arD_frmkC8GowQEoeaoOt00xrhGzcfUqj95wfbs3ov-Am3P13G5dFU6instvPVsP-yRuALxQ5jL1w4ZCnQbwE4Lj2V1sdROKqzTcqXNxDgxGaN5vI-nq1wViWn1x8JNY88D3Fy2h&key=AIzaSyAlEl7yt8E7Y7tuui21xhJr-UPIqxrW67M\" width=\"100%\" maxwidth=300></img><br><h4><b>KX Pilates South Melbourne</b></h4><font color=\"gray\"><b>4.8\u2605\u2605\u2605\u2605\u2606</b> (17)</font><br>26 Thomson Street, South Melbourne<br><br>&#x1F50D; <i>gym, health</i>", "long": 144.965883, "lat": -37.836914, "photo": "https://maps.googleapis.com/maps/api/place/photo?maxwidth=300&photo_reference=AcYSjRhhiJQftXwnAAVnaZFC3dR7aBD6BpXaFmFnJPZ-arD_frmkC8GowQEoeaoOt00xrhGzcfUqj95wfbs3ov-Am3P13G5dFU6instvPVsP-yRuALxQ5jL1w4ZCnQbwE4Lj2V1sdROKqzTcqXNxDgxGaN5vI-nq1wViWn1x8JNY88D3Fy2h&key=AIzaSyAlEl7yt8E7Y7tuui21xhJr-UPIqxrW67M", "category_name": "Gym", "iconpath": "img/gym-green.png"}, {"business_status": "OPERATIONAL", "geometry": {"location": {"lat": -37.8318463, "lng": 144.9700173}, "viewport": {"northeast": {"lat": -37.8305234197085, "lng": 144.9712877302915}, "southwest": {"lat": -37.8332213802915, "lng": 144.9685897697085}}}, "icon": "https://maps.gstatic.com/mapfiles/place_api/icons/v1/png_71/generic_business-71.png", "icon_background_color": "#7B9EB0", "icon_mask_base_uri": "https://maps.gstatic.com/mapfiles/place_api/icons/v2/generic_pinlet", "name": "Fiona Samuel Physiotherapy and Pilates", "opening_hours": {"open_now": true}, "photos": [{"height": 1067, "html_attributions": ["<a href=\"https://maps.google.com/maps/contrib/106144466860021965438\">Fiona Samuel Physiotherapy and Pilates</a>"], "photo_reference": "AcYSjRjwIwASAFpoFTZC9ysTM_uQv_DZpGGEL8P0tK7uxVxDvx-bRoxB1-rHFaaIqlMY6wzRuMA8u_dzdsHyDpZ6J3fbKpiwbpHEKH62V11nFsgOre2xNF7Fkuhshi6iYcBHrsDpBzaKkeqGTyDDQJvxUKo_vOWJAtGjJ8-Ks-tVNE3Zntfw", "width": 1600}], "place_id": "ChIJv-iC0Tpo1moRCbmhlRuPcjU", "plus_code": {"compound_code": "5X9C+72 South Melbourne VIC, Australia", "global_code": "4RJ65X9C+72"}, "rating": 5, "reference": "ChIJv-iC0Tpo1moRCbmhlRuPcjU", "scope": "GOOGLE", "types": ["physiotherapist", "gym", "health", "point_of_interest", "establishment"], "user_ratings_total": 20, "vicinity": "175 Wells Street, South Melbourne", "primary_type": "Gym", "types str": "physiotherapist, gym, health", "ratings_star": "\u2605\u2605\u2605\u2605\u2605", "popup": "<img src=\"https://maps.googleapis.com/maps/api/place/photo?maxwidth=300&photo_reference=AcYSjRjwIwASAFpoFTZC9ysTM_uQv_DZpGGEL8P0tK7uxVxDvx-bRoxB1-rHFaaIqlMY6wzRuMA8u_dzdsHyDpZ6J3fbKpiwbpHEKH62V11nFsgOre2xNF7Fkuhshi6iYcBHrsDpBzaKkeqGTyDDQJvxUKo_vOWJAtGjJ8-Ks-tVNE3Zntfw&key=AIzaSyAlEl7yt8E7Y7tuui21xhJr-UPIqxrW67M\" width=\"100%\" maxwidth=300></img><br><h4><b>Fiona Samuel Physiotherapy and Pilates</b></h4><font color=\"gray\"><b>5\u2605\u2605\u2605\u2605\u2605</b> (20)</font><br>175 Wells Street, South Melbourne<br><br>&#x1F50D; <i>physiotherapist, gym, health</i>", "long": 144.9700173, "lat": -37.8318463, "photo": "https://maps.googleapis.com/maps/api/place/photo?maxwidth=300&photo_reference=AcYSjRjwIwASAFpoFTZC9ysTM_uQv_DZpGGEL8P0tK7uxVxDvx-bRoxB1-rHFaaIqlMY6wzRuMA8u_dzdsHyDpZ6J3fbKpiwbpHEKH62V11nFsgOre2xNF7Fkuhshi6iYcBHrsDpBzaKkeqGTyDDQJvxUKo_vOWJAtGjJ8-Ks-tVNE3Zntfw&key=AIzaSyAlEl7yt8E7Y7tuui21xhJr-UPIqxrW67M", "category_name": "Gym", "iconpath": "img/gym-green.png"}, {"business_status": "OPERATIONAL", "geometry": {"location": {"lat": -37.8342725, "lng": 144.9821392}, "viewport": {"northeast": {"lat": -37.8328314197085, "lng": 144.9835081802915}, "southwest": {"lat": -37.8355293802915, "lng": 144.9808102197085}}}, "icon": "https://maps.gstatic.com/mapfiles/place_api/icons/v1/png_71/school-71.png", "icon_background_color": "#7B9EB0", "icon_mask_base_uri": "https://maps.gstatic.com/mapfiles/place_api/icons/v2/school_pinlet", "name": "Melbourne Altitude Training PTY LTD", "opening_hours": {"open_now": false}, "photos": [{"height": 1702, "html_attributions": ["<a href=\"https://maps.google.com/maps/contrib/114602957221243758298\">Melbourne Altitude Training PTY LTD</a>"], "photo_reference": "AcYSjRhTVfeEuqdcwvOJPC8rAyfRic4pwR7KLiX_BHF5XBosJx8fYYnk4OiXyVpXOYTl5QZYt9GcEbjn0uOenHyVAh7bxWwk1Agxg5z4bzrx9GGSZ3R23oug229824X8DKb7iUN_owR2uFpQwx8kA1_C9cW0anpN6gRIsMItd8SbrzzEf1-V", "width": 3024}], "place_id": "ChIJ2aeLLFVd1moRaI0gaqHAQKc", "plus_code": {"compound_code": "5X8J+7V South Yarra VIC, Australia", "global_code": "4RJ65X8J+7V"}, "rating": 5, "reference": "ChIJ2aeLLFVd1moRaI0gaqHAQKc", "scope": "GOOGLE", "types": ["physiotherapist", "gym", "school", "health", "point_of_interest", "establishment"], "user_ratings_total": 14, "vicinity": "183A Domain Road, South Yarra", "primary_type": "Gym", "types str": "physiotherapist, gym, school, health", "ratings_star": "\u2605\u2605\u2605\u2605\u2605", "popup": "<img src=\"https://maps.googleapis.com/maps/api/place/photo?maxwidth=300&photo_reference=AcYSjRhTVfeEuqdcwvOJPC8rAyfRic4pwR7KLiX_BHF5XBosJx8fYYnk4OiXyVpXOYTl5QZYt9GcEbjn0uOenHyVAh7bxWwk1Agxg5z4bzrx9GGSZ3R23oug229824X8DKb7iUN_owR2uFpQwx8kA1_C9cW0anpN6gRIsMItd8SbrzzEf1-V&key=AIzaSyAlEl7yt8E7Y7tuui21xhJr-UPIqxrW67M\" width=\"100%\" maxwidth=300></img><br><h4><b>Melbourne Altitude Training PTY LTD</b></h4><font color=\"gray\"><b>5\u2605\u2605\u2605\u2605\u2605</b> (14)</font><br>183A Domain Road, South Yarra<br><br>&#x1F50D; <i>physiotherapist, gym, school, health</i>", "long": 144.9821392, "lat": -37.8342725, "photo": "https://maps.googleapis.com/maps/api/place/photo?maxwidth=300&photo_reference=AcYSjRhTVfeEuqdcwvOJPC8rAyfRic4pwR7KLiX_BHF5XBosJx8fYYnk4OiXyVpXOYTl5QZYt9GcEbjn0uOenHyVAh7bxWwk1Agxg5z4bzrx9GGSZ3R23oug229824X8DKb7iUN_owR2uFpQwx8kA1_C9cW0anpN6gRIsMItd8SbrzzEf1-V&key=AIzaSyAlEl7yt8E7Y7tuui21xhJr-UPIqxrW67M", "category_name": "Gym", "iconpath": "img/gym-green.png"}, {"business_status": "OPERATIONAL", "geometry": {"location": {"lat": -37.838842, "lng": 144.963014}, "viewport": {"northeast": {"lat": -37.8375613697085, "lng": 144.9644310302915}, "southwest": {"lat": -37.8402593302915, "lng": 144.9617330697085}}}, "icon": "https://maps.gstatic.com/mapfiles/place_api/icons/v1/png_71/generic_business-71.png", "icon_background_color": "#7B9EB0", "icon_mask_base_uri": "https://maps.gstatic.com/mapfiles/place_api/icons/v2/generic_pinlet", "name": "Dr George Michael Osteopath CMSM", "opening_hours": {"open_now": true}, "photos": [{"height": 518, "html_attributions": ["<a href=\"https://maps.google.com/maps/contrib/101364360725253296685\">Carmine Manfre</a>"], "photo_reference": "AcYSjRhKdSM90fKuXjPCB1Y87E3W028TYbSVs0gpf5vYPXV0-gfdHZewGXo4RTypbWElKGrcWs5L0Oo7ZEHoxRor4DGWJ49Fmaky_54F8v6Ygi_RZOGglpC6KoeYOaLGyECDcSwl4Y3HZXF1FYxdRxdOj_pW_LhT4mRUe6GJztHn_WN5vj58", "width": 848}], "place_id": "ChIJU4wzuwdo1moR9GagpuPhVDA", "plus_code": {"compound_code": "5X67+F6 South Melbourne VIC, Australia", "global_code": "4RJ65X67+F6"}, "rating": 5, "reference": "ChIJU4wzuwdo1moR9GagpuPhVDA", "scope": "GOOGLE", "types": ["gym", "health", "point_of_interest", "establishment"], "user_ratings_total": 3, "vicinity": "300 Albert Road, South Melbourne", "primary_type": "Gym", "types str": "gym, health", "ratings_star": "\u2605\u2605\u2605\u2605\u2605", "popup": "<img src=\"https://maps.googleapis.com/maps/api/place/photo?maxwidth=300&photo_reference=AcYSjRhKdSM90fKuXjPCB1Y87E3W028TYbSVs0gpf5vYPXV0-gfdHZewGXo4RTypbWElKGrcWs5L0Oo7ZEHoxRor4DGWJ49Fmaky_54F8v6Ygi_RZOGglpC6KoeYOaLGyECDcSwl4Y3HZXF1FYxdRxdOj_pW_LhT4mRUe6GJztHn_WN5vj58&key=AIzaSyAlEl7yt8E7Y7tuui21xhJr-UPIqxrW67M\" width=\"100%\" maxwidth=300></img><br><h4><b>Dr George Michael Osteopath CMSM</b></h4><font color=\"gray\"><b>5\u2605\u2605\u2605\u2605\u2605</b> (3)</font><br>300 Albert Road, South Melbourne<br><br>&#x1F50D; <i>gym, health</i>", "long": 144.963014, "lat": -37.838842, "photo": "https://maps.googleapis.com/maps/api/place/photo?maxwidth=300&photo_reference=AcYSjRhKdSM90fKuXjPCB1Y87E3W028TYbSVs0gpf5vYPXV0-gfdHZewGXo4RTypbWElKGrcWs5L0Oo7ZEHoxRor4DGWJ49Fmaky_54F8v6Ygi_RZOGglpC6KoeYOaLGyECDcSwl4Y3HZXF1FYxdRxdOj_pW_LhT4mRUe6GJztHn_WN5vj58&key=AIzaSyAlEl7yt8E7Y7tuui21xhJr-UPIqxrW67M", "category_name": "Gym", "iconpath": "img/gym-green.png"}, {"business_status": "OPERATIONAL", "geometry": {"location": {"lat": -37.8303152, "lng": 144.9666967}, "viewport": {"northeast": {"lat": -37.8288206197085, "lng": 144.9679929302915}, "southwest": {"lat": -37.8315185802915, "lng": 144.9652949697085}}}, "icon": "https://maps.gstatic.com/mapfiles/place_api/icons/v1/png_71/generic_business-71.png", "icon_background_color": "#7B9EB0", "icon_mask_base_uri": "https://maps.gstatic.com/mapfiles/place_api/icons/v2/generic_pinlet", "name": "Transcend Health & Fitness - Corporate Health and Specialised Personal Training", "opening_hours": {"open_now": true}, "photos": [{"height": 2320, "html_attributions": ["<a href=\"https://maps.google.com/maps/contrib/113632307784833047040\">Transcend Health &amp; Fitness - Corporate Health and Specialised Personal Training</a>"], "photo_reference": "AcYSjRgAnVZoZA0bIEQMc3zzVwqRi3N-P0_DY6CG42tYNwByOpHdG0iuF-6GgWMY84BPOcD-GSGxIDa4rE5ftUMYgZVlGS4v96UpSz7171mMOwhqPCH3cA2xOrjZ5NPBcO5RiZvi7RuWUQ-KkAqFOSuPhentqaeVB9X1I-yyF0j5rU915n_m", "width": 4124}], "place_id": "ChIJ1eoIBQBo1moRg8DEvxcttQ8", "plus_code": {"compound_code": "5X98+VM Southbank VIC, Australia", "global_code": "4RJ65X98+VM"}, "rating": 5, "reference": "ChIJ1eoIBQBo1moRg8DEvxcttQ8", "scope": "GOOGLE", "types": ["gym", "health", "point_of_interest", "establishment"], "user_ratings_total": 13, "vicinity": "95 Coventry Street, Southbank", "primary_type": "Gym", "types str": "gym, health", "ratings_star": "\u2605\u2605\u2605\u2605\u2605", "popup": "<img src=\"https://maps.googleapis.com/maps/api/place/photo?maxwidth=300&photo_reference=AcYSjRgAnVZoZA0bIEQMc3zzVwqRi3N-P0_DY6CG42tYNwByOpHdG0iuF-6GgWMY84BPOcD-GSGxIDa4rE5ftUMYgZVlGS4v96UpSz7171mMOwhqPCH3cA2xOrjZ5NPBcO5RiZvi7RuWUQ-KkAqFOSuPhentqaeVB9X1I-yyF0j5rU915n_m&key=AIzaSyAlEl7yt8E7Y7tuui21xhJr-UPIqxrW67M\" width=\"100%\" maxwidth=300></img><br><h4><b>Transcend Health & Fitness - Corporate Health and Specialised Personal Training</b></h4><font color=\"gray\"><b>5\u2605\u2605\u2605\u2605\u2605</b> (13)</font><br>95 Coventry Street, Southbank<br><br>&#x1F50D; <i>gym, health</i>", "long": 144.9666967, "lat": -37.8303152, "photo": "https://maps.googleapis.com/maps/api/place/photo?maxwidth=300&photo_reference=AcYSjRgAnVZoZA0bIEQMc3zzVwqRi3N-P0_DY6CG42tYNwByOpHdG0iuF-6GgWMY84BPOcD-GSGxIDa4rE5ftUMYgZVlGS4v96UpSz7171mMOwhqPCH3cA2xOrjZ5NPBcO5RiZvi7RuWUQ-KkAqFOSuPhentqaeVB9X1I-yyF0j5rU915n_m&key=AIzaSyAlEl7yt8E7Y7tuui21xhJr-UPIqxrW67M", "category_name": "Gym", "iconpath": "img/gym-green.png"}, {"business_status": "OPERATIONAL", "geometry": {"location": {"lat": -37.8440266, "lng": 144.9775847}, "viewport": {"northeast": {"lat": -37.8427740697085, "lng": 144.9789397802915}, "southwest": {"lat": -37.8454720302915, "lng": 144.9762418197085}}}, "icon": "https://maps.gstatic.com/mapfiles/place_api/icons/v1/png_71/generic_business-71.png", "icon_background_color": "#7B9EB0", "icon_mask_base_uri": "https://maps.gstatic.com/mapfiles/place_api/icons/v2/generic_pinlet", "name": "Evolve Physio Group St Kilda Road", "opening_hours": {"open_now": true}, "photos": [{"height": 500, "html_attributions": ["<a href=\"https://maps.google.com/maps/contrib/115386823486801352422\">The Victorian Podiatry Group @ Evolve Physiotherapy</a>"], "photo_reference": "AcYSjRiH_aOlJM1Hap89SWJSGNzxjYjtKgCmbwLvAibURbIa0UH0mnFVBDOHJ31BGMWSR0VuXHo3gOH0rpRp_nMXLIiGqnT3N8uN9dlGoSfz95P30tcv1eEAzZR_Uu1x1kUW20WHE8czrZfJoFmUC6eT5SNlcRqNHawYXkNzM7XsZzSmVK1U", "width": 1000}], "place_id": "ChIJ8WPohx1o1moRmdIjESVdPqY", "plus_code": {"compound_code": "5X4H+92 Melbourne VIC, Australia", "global_code": "4RJ65X4H+92"}, "rating": 4.9, "reference": "ChIJ8WPohx1o1moRmdIjESVdPqY", "scope": "GOOGLE", "types": ["physiotherapist", "gym", "doctor", "health", "point_of_interest", "establishment"], "user_ratings_total": 150, "vicinity": "Ground Floor/Suite 1/492 Saint Kilda Road, Melbourne", "primary_type": "Gym", "types str": "physiotherapist, gym, doctor, health", "ratings_star": "\u2605\u2605\u2605\u2605\u2606", "popup": "<img src=\"https://maps.googleapis.com/maps/api/place/photo?maxwidth=300&photo_reference=AcYSjRiH_aOlJM1Hap89SWJSGNzxjYjtKgCmbwLvAibURbIa0UH0mnFVBDOHJ31BGMWSR0VuXHo3gOH0rpRp_nMXLIiGqnT3N8uN9dlGoSfz95P30tcv1eEAzZR_Uu1x1kUW20WHE8czrZfJoFmUC6eT5SNlcRqNHawYXkNzM7XsZzSmVK1U&key=AIzaSyAlEl7yt8E7Y7tuui21xhJr-UPIqxrW67M\" width=\"100%\" maxwidth=300></img><br><h4><b>Evolve Physio Group St Kilda Road</b></h4><font color=\"gray\"><b>4.9\u2605\u2605\u2605\u2605\u2606</b> (150)</font><br>Ground Floor/Suite 1/492 Saint Kilda Road, Melbourne<br><br>&#x1F50D; <i>physiotherapist, gym, doctor, health</i>", "long": 144.9775847, "lat": -37.8440266, "photo": "https://maps.googleapis.com/maps/api/place/photo?maxwidth=300&photo_reference=AcYSjRiH_aOlJM1Hap89SWJSGNzxjYjtKgCmbwLvAibURbIa0UH0mnFVBDOHJ31BGMWSR0VuXHo3gOH0rpRp_nMXLIiGqnT3N8uN9dlGoSfz95P30tcv1eEAzZR_Uu1x1kUW20WHE8czrZfJoFmUC6eT5SNlcRqNHawYXkNzM7XsZzSmVK1U&key=AIzaSyAlEl7yt8E7Y7tuui21xhJr-UPIqxrW67M", "category_name": "Gym", "iconpath": "img/gym-green.png"}, {"business_status": "OPERATIONAL", "geometry": {"location": {"lat": -37.8355104, "lng": 144.974613}, "viewport": {"northeast": {"lat": -37.83409631970851, "lng": 144.9761008802915}, "southwest": {"lat": -37.8367942802915, "lng": 144.9734029197085}}}, "icon": "https://maps.gstatic.com/mapfiles/place_api/icons/v1/png_71/school-71.png", "icon_background_color": "#7B9EB0", "icon_mask_base_uri": "https://maps.gstatic.com/mapfiles/place_api/icons/v2/school_pinlet", "name": "Kala Yoga Academy", "opening_hours": {"open_now": true}, "place_id": "ChIJFXPeyghp1moRxs8BPZOi5GY", "plus_code": {"compound_code": "5X7F+QR Melbourne VIC, Australia", "global_code": "4RJ65X7F+QR"}, "reference": "ChIJFXPeyghp1moRxs8BPZOi5GY", "scope": "GOOGLE", "types": ["gym", "health", "point_of_interest", "establishment"], "vicinity": "65/416 Saint Kilda Road, Melbourne", "primary_type": "Gym", "types str": "gym, health", "popup": "<h4><b>Kala Yoga Academy</b></h4><br>65/416 Saint Kilda Road, Melbourne<br><br>&#x1F50D; <i>gym, health</i>", "long": 144.974613, "lat": -37.8355104, "category_name": "Gym", "iconpath": "img/gym-yellow.png"}, {"business_status": "CLOSED_TEMPORARILY", "geometry": {"location": {"lat": -37.83806870000001, "lng": 144.980015}, "viewport": {"northeast": {"lat": -37.83668436970851, "lng": 144.9814577302915}, "southwest": {"lat": -37.83938233029151, "lng": 144.9787597697085}}}, "icon": "https://maps.gstatic.com/mapfiles/place_api/icons/v1/png_71/school-71.png", "icon_background_color": "#7B9EB0", "icon_mask_base_uri": "https://maps.gstatic.com/mapfiles/place_api/icons/v2/school_pinlet", "name": "Yoga Concepts Studio", "permanently_closed": true, "place_id": "ChIJvwNKOB5o1moRkvrnYhCjngk", "plus_code": {"compound_code": "5X6J+Q2 South Yarra VIC, Australia", "global_code": "4RJ65X6J+Q2"}, "reference": "ChIJvwNKOB5o1moRkvrnYhCjngk", "scope": "GOOGLE", "types": ["gym", "health", "point_of_interest", "establishment"], "vicinity": "Fawkner Park Tennis Club, 65 Toorak Road West, South Yarra", "primary_type": "Gym", "types str": "gym, health", "popup": "<h4><b>Yoga Concepts Studio</b></h4><br>Fawkner Park Tennis Club, 65 Toorak Road West, South Yarra<br><br>&#x1F50D; <i>gym, health</i>", "long": 144.980015, "lat": -37.83806870000001, "category_name": "Gym", "iconpath": "img/gym-yellow.png"}, {"business_status": "OPERATIONAL", "geometry": {"location": {"lat": -37.836918, "lng": 144.965487}, "viewport": {"northeast": {"lat": -37.83559956970849, "lng": 144.9667301302915}, "southwest": {"lat": -37.83829753029149, "lng": 144.9640321697085}}}, "icon": "https://maps.gstatic.com/mapfiles/place_api/icons/v1/png_71/school-71.png", "icon_background_color": "#7B9EB0", "icon_mask_base_uri": "https://maps.gstatic.com/mapfiles/place_api/icons/v2/school_pinlet", "name": "HOUSE OF CULTURE DR DAVID JUAN FERRIZ OLIVARES", "opening_hours": {"open_now": false}, "photos": [{"height": 4160, "html_attributions": ["<a href=\"https://maps.google.com/maps/contrib/102578808533933032621\">HOUSE OF CULTURE DR DAVID JUAN FERRIZ OLIVARES</a>"], "photo_reference": "AcYSjRgHfWydhzoSNSfG3ouYYfQcsFUEKJFw5FBLgrHakTspcxMh9Zr8-n2gzHLZHa3EUaIqFumtd0BXZGbiLHhXuAKP5BqG_qFft20XilTsu3f1IGxNq-QxheaQy2duP4NXgE9SwqGRE92iHt01sgTv3uhBYghNkmkQUVHi7cCC2r62ZdST", "width": 2340}], "place_id": "ChIJ90tTtAZo1moRzfJ0UqEii0E", "plus_code": {"compound_code": "5X78+65 South Melbourne VIC, Australia", "global_code": "4RJ65X78+65"}, "rating": 5, "reference": "ChIJ90tTtAZo1moRzfJ0UqEii0E", "scope": "GOOGLE", "types": ["gym", "health", "point_of_interest", "establishment"], "user_ratings_total": 5, "vicinity": "341 Moray Street, South Melbourne", "primary_type": "Gym", "types str": "gym, health", "ratings_star": "\u2605\u2605\u2605\u2605\u2605", "popup": "<img src=\"https://maps.googleapis.com/maps/api/place/photo?maxwidth=300&photo_reference=AcYSjRgHfWydhzoSNSfG3ouYYfQcsFUEKJFw5FBLgrHakTspcxMh9Zr8-n2gzHLZHa3EUaIqFumtd0BXZGbiLHhXuAKP5BqG_qFft20XilTsu3f1IGxNq-QxheaQy2duP4NXgE9SwqGRE92iHt01sgTv3uhBYghNkmkQUVHi7cCC2r62ZdST&key=AIzaSyAlEl7yt8E7Y7tuui21xhJr-UPIqxrW67M\" width=\"100%\" maxwidth=300></img><br><h4><b>HOUSE OF CULTURE DR DAVID JUAN FERRIZ OLIVARES</b></h4><font color=\"gray\"><b>5\u2605\u2605\u2605\u2605\u2605</b> (5)</font><br>341 Moray Street, South Melbourne<br><br>&#x1F50D; <i>gym, health</i>", "long": 144.965487, "lat": -37.836918, "photo": "https://maps.googleapis.com/maps/api/place/photo?maxwidth=300&photo_reference=AcYSjRgHfWydhzoSNSfG3ouYYfQcsFUEKJFw5FBLgrHakTspcxMh9Zr8-n2gzHLZHa3EUaIqFumtd0BXZGbiLHhXuAKP5BqG_qFft20XilTsu3f1IGxNq-QxheaQy2duP4NXgE9SwqGRE92iHt01sgTv3uhBYghNkmkQUVHi7cCC2r62ZdST&key=AIzaSyAlEl7yt8E7Y7tuui21xhJr-UPIqxrW67M", "category_name": "Gym", "iconpath": "img/gym-green.png"}, {"business_status": "OPERATIONAL", "geometry": {"location": {"lat": -37.83225, "lng": 144.964882}, "viewport": {"northeast": {"lat": -37.83090331970851, "lng": 144.9663217802915}, "southwest": {"lat": -37.83360128029151, "lng": 144.9636238197085}}}, "icon": "https://maps.gstatic.com/mapfiles/place_api/icons/v1/png_71/generic_business-71.png", "icon_background_color": "#7B9EB0", "icon_mask_base_uri": "https://maps.gstatic.com/mapfiles/place_api/icons/v2/generic_pinlet", "name": "Body Matrix", "opening_hours": {"open_now": true}, "photos": [{"height": 1188, "html_attributions": ["<a href=\"https://maps.google.com/maps/contrib/111126674083133696710\">Body Matrix</a>"], "photo_reference": "AcYSjRiMkY2Gt5EymZOmZInfOoFfx1re4bsZJqMggNuDMtV-xppxfOY6LjPfb6CuhmLq6BBYuH0NxoWjwQtyEyynMYYpHLUMX6gpeO8OFAFAX6u5iPBi2gb1K60A7T5YazhNrhxfcBLUBAD-DJbQn_6MI8TMhSxTgg84eeJY-SCQPjD8C9d8", "width": 2646}], "place_id": "ChIJTYS_2wFo1moRjfJQDIHWzBc", "plus_code": {"compound_code": "5X97+4X South Melbourne VIC, Australia", "global_code": "4RJ65X97+4X"}, "rating": 4.3, "reference": "ChIJTYS_2wFo1moRjfJQDIHWzBc", "scope": "GOOGLE", "types": ["gym", "health", "point_of_interest", "establishment"], "user_ratings_total": 15, "vicinity": "28 Eastern Road, South Melbourne", "primary_type": "Gym", "types str": "gym, health", "ratings_star": "\u2605\u2605\u2605\u2605\u2606", "popup": "<img src=\"https://maps.googleapis.com/maps/api/place/photo?maxwidth=300&photo_reference=AcYSjRiMkY2Gt5EymZOmZInfOoFfx1re4bsZJqMggNuDMtV-xppxfOY6LjPfb6CuhmLq6BBYuH0NxoWjwQtyEyynMYYpHLUMX6gpeO8OFAFAX6u5iPBi2gb1K60A7T5YazhNrhxfcBLUBAD-DJbQn_6MI8TMhSxTgg84eeJY-SCQPjD8C9d8&key=AIzaSyAlEl7yt8E7Y7tuui21xhJr-UPIqxrW67M\" width=\"100%\" maxwidth=300></img><br><h4><b>Body Matrix</b></h4><font color=\"gray\"><b>4.3\u2605\u2605\u2605\u2605\u2606</b> (15)</font><br>28 Eastern Road, South Melbourne<br><br>&#x1F50D; <i>gym, health</i>", "long": 144.964882, "lat": -37.83225, "photo": "https://maps.googleapis.com/maps/api/place/photo?maxwidth=300&photo_reference=AcYSjRiMkY2Gt5EymZOmZInfOoFfx1re4bsZJqMggNuDMtV-xppxfOY6LjPfb6CuhmLq6BBYuH0NxoWjwQtyEyynMYYpHLUMX6gpeO8OFAFAX6u5iPBi2gb1K60A7T5YazhNrhxfcBLUBAD-DJbQn_6MI8TMhSxTgg84eeJY-SCQPjD8C9d8&key=AIzaSyAlEl7yt8E7Y7tuui21xhJr-UPIqxrW67M", "category_name": "Gym", "iconpath": "img/gym-green.png"}, {"business_status": "CLOSED_TEMPORARILY", "geometry": {"location": {"lat": -37.8410688, "lng": 144.9647271}, "viewport": {"northeast": {"lat": -37.8397198197085, "lng": 144.9660760802915}, "southwest": {"lat": -37.84241778029149, "lng": 144.9633781197085}}}, "icon": "https://maps.gstatic.com/mapfiles/place_api/icons/v1/png_71/generic_business-71.png", "icon_background_color": "#7B9EB0", "icon_mask_base_uri": "https://maps.gstatic.com/mapfiles/place_api/icons/v2/generic_pinlet", "name": "level 1 31 Aughtie drive", "permanently_closed": true, "place_id": "ChIJvTe5JwZo1moR2VSjRlZs8rs", "plus_code": {"compound_code": "5X57+HV Albert Park VIC, Australia", "global_code": "4RJ65X57+HV"}, "reference": "ChIJvTe5JwZo1moR2VSjRlZs8rs", "scope": "GOOGLE", "types": ["gym", "health", "point_of_interest", "establishment"], "vicinity": "1/31 Aughtie Drive, Albert Park", "primary_type": "Gym", "types str": "gym, health", "popup": "<h4><b>level 1 31 Aughtie drive</b></h4><br>1/31 Aughtie Drive, Albert Park<br><br>&#x1F50D; <i>gym, health</i>", "long": 144.9647271, "lat": -37.8410688, "category_name": "Gym", "iconpath": "img/gym-yellow.png"}, {"business_status": "OPERATIONAL", "geometry": {"location": {"lat": -37.838842, "lng": 144.963014}, "viewport": {"northeast": {"lat": -37.8375613697085, "lng": 144.9644310302915}, "southwest": {"lat": -37.8402593302915, "lng": 144.9617330697085}}}, "icon": "https://maps.gstatic.com/mapfiles/place_api/icons/v1/png_71/generic_business-71.png", "icon_background_color": "#7B9EB0", "icon_mask_base_uri": "https://maps.gstatic.com/mapfiles/place_api/icons/v2/generic_pinlet", "name": "Osteopathy Centre for Musculoskeletal Medicine", "opening_hours": {"open_now": true}, "photos": [{"height": 2004, "html_attributions": ["<a href=\"https://maps.google.com/maps/contrib/108372282102669240037\">Osteopathy Centre for Musculoskeletal Medicine</a>"], "photo_reference": "AcYSjRiSLp7tJYdWfMt40mprW6nScMsbue-uCByYGdxUP_LGGDIYQbpraOryaMZviHvjqxmfMTv_0KZqe6nbbexg1VSNULRdW-ZqFsyxjmCyhXkkZNQunk3GN0m4QgLEA6_J5HrTHxalSXRK_0U_AW6WyMgMcfRZ4nuInotHdw0NFEQG-tup", "width": 3564}], "place_id": "ChIJU4wzuwdo1moRgMyodVRDbBA", "plus_code": {"compound_code": "5X67+F6 South Melbourne VIC, Australia", "global_code": "4RJ65X67+F6"}, "rating": 5, "reference": "ChIJU4wzuwdo1moRgMyodVRDbBA", "scope": "GOOGLE", "types": ["physiotherapist", "gym", "health", "point_of_interest", "establishment"], "user_ratings_total": 18, "vicinity": "300 Albert Road, South Melbourne", "primary_type": "Gym", "types str": "physiotherapist, gym, health", "ratings_star": "\u2605\u2605\u2605\u2605\u2605", "popup": "<img src=\"https://maps.googleapis.com/maps/api/place/photo?maxwidth=300&photo_reference=AcYSjRiSLp7tJYdWfMt40mprW6nScMsbue-uCByYGdxUP_LGGDIYQbpraOryaMZviHvjqxmfMTv_0KZqe6nbbexg1VSNULRdW-ZqFsyxjmCyhXkkZNQunk3GN0m4QgLEA6_J5HrTHxalSXRK_0U_AW6WyMgMcfRZ4nuInotHdw0NFEQG-tup&key=AIzaSyAlEl7yt8E7Y7tuui21xhJr-UPIqxrW67M\" width=\"100%\" maxwidth=300></img><br><h4><b>Osteopathy Centre for Musculoskeletal Medicine</b></h4><font color=\"gray\"><b>5\u2605\u2605\u2605\u2605\u2605</b> (18)</font><br>300 Albert Road, South Melbourne<br><br>&#x1F50D; <i>physiotherapist, gym, health</i>", "long": 144.963014, "lat": -37.838842, "photo": "https://maps.googleapis.com/maps/api/place/photo?maxwidth=300&photo_reference=AcYSjRiSLp7tJYdWfMt40mprW6nScMsbue-uCByYGdxUP_LGGDIYQbpraOryaMZviHvjqxmfMTv_0KZqe6nbbexg1VSNULRdW-ZqFsyxjmCyhXkkZNQunk3GN0m4QgLEA6_J5HrTHxalSXRK_0U_AW6WyMgMcfRZ4nuInotHdw0NFEQG-tup&key=AIzaSyAlEl7yt8E7Y7tuui21xhJr-UPIqxrW67M", "category_name": "Gym", "iconpath": "img/gym-green.png"}, {"business_status": "CLOSED_TEMPORARILY", "geometry": {"location": {"lat": -37.841174, "lng": 144.9647448}, "viewport": {"northeast": {"lat": -37.8398250197085, "lng": 144.9660937802915}, "southwest": {"lat": -37.8425229802915, "lng": 144.9633958197085}}}, "icon": "https://maps.gstatic.com/mapfiles/place_api/icons/v1/png_71/generic_business-71.png", "icon_background_color": "#7B9EB0", "icon_mask_base_uri": "https://maps.gstatic.com/mapfiles/place_api/icons/v2/generic_pinlet", "name": "Australian Taekwondo High Performance Training Centre", "permanently_closed": true, "place_id": "ChIJJ8E9kKtp1moReonSl09uP8c", "plus_code": {"compound_code": "5X57+GV Albert Park VIC, Australia", "global_code": "4RJ65X57+GV"}, "reference": "ChIJJ8E9kKtp1moReonSl09uP8c", "scope": "GOOGLE", "types": ["gym", "health", "point_of_interest", "establishment"], "vicinity": "Albert Park", "primary_type": "Gym", "types str": "gym, health", "popup": "<h4><b>Australian Taekwondo High Performance Training Centre</b></h4><br>Albert Park<br><br>&#x1F50D; <i>gym, health</i>", "long": 144.9647448, "lat": -37.841174, "category_name": "Gym", "iconpath": "img/gym-yellow.png"}, {"business_status": "CLOSED_TEMPORARILY", "geometry": {"location": {"lat": -37.83228450000001, "lng": 144.964999}, "viewport": {"northeast": {"lat": -37.8309224197085, "lng": 144.9663939802915}, "southwest": {"lat": -37.8336203802915, "lng": 144.9636960197085}}}, "icon": "https://maps.gstatic.com/mapfiles/place_api/icons/v1/png_71/generic_business-71.png", "icon_background_color": "#7B9EB0", "icon_mask_base_uri": "https://maps.gstatic.com/mapfiles/place_api/icons/v2/generic_pinlet", "name": "\u97e9\u56fd\u4e8c\u9662", "permanently_closed": true, "place_id": "ChIJXzE33AFo1moRhiHtNjJWKno", "plus_code": {"compound_code": "5X97+3X South Melbourne VIC, Australia", "global_code": "4RJ65X97+3X"}, "reference": "ChIJXzE33AFo1moRhiHtNjJWKno", "scope": "GOOGLE", "types": ["gym", "health", "point_of_interest", "establishment"], "vicinity": "25 Eastern Road, South Melbourne", "primary_type": "Gym", "types str": "gym, health", "popup": "<h4><b>\u97e9\u56fd\u4e8c\u9662</b></h4><br>25 Eastern Road, South Melbourne<br><br>&#x1F50D; <i>gym, health</i>", "long": 144.964999, "lat": -37.83228450000001, "category_name": "Gym", "iconpath": "img/gym-yellow.png"}, {"business_status": "OPERATIONAL", "geometry": {"location": {"lat": -37.8320171, "lng": 144.9647811}, "viewport": {"northeast": {"lat": -37.8305679697085, "lng": 144.9660833802915}, "southwest": {"lat": -37.8332659302915, "lng": 144.9633854197085}}}, "icon": "https://maps.gstatic.com/mapfiles/place_api/icons/v1/png_71/generic_business-71.png", "icon_background_color": "#7B9EB0", "icon_mask_base_uri": "https://maps.gstatic.com/mapfiles/place_api/icons/v2/generic_pinlet", "name": "Curves", "opening_hours": {"open_now": true}, "photos": [{"height": 576, "html_attributions": ["<a href=\"https://maps.google.com/maps/contrib/103781135671089695017\">Curves</a>"], "photo_reference": "AcYSjRgonwOlmYaYqB6HLVY7AL3zoOq3oWP_Of0pgbuHr0EhLQbRumwPwVlzr1UJjYwO5xfjfc7Px_TdelxnQ2iNjAkSi7jlN2fOofVsV4D_KPvaQvdEk7wfIxipUQPKcD4W3s6R4mfPGrYHwQumt-H_R5NaM9too_iBKl3SQlDe6pYIf5TJ", "width": 1024}], "place_id": "ChIJnQtW2AFo1moRWqGOvXJM2tg", "plus_code": {"compound_code": "5X97+5W South Melbourne VIC, Australia", "global_code": "4RJ65X97+5W"}, "rating": 4.9, "reference": "ChIJnQtW2AFo1moRWqGOvXJM2tg", "scope": "GOOGLE", "types": ["gym", "health", "point_of_interest", "establishment"], "user_ratings_total": 14, "vicinity": "145 Dorcas Street, South Melbourne", "primary_type": "Gym", "types str": "gym, health", "ratings_star": "\u2605\u2605\u2605\u2605\u2606", "popup": "<img src=\"https://maps.googleapis.com/maps/api/place/photo?maxwidth=300&photo_reference=AcYSjRgonwOlmYaYqB6HLVY7AL3zoOq3oWP_Of0pgbuHr0EhLQbRumwPwVlzr1UJjYwO5xfjfc7Px_TdelxnQ2iNjAkSi7jlN2fOofVsV4D_KPvaQvdEk7wfIxipUQPKcD4W3s6R4mfPGrYHwQumt-H_R5NaM9too_iBKl3SQlDe6pYIf5TJ&key=AIzaSyAlEl7yt8E7Y7tuui21xhJr-UPIqxrW67M\" width=\"100%\" maxwidth=300></img><br><h4><b>Curves</b></h4><font color=\"gray\"><b>4.9\u2605\u2605\u2605\u2605\u2606</b> (14)</font><br>145 Dorcas Street, South Melbourne<br><br>&#x1F50D; <i>gym, health</i>", "long": 144.9647811, "lat": -37.8320171, "photo": "https://maps.googleapis.com/maps/api/place/photo?maxwidth=300&photo_reference=AcYSjRgonwOlmYaYqB6HLVY7AL3zoOq3oWP_Of0pgbuHr0EhLQbRumwPwVlzr1UJjYwO5xfjfc7Px_TdelxnQ2iNjAkSi7jlN2fOofVsV4D_KPvaQvdEk7wfIxipUQPKcD4W3s6R4mfPGrYHwQumt-H_R5NaM9too_iBKl3SQlDe6pYIf5TJ&key=AIzaSyAlEl7yt8E7Y7tuui21xhJr-UPIqxrW67M", "category_name": "Gym", "iconpath": "img/gym-green.png"}, {"business_status": "OPERATIONAL", "geometry": {"location": {"lat": -37.83211660000001, "lng": 144.9647604}, "viewport": {"northeast": {"lat": -37.8307341197085, "lng": 144.9662270802915}, "southwest": {"lat": -37.8334320802915, "lng": 144.9635291197085}}}, "icon": "https://maps.gstatic.com/mapfiles/place_api/icons/v1/png_71/school-71.png", "icon_background_color": "#7B9EB0", "icon_mask_base_uri": "https://maps.gstatic.com/mapfiles/place_api/icons/v2/school_pinlet", "name": "Soul Pilates", "opening_hours": {"open_now": true}, "photos": [{"height": 1536, "html_attributions": ["<a href=\"https://maps.google.com/maps/contrib/116627133003107518203\">Olivia S.</a>"], "photo_reference": "AcYSjRjqoddPhE3eV6F7ypDcBJj-R_SNmA41KyUbRprJb1JGABEIK0K3UioHYZXNWHi0ZPmJwmb-TIYRyUEjpzocrZA2tyaqFcqLZYY_KsvmTvIQ6-MJ6WEtpeXRhq-uKRiElRwXLl5dVLwltxH-1KAEjGDUm5mRYqDJw8ljhkJZC3xHXHcT", "width": 2048}], "place_id": "ChIJP14idqpC1moRtq-m2i6SjX4", "plus_code": {"compound_code": "5X97+5W South Melbourne VIC, Australia", "global_code": "4RJ65X97+5W"}, "rating": 5, "reference": "ChIJP14idqpC1moRtq-m2i6SjX4", "scope": "GOOGLE", "types": ["gym", "health", "point_of_interest", "establishment"], "user_ratings_total": 3, "vicinity": "24 Eastern Road, South Melbourne", "primary_type": "Gym", "types str": "gym, health", "ratings_star": "\u2605\u2605\u2605\u2605\u2605", "popup": "<img src=\"https://maps.googleapis.com/maps/api/place/photo?maxwidth=300&photo_reference=AcYSjRjqoddPhE3eV6F7ypDcBJj-R_SNmA41KyUbRprJb1JGABEIK0K3UioHYZXNWHi0ZPmJwmb-TIYRyUEjpzocrZA2tyaqFcqLZYY_KsvmTvIQ6-MJ6WEtpeXRhq-uKRiElRwXLl5dVLwltxH-1KAEjGDUm5mRYqDJw8ljhkJZC3xHXHcT&key=AIzaSyAlEl7yt8E7Y7tuui21xhJr-UPIqxrW67M\" width=\"100%\" maxwidth=300></img><br><h4><b>Soul Pilates</b></h4><font color=\"gray\"><b>5\u2605\u2605\u2605\u2605\u2605</b> (3)</font><br>24 Eastern Road, South Melbourne<br><br>&#x1F50D; <i>gym, health</i>", "long": 144.9647604, "lat": -37.83211660000001, "photo": "https://maps.googleapis.com/maps/api/place/photo?maxwidth=300&photo_reference=AcYSjRjqoddPhE3eV6F7ypDcBJj-R_SNmA41KyUbRprJb1JGABEIK0K3UioHYZXNWHi0ZPmJwmb-TIYRyUEjpzocrZA2tyaqFcqLZYY_KsvmTvIQ6-MJ6WEtpeXRhq-uKRiElRwXLl5dVLwltxH-1KAEjGDUm5mRYqDJw8ljhkJZC3xHXHcT&key=AIzaSyAlEl7yt8E7Y7tuui21xhJr-UPIqxrW67M", "category_name": "Gym", "iconpath": "img/gym-green.png"}, {"business_status": "CLOSED_TEMPORARILY", "geometry": {"location": {"lat": -37.8246519, "lng": 144.9719102}, "viewport": {"northeast": {"lat": -37.8233118697085, "lng": 144.9732361302915}, "southwest": {"lat": -37.8260098302915, "lng": 144.9705381697085}}}, "icon": "https://maps.gstatic.com/mapfiles/place_api/icons/v1/png_71/generic_business-71.png", "icon_background_color": "#7B9EB0", "icon_mask_base_uri": "https://maps.gstatic.com/mapfiles/place_api/icons/v2/generic_pinlet", "name": "Krunchies health and fitness", "permanently_closed": true, "place_id": "ChIJe-1OAbBC1moRJS6ZpExPXf0", "plus_code": {"compound_code": "5XGC+4Q Melbourne VIC, Australia", "global_code": "4RJ65XGC+4Q"}, "rating": 5, "reference": "ChIJe-1OAbBC1moRJS6ZpExPXf0", "scope": "GOOGLE", "types": ["gym", "point_of_interest", "health", "establishment"], "user_ratings_total": 2, "vicinity": "Linlithgow Avenue, Melbourne", "primary_type": "Gym", "types str": "gym, health", "ratings_star": "\u2605\u2605\u2605\u2605\u2605", "popup": "<h4><b>Krunchies health and fitness</b></h4><font color=\"gray\"><b>5\u2605\u2605\u2605\u2605\u2605</b> (2)</font><br>Linlithgow Avenue, Melbourne<br><br>&#x1F50D; <i>gym, health</i>", "long": 144.9719102, "lat": -37.8246519, "category_name": "Gym", "iconpath": "img/gym-green.png"}, {"business_status": "OPERATIONAL", "geometry": {"location": {"lat": -37.8318463, "lng": 144.9700173}, "viewport": {"northeast": {"lat": -37.8305390697085, "lng": 144.9712974802915}, "southwest": {"lat": -37.83323703029149, "lng": 144.9685995197085}}}, "icon": "https://maps.gstatic.com/mapfiles/place_api/icons/v1/png_71/generic_business-71.png", "icon_background_color": "#7B9EB0", "icon_mask_base_uri": "https://maps.gstatic.com/mapfiles/place_api/icons/v2/generic_pinlet", "name": "Domain Health - South Melbourne", "opening_hours": {"open_now": true}, "photos": [{"height": 1000, "html_attributions": ["<a href=\"https://maps.google.com/maps/contrib/111219403315079661403\">Domain Health - South Melbourne</a>"], "photo_reference": "AcYSjRg2B1dRxDuFuXRIwdsYMy_LrfpqVzw_BLH4ildL60AqkRO5NhP8Wl2tS_MBurs3epc80E_RBU9HI7-QY3LejqCTykakvcj59UKjdd_qNAZjBIAFa04EfOkrvDV3YyAtdYlBpACINraGPWGa4KDt7xRD_Li9N4M9H09Bk54KbrmKHjd_", "width": 1500}], "place_id": "ChIJ27iLWqhC1moR22MMcprYZ1E", "plus_code": {"compound_code": "5X9C+72 South Melbourne VIC, Australia", "global_code": "4RJ65X9C+72"}, "rating": 4.9, "reference": "ChIJ27iLWqhC1moR22MMcprYZ1E", "scope": "GOOGLE", "types": ["physiotherapist", "gym", "point_of_interest", "health", "establishment"], "user_ratings_total": 16, "vicinity": "175 Wells Street, South Melbourne", "primary_type": "Gym", "types str": "physiotherapist, gym, health", "ratings_star": "\u2605\u2605\u2605\u2605\u2606", "popup": "<img src=\"https://maps.googleapis.com/maps/api/place/photo?maxwidth=300&photo_reference=AcYSjRg2B1dRxDuFuXRIwdsYMy_LrfpqVzw_BLH4ildL60AqkRO5NhP8Wl2tS_MBurs3epc80E_RBU9HI7-QY3LejqCTykakvcj59UKjdd_qNAZjBIAFa04EfOkrvDV3YyAtdYlBpACINraGPWGa4KDt7xRD_Li9N4M9H09Bk54KbrmKHjd_&key=AIzaSyAlEl7yt8E7Y7tuui21xhJr-UPIqxrW67M\" width=\"100%\" maxwidth=300></img><br><h4><b>Domain Health - South Melbourne</b></h4><font color=\"gray\"><b>4.9\u2605\u2605\u2605\u2605\u2606</b> (16)</font><br>175 Wells Street, South Melbourne<br><br>&#x1F50D; <i>physiotherapist, gym, health</i>", "long": 144.9700173, "lat": -37.8318463, "photo": "https://maps.googleapis.com/maps/api/place/photo?maxwidth=300&photo_reference=AcYSjRg2B1dRxDuFuXRIwdsYMy_LrfpqVzw_BLH4ildL60AqkRO5NhP8Wl2tS_MBurs3epc80E_RBU9HI7-QY3LejqCTykakvcj59UKjdd_qNAZjBIAFa04EfOkrvDV3YyAtdYlBpACINraGPWGa4KDt7xRD_Li9N4M9H09Bk54KbrmKHjd_&key=AIzaSyAlEl7yt8E7Y7tuui21xhJr-UPIqxrW67M", "category_name": "Gym", "iconpath": "img/gym-green.png"}, {"business_status": "OPERATIONAL", "geometry": {"location": {"lat": -37.8342725, "lng": 144.9821392}, "viewport": {"northeast": {"lat": -37.8328314197085, "lng": 144.9835081802915}, "southwest": {"lat": -37.8355293802915, "lng": 144.9808102197085}}}, "icon": "https://maps.gstatic.com/mapfiles/place_api/icons/v1/png_71/school-71.png", "icon_background_color": "#7B9EB0", "icon_mask_base_uri": "https://maps.gstatic.com/mapfiles/place_api/icons/v2/school_pinlet", "name": "Melbourne Altitude Training PTY LTD", "opening_hours": {"open_now": false}, "photos": [{"height": 1702, "html_attributions": ["<a href=\"https://maps.google.com/maps/contrib/114602957221243758298\">Melbourne Altitude Training PTY LTD</a>"], "photo_reference": "AcYSjRji3Stbjc1nbGkrklh4TM6VJE_atCn8wwklaAk5kjHezG5zigpyDAUVYao3bZqUTgEzMBZoxwnCewSvlq7K-sznSUtNlXaSmDkVwSBfOxaK99R8fQEeFRsT-3xA2URPbVkEbh4mW6uNatRpAgpyCXgrTNjOAg0X65U6J_TM20QvaybF", "width": 3024}], "place_id": "ChIJ2aeLLFVd1moRaI0gaqHAQKc", "plus_code": {"compound_code": "5X8J+7V South Yarra VIC, Australia", "global_code": "4RJ65X8J+7V"}, "rating": 5, "reference": "ChIJ2aeLLFVd1moRaI0gaqHAQKc", "scope": "GOOGLE", "types": ["physiotherapist", "gym", "school", "point_of_interest", "health", "establishment"], "user_ratings_total": 14, "vicinity": "183A Domain Road, South Yarra", "primary_type": "Gym", "types str": "physiotherapist, gym, school, health", "ratings_star": "\u2605\u2605\u2605\u2605\u2605", "popup": "<img src=\"https://maps.googleapis.com/maps/api/place/photo?maxwidth=300&photo_reference=AcYSjRji3Stbjc1nbGkrklh4TM6VJE_atCn8wwklaAk5kjHezG5zigpyDAUVYao3bZqUTgEzMBZoxwnCewSvlq7K-sznSUtNlXaSmDkVwSBfOxaK99R8fQEeFRsT-3xA2URPbVkEbh4mW6uNatRpAgpyCXgrTNjOAg0X65U6J_TM20QvaybF&key=AIzaSyAlEl7yt8E7Y7tuui21xhJr-UPIqxrW67M\" width=\"100%\" maxwidth=300></img><br><h4><b>Melbourne Altitude Training PTY LTD</b></h4><font color=\"gray\"><b>5\u2605\u2605\u2605\u2605\u2605</b> (14)</font><br>183A Domain Road, South Yarra<br><br>&#x1F50D; <i>physiotherapist, gym, school, health</i>", "long": 144.9821392, "lat": -37.8342725, "photo": "https://maps.googleapis.com/maps/api/place/photo?maxwidth=300&photo_reference=AcYSjRji3Stbjc1nbGkrklh4TM6VJE_atCn8wwklaAk5kjHezG5zigpyDAUVYao3bZqUTgEzMBZoxwnCewSvlq7K-sznSUtNlXaSmDkVwSBfOxaK99R8fQEeFRsT-3xA2URPbVkEbh4mW6uNatRpAgpyCXgrTNjOAg0X65U6J_TM20QvaybF&key=AIzaSyAlEl7yt8E7Y7tuui21xhJr-UPIqxrW67M", "category_name": "Gym", "iconpath": "img/gym-green.png"}, {"business_status": "OPERATIONAL", "geometry": {"location": {"lat": -37.8318463, "lng": 144.9700173}, "viewport": {"northeast": {"lat": -37.8305234197085, "lng": 144.9712877302915}, "southwest": {"lat": -37.8332213802915, "lng": 144.9685897697085}}}, "icon": "https://maps.gstatic.com/mapfiles/place_api/icons/v1/png_71/generic_business-71.png", "icon_background_color": "#7B9EB0", "icon_mask_base_uri": "https://maps.gstatic.com/mapfiles/place_api/icons/v2/generic_pinlet", "name": "Fiona Samuel Physiotherapy and Pilates", "opening_hours": {"open_now": true},